date_dt,date_popup,amdno,wbgt,lat,lon,kjName,guideline
2023-08-09 15:00:00,8月9日 15時時点,11001,18.7,45.52,141.935,宗谷岬,注意
2023-08-09 15:00:00,8月9日 15時時点,11016,19.8,45.415,141.67833333333334,稚内,注意
2023-08-09 15:00:00,8月9日 15時時点,11046,20.9,45.305,141.045,礼文,注意
2023-08-09 15:00:00,8月9日 15時時点,11076,21.0,45.335,142.17,浜鬼志別,注意
2023-08-09 15:00:00,8月9日 15時時点,11121,21.1,45.248333333333335,141.85166666666666,沼川,注意
2023-08-09 15:00:00,8月9日 15時時点,11151,25.4,45.178333333333335,141.13833333333332,沓形,警戒
2023-08-09 15:00:00,8月9日 15時時点,11176,23.3,45.10166666666667,141.78,豊富,注意
2023-08-09 15:00:00,8月9日 15時時点,11206,20.0,45.125,142.35,浜頓別,注意
2023-08-09 15:00:00,8月9日 15時時点,11276,24.7,44.965,142.28,中頓別,注意
2023-08-09 15:00:00,8月9日 15時時点,11291,20.3,44.94,142.585,北見枝幸,注意
2023-08-09 15:00:00,8月9日 15時時点,11316,23.0,44.84166666666667,142.48,歌登,注意
2023-08-09 15:00:00,8月9日 15時時点,12011,30.3,44.82833333333333,142.07666666666665,中川,厳重警戒
2023-08-09 15:00:00,8月9日 15時時点,12041,27.8,44.72666666666667,142.265,音威子府,警戒
2023-08-09 15:00:00,8月9日 15時時点,12141,31.7,44.48,142.34166666666667,美深,危険
2023-08-09 15:00:00,8月9日 15時時点,12181,31.4,44.37,142.45666666666668,名寄,危険
2023-08-09 15:00:00,8月9日 15時時点,12231,30.8,44.295,142.63666666666666,下川,厳重警戒
2023-08-09 15:00:00,8月9日 15時時点,12261,30.1,44.18666666666667,142.41666666666666,士別,厳重警戒
2023-08-09 15:00:00,8月9日 15時時点,12266,31.3,44.11833333333333,142.595,朝日,危険
2023-08-09 15:00:00,8月9日 15時時点,12301,30.5,44.028333333333336,142.41,和寒,厳重警戒
2023-08-09 15:00:00,8月9日 15時時点,12386,31.7,43.87,142.26,江丹別,危険
2023-08-09 15:00:00,8月9日 15時時点,12396,30.7,43.87,142.47,比布,厳重警戒
2023-08-09 15:00:00,8月9日 15時時点,12411,24.7,43.846666666666664,142.75333333333333,上川,注意
2023-08-09 15:00:00,8月9日 15時時点,12442,30.2,43.75666666666667,142.37166666666667,旭川,厳重警戒
2023-08-09 15:00:00,8月9日 15時時点,12451,30.9,43.70166666666667,142.50833333333333,東川,厳重警戒
2023-08-09 15:00:00,8月9日 15時時点,12512,29.4,43.64333333333333,142.58166666666668,志比内,厳重警戒
2023-08-09 15:00:00,8月9日 15時時点,12551,27.8,43.58833333333333,142.49333333333334,美瑛,警戒
2023-08-09 15:00:00,8月9日 15時時点,12596,28.7,43.455,142.465,上富良野,厳重警戒
2023-08-09 15:00:00,8月9日 15時時点,12626,31.2,43.333333333333336,142.4,富良野,危険
2023-08-09 15:00:00,8月9日 15時時点,12632,31.8,43.30166666666667,142.52166666666668,麓郷,危険
2023-08-09 15:00:00,8月9日 15時時点,12691,30.2,43.16833333333334,142.56833333333333,幾寅,厳重警戒
2023-08-09 15:00:00,8月9日 15時時点,12746,27.4,42.97833333333333,142.395,占冠,警戒
2023-08-09 15:00:00,8月9日 15時時点,15041,28.1,44.281666666666666,142.16166666666666,朱鞠内,厳重警戒
2023-08-09 15:00:00,8月9日 15時時点,15076,30.1,44.01,142.16,幌加内,厳重警戒
2023-08-09 15:00:00,8月9日 15時時点,13061,28.3,44.89333333333333,141.76166666666666,天塩,厳重警戒
2023-08-09 15:00:00,8月9日 15時時点,13086,29.4,44.718333333333334,141.80666666666667,遠別,厳重警戒
2023-08-09 15:00:00,8月9日 15時時点,13121,27.8,44.52333333333333,141.77,初山別,警戒
2023-08-09 15:00:00,8月9日 15時時点,13146,28.7,44.428333333333335,141.42166666666665,焼尻,厳重警戒
2023-08-09 15:00:00,8月9日 15時時点,13181,27.8,44.36333333333334,141.7,羽幌,警戒
2023-08-09 15:00:00,8月9日 15時時点,13261,29.9,44.04833333333333,141.85666666666665,達布,厳重警戒
2023-08-09 15:00:00,8月9日 15時時点,13277,28.8,43.945,141.63166666666666,留萌,厳重警戒
2023-08-09 15:00:00,8月9日 15時時点,13311,28.2,43.848333333333336,141.51,増毛,厳重警戒
2023-08-09 15:00:00,8月9日 15時時点,13321,25.4,43.85333333333333,141.76,幌糠,警戒
2023-08-09 15:00:00,8月9日 15時時点,14026,29.4,43.58166666666666,141.38666666666666,浜益,厳重警戒
2023-08-09 15:00:00,8月9日 15時時点,14071,28.7,43.39666666666667,141.43666666666667,厚田,厳重警戒
2023-08-09 15:00:00,8月9日 15時時点,14101,30.3,43.22,141.645,新篠津,厳重警戒
2023-08-09 15:00:00,8月9日 15時時点,14116,28.7,43.14833333333333,141.22166666666666,山口,厳重警戒
2023-08-09 15:00:00,8月9日 15時時点,14121,30.6,43.193333333333335,141.37,石狩,厳重警戒
2023-08-09 15:00:00,8月9日 15時時点,14136,29.4,43.11,141.60166666666666,江別,厳重警戒
2023-08-09 15:00:00,8月9日 15時時点,14163,28.0,43.06,141.32833333333335,札幌,厳重警戒
2023-08-09 15:00:00,8月9日 15時時点,14206,26.0,42.92666666666667,141.565,恵庭島松,警戒
2023-08-09 15:00:00,8月9日 15時時点,14286,23.3,42.77166666666667,141.40666666666667,支笏湖畔,注意
2023-08-09 15:00:00,8月9日 15時時点,15116,28.4,43.815,141.92666666666668,石狩沼田,厳重警戒
2023-08-09 15:00:00,8月9日 15時時点,15156,32.5,43.78,141.96166666666667,秩父別,危険
2023-08-09 15:00:00,8月9日 15時時点,15161,30.8,43.718333333333334,142.07333333333332,深川,厳重警戒
2023-08-09 15:00:00,8月9日 15時時点,15231,31.7,43.595,141.73166666666665,空知吉野,危険
2023-08-09 15:00:00,8月9日 15時時点,15241,31.8,43.57,141.93833333333333,滝川,危険
2023-08-09 15:00:00,8月9日 15時時点,15251,28.2,43.52,142.19,芦別,厳重警戒
2023-08-09 15:00:00,8月9日 15時時点,15311,30.1,43.33,141.61666666666667,月形,厳重警戒
2023-08-09 15:00:00,8月9日 15時時点,15321,31.4,43.36333333333334,141.82666666666665,美唄,危険
2023-08-09 15:00:00,8月9日 15時時点,15356,30.0,43.211666666666666,141.785,岩見沢,厳重警戒
2023-08-09 15:00:00,8月9日 15時時点,15431,28.9,43.01166666666666,141.69333333333333,長沼,厳重警戒
2023-08-09 15:00:00,8月9日 15時時点,15442,27.5,43.038333333333334,141.95666666666668,夕張,警戒
2023-08-09 15:00:00,8月9日 15時時点,16026,31.0,43.27166666666667,140.56333333333333,美国,危険
2023-08-09 15:00:00,8月9日 15時時点,16061,30.4,43.145,140.42333333333335,神恵内,厳重警戒
2023-08-09 15:00:00,8月9日 15時時点,16076,28.1,43.181666666666665,140.75833333333333,余市,厳重警戒
2023-08-09 15:00:00,8月9日 15時時点,16091,27.6,43.181666666666665,141.015,小樽,警戒
2023-08-09 15:00:00,8月9日 15時時点,16156,31.0,42.98,140.60333333333332,共和,危険
2023-08-09 15:00:00,8月9日 15時時点,16206,32.5,42.81,140.54166666666666,蘭越,危険
2023-08-09 15:00:00,8月9日 15時時点,16217,27.9,42.9,140.75666666666666,倶知安,警戒
2023-08-09 15:00:00,8月9日 15時時点,16252,30.0,42.795,140.22333333333333,寿都,厳重警戒
2023-08-09 15:00:00,8月9日 15時時点,16281,27.9,42.775,140.88,真狩,警戒
2023-08-09 15:00:00,8月9日 15時時点,16286,31.6,42.79333333333334,140.94833333333332,喜茂別,危険
2023-08-09 15:00:00,8月9日 15時時点,16321,32.3,42.663333333333334,140.31,黒松内,危険
2023-08-09 15:00:00,8月9日 15時時点,17036,22.5,44.58,142.96333333333334,雄武,注意
2023-08-09 15:00:00,8月9日 15時時点,17076,24.8,44.47,143.10833333333332,興部,注意
2023-08-09 15:00:00,8月9日 15時時点,17091,27.1,44.33166666666666,142.935,西興部,警戒
2023-08-09 15:00:00,8月9日 15時時点,17112,24.4,44.345,143.355,紋別,注意
2023-08-09 15:00:00,8月9日 15時時点,17166,22.3,44.21333333333333,143.61833333333334,湧別,注意
2023-08-09 15:00:00,8月9日 15時時点,17196,26.0,44.17666666666667,143.06166666666667,滝上,警戒
2023-08-09 15:00:00,8月9日 15時時点,17246,22.8,44.115,144.03666666666666,常呂,注意
2023-08-09 15:00:00,8月9日 15時時点,17306,24.9,44.053333333333335,143.54,遠軽,注意
2023-08-09 15:00:00,8月9日 15時時点,17316,23.2,44.01833333333333,143.76,佐呂間,注意
2023-08-09 15:00:00,8月9日 15時時点,17341,22.2,44.016666666666666,144.27833333333334,網走,注意
2023-08-09 15:00:00,8月9日 15時時点,17351,27.9,44.05166666666667,144.98166666666665,宇登呂,警戒
2023-08-09 15:00:00,8月9日 15時時点,17482,24.5,43.865,143.15333333333334,白滝,注意
2023-08-09 15:00:00,8月9日 15時時点,17501,23.8,43.916666666666664,143.53166666666667,生田原,注意
2023-08-09 15:00:00,8月9日 15時時点,17521,28.4,43.776666666666664,143.84166666666667,北見,厳重警戒
2023-08-09 15:00:00,8月9日 15時時点,17546,28.4,43.84166666666667,144.485,小清水,厳重警戒
2023-08-09 15:00:00,8月9日 15時時点,17561,31.1,43.885,144.7,斜里,危険
2023-08-09 15:00:00,8月9日 15時時点,17596,22.7,43.74166666666667,143.45,留辺蘂,注意
2023-08-09 15:00:00,8月9日 15時時点,17607,23.2,43.70666666666666,143.64333333333335,境野,注意
2023-08-09 15:00:00,8月9日 15時時点,17631,28.9,43.77,144.17166666666665,美幌,厳重警戒
2023-08-09 15:00:00,8月9日 15時時点,17717,30.0,43.70166666666667,144.03333333333333,津別,厳重警戒
2023-08-09 15:00:00,8月9日 15時時点,18038,28.7,44.02333333333333,145.18666666666667,羅臼,厳重警戒
2023-08-09 15:00:00,8月9日 15時時点,18136,28.0,43.66166666666667,145.13166666666666,標津,厳重警戒
2023-08-09 15:00:00,8月9日 15時時点,18161,26.6,43.52,144.74666666666667,上標津,警戒
2023-08-09 15:00:00,8月9日 15時時点,18171,27.5,43.54333333333334,144.97833333333332,中標津,警戒
2023-08-09 15:00:00,8月9日 15時時点,18256,27.0,43.38166666666667,145.11833333333334,別海,警戒
2023-08-09 15:00:00,8月9日 15時時点,18273,25.9,43.33,145.585,根室,警戒
2023-08-09 15:00:00,8月9日 15時時点,18281,25.1,43.39333333333333,145.75833333333333,納沙布,警戒
2023-08-09 15:00:00,8月9日 15時時点,18311,24.4,43.221666666666664,145.22666666666666,厚床,注意
2023-08-09 15:00:00,8月9日 15時時点,19021,29.5,43.61666666666667,144.45666666666668,川湯,厳重警戒
2023-08-09 15:00:00,8月9日 15時時点,19051,29.1,43.51,144.46666666666667,弟子屈,厳重警戒
2023-08-09 15:00:00,8月9日 15時時点,19076,30.6,43.43666666666667,144.08333333333334,阿寒湖畔,厳重警戒
2023-08-09 15:00:00,8月9日 15時時点,19151,25.1,43.291666666666664,144.58666666666667,標茶,警戒
2023-08-09 15:00:00,8月9日 15時時点,19191,28.7,43.23166666666667,144.325,鶴居,厳重警戒
2023-08-09 15:00:00,8月9日 15時時点,19261,30.7,43.19833333333333,144.14166666666668,中徹別,厳重警戒
2023-08-09 15:00:00,8月9日 15時時点,19311,26.2,43.12,145.11,榊町,警戒
2023-08-09 15:00:00,8月9日 15時時点,19376,24.8,43.09,144.77833333333334,太田,注意
2023-08-09 15:00:00,8月9日 15時時点,19416,22.9,42.97,144.06166666666667,白糠,注意
2023-08-09 15:00:00,8月9日 15時時点,19432,23.3,42.985,144.37666666666667,釧路,注意
2023-08-09 15:00:00,8月9日 15時時点,19451,22.8,42.93833333333333,144.735,知方学,注意
2023-08-09 15:00:00,8月9日 15時時点,20146,31.0,43.471666666666664,143.75333333333333,陸別,危険
2023-08-09 15:00:00,8月9日 15時時点,20186,27.5,43.36666666666667,143.19166666666666,ぬかびら源泉郷,警戒
2023-08-09 15:00:00,8月9日 15時時点,20266,27.1,43.24166666666667,143.295,上士幌,警戒
2023-08-09 15:00:00,8月9日 15時時点,20276,31.3,43.24333333333333,143.55333333333334,足寄,危険
2023-08-09 15:00:00,8月9日 15時時点,20341,30.0,43.13166666666667,143.6,本別,厳重警戒
2023-08-09 15:00:00,8月9日 15時時点,20356,29.6,43.07666666666667,142.84,新得,厳重警戒
2023-08-09 15:00:00,8月9日 15時時点,20361,29.1,43.10333333333333,142.995,鹿追,厳重警戒
2023-08-09 15:00:00,8月9日 15時時点,20371,29.2,43.05,143.18333333333334,駒場,厳重警戒
2023-08-09 15:00:00,8月9日 15時時点,20421,29.3,42.9,143.04333333333332,芽室,厳重警戒
2023-08-09 15:00:00,8月9日 15時時点,20432,30.7,42.92166666666667,143.21166666666667,帯広,厳重警戒
2023-08-09 15:00:00,8月9日 15時時点,20441,29.2,42.92,143.45833333333334,池田,厳重警戒
2023-08-09 15:00:00,8月9日 15時時点,20506,27.3,42.80833333333333,143.65666666666667,浦幌,警戒
2023-08-09 15:00:00,8月9日 15時時点,20556,26.2,42.78666666666667,143.32833333333335,糠内,警戒
2023-08-09 15:00:00,8月9日 15時時点,20601,28.9,42.641666666666666,143.09666666666666,上札内,厳重警戒
2023-08-09 15:00:00,8月9日 15時時点,20606,26.8,42.651666666666664,143.195,更別,警戒
2023-08-09 15:00:00,8月9日 15時時点,20631,20.6,42.68666666666667,143.64666666666668,大津,注意
2023-08-09 15:00:00,8月9日 15時時点,20696,26.7,42.5,143.27333333333334,大樹,警戒
2023-08-09 15:00:00,8月9日 15時時点,20751,23.2,42.29333333333334,143.31666666666666,広尾,注意
2023-08-09 15:00:00,8月9日 15時時点,21111,31.4,42.73,141.88833333333332,厚真,危険
2023-08-09 15:00:00,8月9日 15時時点,21126,29.6,42.76166666666667,142.14333333333335,穂別,厳重警戒
2023-08-09 15:00:00,8月9日 15時時点,21161,29.1,42.67,141.07833333333335,大滝,厳重警戒
2023-08-09 15:00:00,8月9日 15時時点,21171,24.3,42.63,141.24666666666667,森野,注意
2023-08-09 15:00:00,8月9日 15時時点,21187,26.7,42.623333333333335,141.54666666666665,苫小牧,警戒
2023-08-09 15:00:00,8月9日 15時時点,21226,30.0,42.59,140.64333333333335,大岸,厳重警戒
2023-08-09 15:00:00,8月9日 15時時点,21261,24.2,42.54333333333334,141.35166666666666,白老,注意
2023-08-09 15:00:00,8月9日 15時時点,21276,31.0,42.59,141.93333333333334,鵡川,危険
2023-08-09 15:00:00,8月9日 15時時点,21297,28.6,42.475,140.84833333333333,伊達,厳重警戒
2023-08-09 15:00:00,8月9日 15時時点,21312,28.9,42.458333333333336,141.11833333333334,登別,厳重警戒
2023-08-09 15:00:00,8月9日 15時時点,21323,27.0,42.31166666666667,140.975,室蘭,警戒
2023-08-09 15:00:00,8月9日 15時時点,22036,31.1,42.876666666666665,142.44166666666666,日高,危険
2023-08-09 15:00:00,8月9日 15時時点,22141,30.0,42.49666666666667,142.05333333333334,日高門別,厳重警戒
2023-08-09 15:00:00,8月9日 15時時点,22156,32.1,42.54333333333334,142.33333333333334,新和,危険
2023-08-09 15:00:00,8月9日 15時時点,22241,29.4,42.343333333333334,142.36166666666668,静内,厳重警戒
2023-08-09 15:00:00,8月9日 15時時点,22291,27.6,42.245,142.66166666666666,三石,警戒
2023-08-09 15:00:00,8月9日 15時時点,22306,25.8,42.223333333333336,142.94833333333332,中杵臼,警戒
2023-08-09 15:00:00,8月9日 15時時点,22327,27.1,42.16166666666667,142.77666666666667,浦河,警戒
2023-08-09 15:00:00,8月9日 15時時点,22391,24.5,41.925,143.24333333333334,えりも岬,注意
2023-08-09 15:00:00,8月9日 15時時点,23031,27.6,42.52333333333333,140.38166666666666,長万部,警戒
2023-08-09 15:00:00,8月9日 15時時点,23086,27.4,42.251666666666665,140.27166666666668,八雲,警戒
2023-08-09 15:00:00,8月9日 15時時点,23166,29.3,42.06666666666667,140.58833333333334,森,厳重警戒
2023-08-09 15:00:00,8月9日 15時時点,23206,27.4,41.905,140.97,川汲,警戒
2023-08-09 15:00:00,8月9日 15時時点,23226,31.5,41.88666666666667,140.65333333333334,北斗,危険
2023-08-09 15:00:00,8月9日 15時時点,23232,30.5,41.81666666666667,140.75333333333333,函館,厳重警戒
2023-08-09 15:00:00,8月9日 15時時点,23326,30.3,41.68,140.43666666666667,木古内,厳重警戒
2023-08-09 15:00:00,8月9日 15時時点,23376,31.2,41.42333333333333,140.08666666666667,松前,危険
2023-08-09 15:00:00,8月9日 15時時点,24141,32.1,42.12833333333333,139.985,熊石,危険
2023-08-09 15:00:00,8月9日 15時時点,24041,31.6,42.45,139.85166666666666,せたな,危険
2023-08-09 15:00:00,8月9日 15時時点,24051,32.5,42.428333333333335,140.00833333333333,今金,危険
2023-08-09 15:00:00,8月9日 15時時点,24101,30.8,42.248333333333335,139.55666666666667,奥尻,厳重警戒
2023-08-09 15:00:00,8月9日 15時時点,24201,35.3,41.93,140.31166666666667,鶉,危険
2023-08-09 15:00:00,8月9日 15時時点,24217,30.6,41.86666666666667,140.12333333333333,江差,厳重警戒
2023-08-09 15:00:00,8月9日 15時時点,31001,29.3,41.526666666666664,140.91166666666666,大間,厳重警戒
2023-08-09 15:00:00,8月9日 15時時点,31111,29.9,41.28333333333333,141.21,むつ,厳重警戒
2023-08-09 15:00:00,8月9日 15時時点,31121,28.9,41.235,141.39666666666668,小田野沢,厳重警戒
2023-08-09 15:00:00,8月9日 15時時点,31136,27.9,41.18,140.48166666666665,今別,警戒
2023-08-09 15:00:00,8月9日 15時時点,31156,30.6,41.145,140.82166666666666,脇野沢,厳重警戒
2023-08-09 15:00:00,8月9日 15時時点,31186,31.1,41.056666666666665,140.34666666666666,市浦,危険
2023-08-09 15:00:00,8月9日 15時時点,31201,30.1,41.045,140.63333333333333,蟹田,厳重警戒
2023-08-09 15:00:00,8月9日 15時時点,31296,32.9,40.80833333333333,140.45833333333334,五所川原,危険
2023-08-09 15:00:00,8月9日 15時時点,31312,31.7,40.821666666666665,140.76833333333335,青森,危険
2023-08-09 15:00:00,8月9日 15時時点,31332,31.4,40.885,141.16,野辺地,危険
2023-08-09 15:00:00,8月9日 15時時点,31336,30.4,40.885,141.27166666666668,六ケ所,厳重警戒
2023-08-09 15:00:00,8月9日 15時時点,31366,31.3,40.776666666666664,140.205,鰺ケ沢,危険
2023-08-09 15:00:00,8月9日 15時時点,31436,31.6,40.645,139.93166666666667,深浦,危険
2023-08-09 15:00:00,8月9日 15時時点,31461,32.7,40.611666666666665,140.455,弘前,危険
2023-08-09 15:00:00,8月9日 15時時点,31466,31.9,40.666666666666664,140.585,黒石,危険
2023-08-09 15:00:00,8月9日 15時時点,31482,25.1,40.64833333333333,140.84833333333333,酸ケ湯,警戒
2023-08-09 15:00:00,8月9日 15時時点,31506,32.0,40.675,141.375,三沢,危険
2023-08-09 15:00:00,8月9日 15時時点,31586,33.2,40.60666666666667,141.23333333333332,十和田,危険
2023-08-09 15:00:00,8月9日 15時時点,31602,32.1,40.526666666666664,141.52166666666668,八戸,危険
2023-08-09 15:00:00,8月9日 15時時点,31646,32.6,40.48166666666667,140.62,碇ケ関,危険
2023-08-09 15:00:00,8月9日 15時時点,31662,30.3,40.42666666666667,140.89833333333334,休屋,厳重警戒
2023-08-09 15:00:00,8月9日 15時時点,31721,32.3,40.38333333333333,141.25666666666666,三戸,危険
2023-08-09 15:00:00,8月9日 15時時点,32056,31.1,40.413333333333334,139.94833333333332,八森,危険
2023-08-09 15:00:00,8月9日 15時時点,32111,32.7,40.19833333333333,140.03166666666667,能代,危険
2023-08-09 15:00:00,8月9日 15時時点,32126,32.9,40.22666666666667,140.37166666666667,鷹巣,危険
2023-08-09 15:00:00,8月9日 15時時点,32136,31.7,40.251666666666665,140.505,大館,危険
2023-08-09 15:00:00,8月9日 15時時点,32146,33.4,40.215,140.78666666666666,鹿角,危険
2023-08-09 15:00:00,8月9日 15時時点,32206,30.7,40.12,140.84,湯瀬,厳重警戒
2023-08-09 15:00:00,8月9日 15時時点,32266,28.9,40.013333333333335,140.80166666666668,八幡平,厳重警戒
2023-08-09 15:00:00,8月9日 15時時点,32286,31.2,39.91166666666667,139.9,男鹿,危険
2023-08-09 15:00:00,8月9日 15時時点,32287,33.5,40.0,139.95,大潟,危険
2023-08-09 15:00:00,8月9日 15時時点,32296,34.0,39.93833333333333,140.115,五城目,危険
2023-08-09 15:00:00,8月9日 15時時点,32311,31.8,39.99333333333333,140.40333333333334,阿仁合,危険
2023-08-09 15:00:00,8月9日 15時時点,32402,32.0,39.71666666666667,140.09833333333333,秋田,危険
2023-08-09 15:00:00,8月9日 15時時点,32407,32.0,39.70666666666666,140.28666666666666,岩見三内,危険
2023-08-09 15:00:00,8月9日 15時時点,32466,32.6,39.60333333333333,140.55666666666667,角館,危険
2023-08-09 15:00:00,8月9日 15時時点,32476,31.4,39.69833333333333,140.73166666666665,田沢湖,危険
2023-08-09 15:00:00,8月9日 15時時点,32496,32.8,39.526666666666664,140.23333333333332,大正寺,危険
2023-08-09 15:00:00,8月9日 15時時点,32551,33.0,39.49,140.495,大曲,危険
2023-08-09 15:00:00,8月9日 15時時点,32571,32.6,39.36,140.055,本荘,危険
2023-08-09 15:00:00,8月9日 15時時点,32581,33.2,39.305,140.28833333333333,東由利,危険
2023-08-09 15:00:00,8月9日 15時時点,32596,34.7,39.32,140.555,横手,危険
2023-08-09 15:00:00,8月9日 15時時点,32616,32.0,39.255,139.91333333333333,にかほ,危険
2023-08-09 15:00:00,8月9日 15時時点,32626,31.6,39.235,140.13666666666666,矢島,危険
2023-08-09 15:00:00,8月9日 15時時点,32691,31.9,39.18666666666667,140.46333333333334,湯沢,危険
2023-08-09 15:00:00,8月9日 15時時点,32771,29.1,38.96,140.52833333333334,湯の岱,厳重警戒
2023-08-09 15:00:00,8月9日 15時時点,33006,31.2,40.403333333333336,141.7,種市,危険
2023-08-09 15:00:00,8月9日 15時時点,33026,33.2,40.325,141.46666666666667,軽米,危険
2023-08-09 15:00:00,8月9日 15時時点,33071,31.3,40.29833333333333,141.29833333333335,二戸,危険
2023-08-09 15:00:00,8月9日 15時時点,33136,31.5,40.14833333333333,141.57166666666666,山形,危険
2023-08-09 15:00:00,8月9日 15時時点,33146,33.9,40.16833333333334,141.74833333333333,久慈,危険
2023-08-09 15:00:00,8月9日 15時時点,33166,31.3,40.10333333333333,141.05,荒屋,危険
2023-08-09 15:00:00,8月9日 15時時点,33176,29.2,40.06,141.225,奥中山,厳重警戒
2023-08-09 15:00:00,8月9日 15時時点,33186,30.1,40.04,141.45666666666668,葛巻,厳重警戒
2023-08-09 15:00:00,8月9日 15時時点,33206,32.5,40.00333333333333,141.88333333333333,普代,危険
2023-08-09 15:00:00,8月9日 15時時点,33226,27.8,39.95166666666667,141.065,岩手松尾,警戒
2023-08-09 15:00:00,8月9日 15時時点,33296,30.6,39.86833333333333,141.16666666666666,好摩,厳重警戒
2023-08-09 15:00:00,8月9日 15時時点,33326,29.6,39.846666666666664,141.795,岩泉,厳重警戒
2023-08-09 15:00:00,8月9日 15時時点,33336,31.0,39.846666666666664,141.96333333333334,小本,危険
2023-08-09 15:00:00,8月9日 15時時点,33371,27.5,39.78333333333333,141.32833333333335,薮川,警戒
2023-08-09 15:00:00,8月9日 15時時点,33421,28.2,39.696666666666665,140.975,雫石,厳重警戒
2023-08-09 15:00:00,8月9日 15時時点,33431,32.0,39.69833333333333,141.165,盛岡,危険
2023-08-09 15:00:00,8月9日 15時時点,33441,24.1,39.65,141.35333333333332,区界,注意
2023-08-09 15:00:00,8月9日 15時時点,33472,30.7,39.64666666666667,141.965,宮古,厳重警戒
2023-08-09 15:00:00,8月9日 15時時点,33486,26.1,39.54833333333333,140.84333333333333,沢内,警戒
2023-08-09 15:00:00,8月9日 15時時点,33501,27.3,39.54666666666667,141.12666666666667,紫波,警戒
2023-08-09 15:00:00,8月9日 15時時点,33526,32.0,39.598333333333336,141.68166666666667,川井,危険
2023-08-09 15:00:00,8月9日 15時時点,33581,32.1,39.47,141.27833333333334,大迫,危険
2023-08-09 15:00:00,8月9日 15時時点,33616,30.0,39.45,141.95666666666668,山田,厳重警戒
2023-08-09 15:00:00,8月9日 15時時点,33631,30.6,39.31,140.77666666666667,湯田,厳重警戒
2023-08-09 15:00:00,8月9日 15時時点,33671,30.5,39.33833333333333,141.54333333333332,遠野,厳重警戒
2023-08-09 15:00:00,8月9日 15時時点,33716,33.0,39.288333333333334,141.11,北上,危険
2023-08-09 15:00:00,8月9日 15時時点,33751,31.1,39.27,141.87833333333333,釜石,危険
2023-08-09 15:00:00,8月9日 15時時点,33776,30.6,39.14,141.06333333333333,若柳,厳重警戒
2023-08-09 15:00:00,8月9日 15時時点,33781,30.3,39.18333333333333,141.16166666666666,江刺,厳重警戒
2023-08-09 15:00:00,8月9日 15時時点,33801,27.5,39.141666666666666,141.57333333333332,住田,警戒
2023-08-09 15:00:00,8月9日 15時時点,33877,28.0,39.06333333333333,141.71333333333334,大船渡,厳重警戒
2023-08-09 15:00:00,8月9日 15時時点,33911,29.4,38.93333333333333,141.125,一関,厳重警戒
2023-08-09 15:00:00,8月9日 15時時点,33921,30.3,38.92166666666667,141.33,千厩,厳重警戒
2023-08-09 15:00:00,8月9日 15時時点,34012,23.1,38.913333333333334,140.82833333333335,駒ノ湯,注意
2023-08-09 15:00:00,8月9日 15時時点,34026,27.5,38.906666666666666,141.55666666666667,気仙沼,警戒
2023-08-09 15:00:00,8月9日 15時時点,34096,27.1,38.74333333333333,140.76,川渡,警戒
2023-08-09 15:00:00,8月9日 15時時点,34111,31.5,38.735,141.005,築館,危険
2023-08-09 15:00:00,8月9日 15時時点,34171,31.0,38.626666666666665,141.18833333333333,米山,危険
2023-08-09 15:00:00,8月9日 15時時点,34186,30.8,38.681666666666665,141.44833333333332,志津川,厳重警戒
2023-08-09 15:00:00,8月9日 15時時点,34216,30.2,38.598333333333336,140.91166666666666,古川,厳重警戒
2023-08-09 15:00:00,8月9日 15時時点,34266,30.6,38.473333333333336,140.88833333333332,大衡,厳重警戒
2023-08-09 15:00:00,8月9日 15時時点,34276,31.3,38.46,141.09166666666667,鹿島台,危険
2023-08-09 15:00:00,8月9日 15時時点,34292,30.3,38.42666666666667,141.29833333333335,石巻,厳重警戒
2023-08-09 15:00:00,8月9日 15時時点,34296,31.1,38.446666666666665,141.45,女川,危険
2023-08-09 15:00:00,8月9日 15時時点,34311,28.8,38.303333333333335,140.63666666666666,新川,厳重警戒
2023-08-09 15:00:00,8月9日 15時時点,34331,30.5,38.33833333333333,141.01333333333332,塩釜,厳重警戒
2023-08-09 15:00:00,8月9日 15時時点,34392,27.4,38.26166666666666,140.89666666666668,仙台,警戒
2023-08-09 15:00:00,8月9日 15時時点,34461,32.4,38.015,140.61166666666668,白石,危険
2023-08-09 15:00:00,8月9日 15時時点,34462,29.4,38.126666666666665,140.68,蔵王,厳重警戒
2023-08-09 15:00:00,8月9日 15時時点,34471,26.9,38.025,140.85833333333332,亘理,警戒
2023-08-09 15:00:00,8月9日 15時時点,34506,31.7,37.931666666666665,140.77833333333334,丸森,危険
2023-08-09 15:00:00,8月9日 15時時点,35002,32.2,39.18333333333333,139.54333333333332,飛島,危険
2023-08-09 15:00:00,8月9日 15時時点,35052,32.3,38.90833333333333,139.84333333333333,酒田,危険
2023-08-09 15:00:00,8月9日 15時時点,35071,30.2,38.91833333333334,140.2,差首鍋,厳重警戒
2023-08-09 15:00:00,8月9日 15時時点,35116,30.9,38.87833333333333,140.33166666666668,金山,厳重警戒
2023-08-09 15:00:00,8月9日 15時時点,35141,33.2,38.735,139.82833333333335,鶴岡,危険
2023-08-09 15:00:00,8月9日 15時時点,35146,31.6,38.8,139.97333333333333,狩川,危険
2023-08-09 15:00:00,8月9日 15時時点,35162,31.6,38.75666666666667,140.31166666666667,新庄,危険
2023-08-09 15:00:00,8月9日 15時時点,35176,29.4,38.75833333333333,140.51666666666668,向町,厳重警戒
2023-08-09 15:00:00,8月9日 15時時点,35216,30.8,38.60666666666667,140.16333333333333,肘折,厳重警戒
2023-08-09 15:00:00,8月9日 15時時点,35231,31.3,38.608333333333334,140.41166666666666,尾花沢,危険
2023-08-09 15:00:00,8月9日 15時時点,35246,33.2,38.56666666666667,139.55166666666668,鼠ケ関,危険
2023-08-09 15:00:00,8月9日 15時時点,35332,29.8,38.46,140.34833333333333,村山,厳重警戒
2023-08-09 15:00:00,8月9日 15時時点,35361,30.0,38.39,139.99333333333334,大井沢,厳重警戒
2023-08-09 15:00:00,8月9日 15時時点,35376,31.0,38.37,140.19166666666666,左沢,危険
2023-08-09 15:00:00,8月9日 15時時点,35426,31.1,38.255,140.345,山形,危険
2023-08-09 15:00:00,8月9日 15時時点,35456,30.8,38.105,140.015,長井,厳重警戒
2023-08-09 15:00:00,8月9日 15時時点,35486,33.4,38.07833333333333,139.735,小国,危険
2023-08-09 15:00:00,8月9日 15時時点,35511,32.0,38.00333333333333,140.20666666666668,高畠,危険
2023-08-09 15:00:00,8月9日 15時時点,35541,33.1,37.99,139.95333333333335,高峰,危険
2023-08-09 15:00:00,8月9日 15時時点,35552,29.5,37.91166666666667,140.14333333333335,米沢,厳重警戒
2023-08-09 15:00:00,8月9日 15時時点,36056,29.5,37.891666666666666,140.43666666666667,茂庭,厳重警戒
2023-08-09 15:00:00,8月9日 15時時点,36066,32.6,37.85166666666667,140.58833333333334,梁川,危険
2023-08-09 15:00:00,8月9日 15時時点,36106,27.7,37.721666666666664,140.05833333333334,桧原,警戒
2023-08-09 15:00:00,8月9日 15時時点,36127,28.4,37.75833333333333,140.47,福島,厳重警戒
2023-08-09 15:00:00,8月9日 15時時点,36151,31.7,37.78333333333333,140.925,相馬,危険
2023-08-09 15:00:00,8月9日 15時時点,36176,31.5,37.65833333333333,139.86333333333334,喜多方,危険
2023-08-09 15:00:00,8月9日 15時時点,36196,22.0,37.66833333333334,140.26,鷲倉,注意
2023-08-09 15:00:00,8月9日 15時時点,36221,30.0,37.665,140.72666666666666,飯舘,厳重警戒
2023-08-09 15:00:00,8月9日 15時時点,36251,31.4,37.58833333333333,139.65666666666667,西会津,危険
2023-08-09 15:00:00,8月9日 15時時点,36276,27.1,37.55166666666667,140.10833333333332,猪苗代,警戒
2023-08-09 15:00:00,8月9日 15時時点,36291,25.3,37.583333333333336,140.43,二本松,警戒
2023-08-09 15:00:00,8月9日 15時時点,36342,31.4,37.473333333333336,139.52833333333334,金山,危険
2023-08-09 15:00:00,8月9日 15時時点,36361,30.4,37.48833333333334,139.91,若松,厳重警戒
2023-08-09 15:00:00,8月9日 15時時点,36391,30.5,37.435,140.57666666666665,船引,厳重警戒
2023-08-09 15:00:00,8月9日 15時時点,36411,33.9,37.49166666666667,140.965,浪江,危険
2023-08-09 15:00:00,8月9日 15時時点,36426,31.8,37.343333333333334,139.31333333333333,只見,危険
2023-08-09 15:00:00,8月9日 15時時点,36476,28.5,37.36833333333333,140.33,郡山,厳重警戒
2023-08-09 15:00:00,8月9日 15時時点,36501,30.6,37.336666666666666,140.80833333333334,川内,厳重警戒
2023-08-09 15:00:00,8月9日 15時時点,36536,27.5,37.265,139.53666666666666,南郷,警戒
2023-08-09 15:00:00,8月9日 15時時点,36562,24.1,37.276666666666664,140.06333333333333,湯本,注意
2023-08-09 15:00:00,8月9日 15時時点,36591,27.5,37.28666666666667,140.625,小野新町,警戒
2023-08-09 15:00:00,8月9日 15時時点,36611,30.1,37.233333333333334,141.0,広野,厳重警戒
2023-08-09 15:00:00,8月9日 15時時点,36641,25.4,37.20666666666666,139.795,田島,警戒
2023-08-09 15:00:00,8月9日 15時時点,36667,25.9,37.13166666666667,140.215,白河,警戒
2023-08-09 15:00:00,8月9日 15時時点,36676,29.0,37.14666666666667,140.46,石川,厳重警戒
2023-08-09 15:00:00,8月9日 15時時点,36716,24.2,37.01,139.375,桧枝岐,注意
2023-08-09 15:00:00,8月9日 15時時点,36821,27.8,36.93833333333333,140.40833333333333,東白川,警戒
2023-08-09 15:00:00,8月9日 15時時点,36836,29.6,36.93333333333333,140.73333333333332,山田,厳重警戒
2023-08-09 15:00:00,8月9日 15時時点,36846,29.2,36.946666666666665,140.90333333333334,小名浜,厳重警戒
2023-08-09 15:00:00,8月9日 15時時点,40046,31.4,36.833333333333336,140.77166666666668,北茨城,危険
2023-08-09 15:00:00,8月9日 15時時点,40061,25.7,36.778333333333336,140.345,大子,警戒
2023-08-09 15:00:00,8月9日 15時時点,40091,26.3,36.60666666666667,140.325,常陸大宮,警戒
2023-08-09 15:00:00,8月9日 15時時点,40136,28.4,36.58,140.645,日立,厳重警戒
2023-08-09 15:00:00,8月9日 15時時点,40191,27.2,36.395,140.24,笠間,警戒
2023-08-09 15:00:00,8月9日 15時時点,40201,28.2,36.38,140.46666666666667,水戸,厳重警戒
2023-08-09 15:00:00,8月9日 15時時点,40221,28.0,36.20166666666667,139.71666666666667,古河,厳重警戒
2023-08-09 15:00:00,8月9日 15時時点,40231,26.1,36.281666666666666,139.98833333333334,下館,警戒
2023-08-09 15:00:00,8月9日 15時時点,40281,26.5,36.16833333333334,139.945,下妻,警戒
2023-08-09 15:00:00,8月9日 15時時点,40311,32.2,36.16833333333334,140.52666666666667,鉾田,危険
2023-08-09 15:00:00,8月9日 15時時点,40336,28.8,36.056666666666665,140.125,つくば,厳重警戒
2023-08-09 15:00:00,8月9日 15時時点,40341,28.5,36.10333333333333,140.22,土浦,厳重警戒
2023-08-09 15:00:00,8月9日 15時時点,40406,31.6,35.96333333333333,140.62166666666667,鹿嶋,危険
2023-08-09 15:00:00,8月9日 15時時点,40426,29.9,35.89,140.21166666666667,龍ケ崎,厳重警戒
2023-08-09 15:00:00,8月9日 15時時点,41011,24.1,37.123333333333335,140.035,那須高原,注意
2023-08-09 15:00:00,8月9日 15時時点,41076,23.8,36.92166666666667,139.695,五十里,注意
2023-08-09 15:00:00,8月9日 15時時点,41091,26.3,36.98166666666667,140.01833333333335,黒磯,警戒
2023-08-09 15:00:00,8月9日 15時時点,41116,22.6,36.891666666666666,139.56833333333333,土呂部,注意
2023-08-09 15:00:00,8月9日 15時時点,41141,27.3,36.84,140.035,大田原,警戒
2023-08-09 15:00:00,8月9日 15時時点,41166,21.4,36.73833333333333,139.5,奥日光,注意
2023-08-09 15:00:00,8月9日 15時時点,41172,25.2,36.75,139.615,日光東町,警戒
2023-08-09 15:00:00,8月9日 15時時点,41181,26.4,36.75666666666667,139.88333333333333,塩谷,警戒
2023-08-09 15:00:00,8月9日 15時時点,41247,27.7,36.641666666666666,140.11666666666667,那須烏山,警戒
2023-08-09 15:00:00,8月9日 15時時点,41271,26.3,36.59166666666667,139.735,鹿沼,警戒
2023-08-09 15:00:00,8月9日 15時時点,41277,26.5,36.54833333333333,139.86833333333334,宇都宮,警戒
2023-08-09 15:00:00,8月9日 15時時点,41331,27.2,36.47666666666667,139.98666666666668,真岡,警戒
2023-08-09 15:00:00,8月9日 15時時点,41361,28.2,36.36333333333334,139.57,佐野,厳重警戒
2023-08-09 15:00:00,8月9日 15時時点,41376,26.9,36.33833333333333,139.83,小山,警戒
2023-08-09 15:00:00,8月9日 15時時点,42046,25.4,36.86333333333333,139.05833333333334,藤原,警戒
2023-08-09 15:00:00,8月9日 15時時点,42091,27.8,36.77333333333333,138.965,みなかみ,警戒
2023-08-09 15:00:00,8月9日 15時時点,42121,20.0,36.61666666666667,138.59166666666667,草津,注意
2023-08-09 15:00:00,8月9日 15時時点,42146,28.2,36.66833333333334,139.02166666666668,沼田,厳重警戒
2023-08-09 15:00:00,8月9日 15時時点,42186,25.0,36.586666666666666,138.85,中之条,警戒
2023-08-09 15:00:00,8月9日 15時時点,42221,20.5,36.46333333333333,138.46333333333334,田代,注意
2023-08-09 15:00:00,8月9日 15時時点,42251,28.0,36.405,139.06,前橋,厳重警戒
2023-08-09 15:00:00,8月9日 15時時点,42266,27.0,36.41,139.325,桐生,警戒
2023-08-09 15:00:00,8月9日 15時時点,42286,26.8,36.376666666666665,138.895,上里見,警戒
2023-08-09 15:00:00,8月9日 15時時点,42302,27.3,36.33166666666666,139.165,伊勢崎,警戒
2023-08-09 15:00:00,8月9日 15時時点,42326,26.0,36.245,138.70666666666668,西野牧,警戒
2023-08-09 15:00:00,8月9日 15時時点,42366,27.6,36.24,139.51333333333332,館林,警戒
2023-08-09 15:00:00,8月9日 15時時点,42396,26.7,36.108333333333334,138.89666666666668,神流,警戒
2023-08-09 15:00:00,8月9日 15時時点,43051,27.1,36.105,139.18333333333334,寄居,警戒
2023-08-09 15:00:00,8月9日 15時時点,43056,27.7,36.15,139.38,熊谷,警戒
2023-08-09 15:00:00,8月9日 15時時点,43126,27.5,36.086666666666666,139.635,久喜,警戒
2023-08-09 15:00:00,8月9日 15時時点,43156,27.1,35.99,139.07333333333332,秩父,警戒
2023-08-09 15:00:00,8月9日 15時時点,43171,27.9,35.985,139.335,鳩山,警戒
2023-08-09 15:00:00,8月9日 15時時点,43241,29.1,35.875,139.58666666666667,さいたま,厳重警戒
2023-08-09 15:00:00,8月9日 15時時点,43256,29.9,35.88333333333333,139.75666666666666,越谷,厳重警戒
2023-08-09 15:00:00,8月9日 15時時点,43266,26.4,35.77333333333333,139.41333333333333,所沢,警戒
2023-08-09 15:00:00,8月9日 15時時点,44046,25.7,35.791666666666664,139.05,小河内,警戒
2023-08-09 15:00:00,8月9日 15時時点,44056,26.7,35.788333333333334,139.31166666666667,青梅,警戒
2023-08-09 15:00:00,8月9日 15時時点,44071,30.4,35.73833333333333,139.59166666666667,練馬,厳重警戒
2023-08-09 15:00:00,8月9日 15時時点,44112,27.0,35.666666666666664,139.31666666666666,八王子,警戒
2023-08-09 15:00:00,8月9日 15時時点,44116,26.7,35.68333333333333,139.48333333333332,府中,警戒
2023-08-09 15:00:00,8月9日 15時時点,44132,29.5,35.69166666666667,139.75,東京,厳重警戒
2023-08-09 15:00:00,8月9日 15時時点,44136,30.1,35.638333333333335,139.86333333333334,江戸川臨海,厳重警戒
2023-08-09 15:00:00,8月9日 15時時点,44172,29.4,34.748333333333335,139.36166666666668,大島,厳重警戒
2023-08-09 15:00:00,8月9日 15時時点,44226,30.5,34.123333333333335,139.52,三宅島,厳重警戒
2023-08-09 15:00:00,8月9日 15時時点,44263,29.9,33.12166666666667,139.77833333333334,八丈島,厳重警戒
2023-08-09 15:00:00,8月9日 15時時点,44301,29.6,27.091666666666665,142.19,父島,厳重警戒
2023-08-09 15:00:00,8月9日 15時時点,45061,25.9,35.86333333333333,140.11,我孫子,警戒
2023-08-09 15:00:00,8月9日 15時時点,45081,30.1,35.858333333333334,140.50166666666667,香取,厳重警戒
2023-08-09 15:00:00,8月9日 15時時点,45106,27.7,35.711666666666666,140.04333333333332,船橋,警戒
2023-08-09 15:00:00,8月9日 15時時点,45116,30.4,35.72833333333333,140.21166666666667,佐倉,厳重警戒
2023-08-09 15:00:00,8月9日 15時時点,45147,27.4,35.73833333333333,140.85666666666665,銚子,警戒
2023-08-09 15:00:00,8月9日 15時時点,45181,29.8,35.655,140.505,横芝光,厳重警戒
2023-08-09 15:00:00,8月9日 15時時点,45212,29.0,35.60166666666667,140.10333333333332,千葉,厳重警戒
2023-08-09 15:00:00,8月9日 15時時点,45261,28.6,35.43666666666667,140.29333333333332,茂原,厳重警戒
2023-08-09 15:00:00,8月9日 15時時点,45282,28.1,35.361666666666665,139.94,木更津,厳重警戒
2023-08-09 15:00:00,8月9日 15時時点,45291,30.9,35.39666666666667,140.14833333333334,牛久,厳重警戒
2023-08-09 15:00:00,8月9日 15時時点,45326,30.9,35.235,140.09833333333333,坂畑,厳重警戒
2023-08-09 15:00:00,8月9日 15時時点,45361,31.5,35.111666666666665,140.1,鴨川,危険
2023-08-09 15:00:00,8月9日 15時時点,45371,29.4,35.15,140.31166666666667,勝浦,厳重警戒
2023-08-09 15:00:00,8月9日 15時時点,45401,30.8,34.986666666666665,139.865,館山,厳重警戒
2023-08-09 15:00:00,8月9日 15時時点,46091,27.7,35.43333333333333,139.38666666666666,海老名,警戒
2023-08-09 15:00:00,8月9日 15時時点,46106,28.1,35.43833333333333,139.65166666666667,横浜,厳重警戒
2023-08-09 15:00:00,8月9日 15時時点,46141,29.6,35.32,139.45,辻堂,厳重警戒
2023-08-09 15:00:00,8月9日 15時時点,46166,28.1,35.276666666666664,139.155,小田原,厳重警戒
2023-08-09 15:00:00,8月9日 15時時点,46211,28.9,35.178333333333335,139.63,三浦,厳重警戒
2023-08-09 15:00:00,8月9日 15時時点,48031,28.1,36.91166666666667,138.44166666666666,野沢温泉,厳重警戒
2023-08-09 15:00:00,8月9日 15時時点,48061,24.6,36.80833333333333,138.19666666666666,信濃町,注意
2023-08-09 15:00:00,8月9日 15時時点,48066,30.8,36.875,138.375,飯山,厳重警戒
2023-08-09 15:00:00,8月9日 15時時点,48141,25.8,36.69833333333333,137.86166666666668,白馬,警戒
2023-08-09 15:00:00,8月9日 15時時点,48156,29.5,36.66166666666667,138.19166666666666,長野,厳重警戒
2023-08-09 15:00:00,8月9日 15時時点,48191,28.2,36.52333333333333,137.83166666666668,大町,厳重警戒
2023-08-09 15:00:00,8月9日 15時時点,48196,26.2,36.54833333333333,137.99666666666667,信州新町,警戒
2023-08-09 15:00:00,8月9日 15時時点,48216,21.3,36.531666666666666,138.325,菅平,注意
2023-08-09 15:00:00,8月9日 15時時点,48256,26.8,36.4,138.265,上田,警戒
2023-08-09 15:00:00,8月9日 15時時点,48296,30.0,36.343333333333334,137.88166666666666,穂高,厳重警戒
2023-08-09 15:00:00,8月9日 15時時点,48321,24.4,36.38333333333333,138.38333333333333,東御,注意
2023-08-09 15:00:00,8月9日 15時時点,48331,23.9,36.34166666666667,138.54666666666665,軽井沢,注意
2023-08-09 15:00:00,8月9日 15時時点,48361,28.9,36.24666666666667,137.97,松本,厳重警戒
2023-08-09 15:00:00,8月9日 15時時点,48381,29.0,36.27166666666667,138.31333333333333,立科,厳重警戒
2023-08-09 15:00:00,8月9日 15時時点,48386,26.1,36.24666666666667,138.47666666666666,佐久,警戒
2023-08-09 15:00:00,8月9日 15時時点,48466,29.0,36.08833333333333,137.68333333333334,奈川,厳重警戒
2023-08-09 15:00:00,8月9日 15時時点,48491,27.4,36.045,138.10833333333332,諏訪,警戒
2023-08-09 15:00:00,8月9日 15時時点,48531,27.5,35.93833333333333,137.60166666666666,開田高原,警戒
2023-08-09 15:00:00,8月9日 15時時点,48536,27.7,35.93666666666667,137.78666666666666,木祖薮原,警戒
2023-08-09 15:00:00,8月9日 15時時点,48546,28.3,35.983333333333334,137.98333333333332,辰野,厳重警戒
2023-08-09 15:00:00,8月9日 15時時点,48561,23.0,35.97,138.22,原村,注意
2023-08-09 15:00:00,8月9日 15時時点,48571,21.3,35.94833333333333,138.47166666666666,野辺山,注意
2023-08-09 15:00:00,8月9日 15時時点,48606,29.5,35.84,137.68833333333333,木曽福島,厳重警戒
2023-08-09 15:00:00,8月9日 15時時点,48621,27.8,35.825,137.955,伊那,警戒
2023-08-09 15:00:00,8月9日 15時時点,48717,31.3,35.61,137.62,南木曽,危険
2023-08-09 15:00:00,8月9日 15時時点,48731,24.6,35.653333333333336,137.89833333333334,飯島,注意
2023-08-09 15:00:00,8月9日 15時時点,48767,28.5,35.52333333333333,137.82166666666666,飯田,厳重警戒
2023-08-09 15:00:00,8月9日 15時時点,48826,26.7,35.373333333333335,137.69166666666666,浪合,警戒
2023-08-09 15:00:00,8月9日 15時時点,48841,32.1,35.321666666666665,137.93166666666667,南信濃,危険
2023-08-09 15:00:00,8月9日 15時時点,49036,24.7,35.861666666666665,138.38666666666666,大泉,注意
2023-08-09 15:00:00,8月9日 15時時点,49086,25.7,35.693333333333335,138.44833333333332,韮崎,警戒
2023-08-09 15:00:00,8月9日 15時時点,49142,26.2,35.666666666666664,138.55333333333334,甲府,警戒
2023-08-09 15:00:00,8月9日 15時時点,49151,27.1,35.663333333333334,138.725,勝沼,警戒
2023-08-09 15:00:00,8月9日 15時時点,49161,26.0,35.608333333333334,138.93833333333333,大月,警戒
2023-08-09 15:00:00,8月9日 15時時点,49196,25.1,35.528333333333336,138.615,古関,警戒
2023-08-09 15:00:00,8月9日 15時時点,49236,27.7,35.46666666666667,138.44166666666666,切石,警戒
2023-08-09 15:00:00,8月9日 15時時点,49251,24.0,35.5,138.76,河口湖,注意
2023-08-09 15:00:00,8月9日 15時時点,49256,23.6,35.43666666666667,138.83666666666667,山中,注意
2023-08-09 15:00:00,8月9日 15時時点,49316,27.1,35.288333333333334,138.445,南部,警戒
2023-08-09 15:00:00,8月9日 15時時点,50106,24.3,35.21666666666667,138.22166666666666,井川,注意
2023-08-09 15:00:00,8月9日 15時時点,50136,25.6,35.305,138.92666666666668,御殿場,警戒
2023-08-09 15:00:00,8月9日 15時時点,50196,27.4,35.185,138.66333333333333,富士,警戒
2023-08-09 15:00:00,8月9日 15時時点,50206,28.8,35.11333333333334,138.925,三島,厳重警戒
2023-08-09 15:00:00,8月9日 15時時点,50226,27.4,35.056666666666665,137.76166666666666,佐久間,警戒
2023-08-09 15:00:00,8月9日 15時時点,50241,26.4,35.10166666666667,138.12833333333333,川根本町,警戒
2023-08-09 15:00:00,8月9日 15時時点,50261,27.5,35.053333333333335,138.52166666666668,清水,警戒
2023-08-09 15:00:00,8月9日 15時時点,50281,28.3,35.045,139.09166666666667,網代,厳重警戒
2023-08-09 15:00:00,8月9日 15時時点,50331,27.3,34.975,138.40333333333334,静岡,警戒
2023-08-09 15:00:00,8月9日 15時時点,50386,27.7,34.89,137.81333333333333,天竜,警戒
2023-08-09 15:00:00,8月9日 15時時点,50456,28.7,34.75333333333333,137.71166666666667,浜松,厳重警戒
2023-08-09 15:00:00,8月9日 15時時点,50476,28.1,34.785,138.13833333333332,菊川牧之原,厳重警戒
2023-08-09 15:00:00,8月9日 15時時点,50491,30.0,34.755,138.78333333333333,松崎,厳重警戒
2023-08-09 15:00:00,8月9日 15時時点,50506,28.3,34.781666666666666,139.04833333333335,稲取,厳重警戒
2023-08-09 15:00:00,8月9日 15時時点,50536,29.1,34.69166666666667,137.88,磐田,厳重警戒
2023-08-09 15:00:00,8月9日 15時時点,50551,28.3,34.60333333333333,138.21333333333334,御前崎,厳重警戒
2023-08-09 15:00:00,8月9日 15時時点,50561,29.2,34.60333333333333,138.84166666666667,石廊崎,厳重警戒
2023-08-09 15:00:00,8月9日 15時時点,51031,28.2,35.21666666666667,136.69833333333332,愛西,厳重警戒
2023-08-09 15:00:00,8月9日 15時時点,51071,26.1,35.211666666666666,137.50666666666666,稲武,警戒
2023-08-09 15:00:00,8月9日 15時時点,51106,27.8,35.166666666666664,136.965,名古屋,警戒
2023-08-09 15:00:00,8月9日 15時時点,51116,28.7,35.13166666666667,137.17666666666668,豊田,厳重警戒
2023-08-09 15:00:00,8月9日 15時時点,51216,28.3,34.995,136.94333333333333,大府,厳重警戒
2023-08-09 15:00:00,8月9日 15時時点,51226,27.7,34.91833333333334,137.19333333333333,岡崎,警戒
2023-08-09 15:00:00,8月9日 15時時点,51247,27.6,34.906666666666666,137.51833333333335,新城,警戒
2023-08-09 15:00:00,8月9日 15時時点,51281,27.8,34.845,137.21666666666667,蒲郡,警戒
2023-08-09 15:00:00,8月9日 15時時点,51311,28.5,34.74,136.93833333333333,南知多,厳重警戒
2023-08-09 15:00:00,8月9日 15時時点,51331,27.9,34.75,137.34166666666667,豊橋,警戒
2023-08-09 15:00:00,8月9日 15時時点,51346,27.2,34.62833333333333,137.09333333333333,伊良湖,警戒
2023-08-09 15:00:00,8月9日 15時時点,52041,30.4,36.305,137.1,河合,厳重警戒
2023-08-09 15:00:00,8月9日 15時時点,52051,31.3,36.321666666666665,137.30833333333334,神岡,危険
2023-08-09 15:00:00,8月9日 15時時点,52081,24.1,36.27333333333333,136.89666666666668,白川,注意
2023-08-09 15:00:00,8月9日 15時時点,52111,25.0,36.248333333333335,137.50333333333333,栃尾,警戒
2023-08-09 15:00:00,8月9日 15時時点,52146,27.9,36.155,137.25333333333333,高山,警戒
2023-08-09 15:00:00,8月9日 15時時点,52181,21.9,36.06,137.035,六厩,注意
2023-08-09 15:00:00,8月9日 15時時点,52196,25.3,36.015,137.38833333333332,宮之前,警戒
2023-08-09 15:00:00,8月9日 15時時点,52221,27.1,35.92333333333333,136.83166666666668,長滝,警戒
2023-08-09 15:00:00,8月9日 15時時点,52286,31.2,35.888333333333335,137.20666666666668,萩原,危険
2023-08-09 15:00:00,8月9日 15時時点,52331,28.1,35.75666666666667,136.97833333333332,八幡,厳重警戒
2023-08-09 15:00:00,8月9日 15時時点,52346,29.5,35.763333333333335,137.28833333333333,宮地,厳重警戒
2023-08-09 15:00:00,8月9日 15時時点,52381,27.4,35.638333333333335,136.60166666666666,樽見,警戒
2023-08-09 15:00:00,8月9日 15時時点,52406,27.5,35.66166666666667,137.16,金山,警戒
2023-08-09 15:00:00,8月9日 15時時点,52461,27.0,35.555,136.91,美濃,警戒
2023-08-09 15:00:00,8月9日 15時時点,52482,26.8,35.598333333333336,137.31833333333333,黒川,警戒
2023-08-09 15:00:00,8月9日 15時時点,52511,28.1,35.485,136.56666666666666,揖斐川,厳重警戒
2023-08-09 15:00:00,8月9日 15時時点,52536,29.6,35.445,137.005,美濃加茂,厳重警戒
2023-08-09 15:00:00,8月9日 15時時点,52556,29.8,35.446666666666665,137.40333333333334,恵那,厳重警戒
2023-08-09 15:00:00,8月9日 15時時点,52557,33.4,35.47666666666667,137.48666666666668,中津川,危険
2023-08-09 15:00:00,8月9日 15時時点,52571,28.5,35.36333333333334,136.46666666666667,関ケ原,厳重警戒
2023-08-09 15:00:00,8月9日 15時時点,52581,30.1,35.346666666666664,136.62,大垣,厳重警戒
2023-08-09 15:00:00,8月9日 15時時点,52586,27.7,35.4,136.76166666666666,岐阜,警戒
2023-08-09 15:00:00,8月9日 15時時点,52606,30.3,35.346666666666664,137.10833333333332,多治見,厳重警戒
2023-08-09 15:00:00,8月9日 15時時点,53041,32.1,35.05,136.69333333333333,桑名,危険
2023-08-09 15:00:00,8月9日 15時時点,53061,32.1,34.94,136.58,四日市,危険
2023-08-09 15:00:00,8月9日 15時時点,53091,28.8,34.87,136.45333333333335,亀山,厳重警戒
2023-08-09 15:00:00,8月9日 15時時点,53112,30.1,34.76166666666667,136.14166666666668,上野,厳重警戒
2023-08-09 15:00:00,8月9日 15時時点,53133,31.3,34.733333333333334,136.51833333333335,津,危険
2023-08-09 15:00:00,8月9日 15時時点,53196,28.9,34.528333333333336,136.665,小俣,厳重警戒
2023-08-09 15:00:00,8月9日 15時時点,53231,28.6,34.44833333333333,136.39,粥見,厳重警戒
2023-08-09 15:00:00,8月9日 15時時点,53257,28.9,34.48166666666667,136.825,鳥羽,厳重警戒
2023-08-09 15:00:00,8月9日 15時時点,53296,29.5,34.345,136.68166666666667,南伊勢,厳重警戒
2023-08-09 15:00:00,8月9日 15時時点,53326,29.4,34.208333333333336,136.32666666666665,紀伊長島,厳重警戒
2023-08-09 15:00:00,8月9日 15時時点,53378,29.6,34.068333333333335,136.19333333333333,尾鷲,厳重警戒
2023-08-09 15:00:00,8月9日 15時時点,53401,28.6,33.931666666666665,136.13833333333332,熊野新鹿,厳重警戒
2023-08-09 15:00:00,8月9日 15時時点,54012,32.8,38.465,139.25333333333333,粟島,危険
2023-08-09 15:00:00,8月9日 15時時点,54041,29.0,38.33,138.51166666666666,弾崎,厳重警戒
2023-08-09 15:00:00,8月9日 15時時点,54086,33.9,38.22666666666667,139.47833333333332,村上,危険
2023-08-09 15:00:00,8月9日 15時時点,54157,33.4,38.028333333333336,138.24,相川,危険
2023-08-09 15:00:00,8月9日 15時時点,54166,31.1,38.07333333333333,138.44,両津,危険
2023-08-09 15:00:00,8月9日 15時時点,54181,34.9,38.07666666666667,139.38833333333332,中条,危険
2023-08-09 15:00:00,8月9日 15時時点,54191,33.5,38.09166666666667,139.56333333333333,下関,危険
2023-08-09 15:00:00,8月9日 15時時点,54232,32.2,37.89333333333333,139.01833333333335,新潟,危険
2023-08-09 15:00:00,8月9日 15時時点,54271,33.2,37.84166666666667,138.31333333333333,羽茂,危険
2023-08-09 15:00:00,8月9日 15時時点,54296,32.4,37.791666666666664,139.08666666666667,新津,危険
2023-08-09 15:00:00,8月9日 15時時点,54341,33.5,37.76833333333333,138.91333333333333,巻,危険
2023-08-09 15:00:00,8月9日 15時時点,54387,33.4,37.64,138.76666666666668,寺泊,危険
2023-08-09 15:00:00,8月9日 15時時点,54396,34.8,37.64,138.955,三条,危険
2023-08-09 15:00:00,8月9日 15時時点,54421,32.3,37.67166666666667,139.44666666666666,津川,危険
2023-08-09 15:00:00,8月9日 15時時点,54501,33.8,37.45,138.82333333333332,長岡,危険
2023-08-09 15:00:00,8月9日 15時時点,54541,31.3,37.35166666666667,138.55333333333334,柏崎,危険
2023-08-09 15:00:00,8月9日 15時時点,54566,32.3,37.346666666666664,139.04333333333332,守門,危険
2023-08-09 15:00:00,8月9日 15時時点,54586,33.1,37.225,138.325,大潟,危険
2023-08-09 15:00:00,8月9日 15時時点,54616,34.2,37.22666666666667,138.96333333333334,小出,危険
2023-08-09 15:00:00,8月9日 15時時点,54651,32.6,37.10666666666667,138.24666666666667,高田,危険
2023-08-09 15:00:00,8月9日 15時時点,54661,29.2,37.10666666666667,138.45666666666668,安塚,厳重警戒
2023-08-09 15:00:00,8月9日 15時時点,54676,31.6,37.14333333333333,138.72666666666666,十日町,危険
2023-08-09 15:00:00,8月9日 15時時点,54711,30.7,37.04333333333334,137.875,糸魚川,厳重警戒
2023-08-09 15:00:00,8月9日 15時時点,54721,26.1,37.083333333333336,138.02333333333334,能生,警戒
2023-08-09 15:00:00,8月9日 15時時点,54816,26.8,36.93333333333333,138.22166666666666,関山,警戒
2023-08-09 15:00:00,8月9日 15時時点,54836,28.5,36.99666666666667,138.68333333333334,津南,厳重警戒
2023-08-09 15:00:00,8月9日 15時時点,54841,29.4,36.94166666666667,138.81,湯沢,厳重警戒
2023-08-09 15:00:00,8月9日 15時時点,55022,29.6,36.93666666666667,137.56333333333333,朝日,厳重警戒
2023-08-09 15:00:00,8月9日 15時時点,55041,30.0,36.86333333333333,136.96,氷見,厳重警戒
2023-08-09 15:00:00,8月9日 15時時点,55056,30.2,36.821666666666665,137.42833333333334,魚津,厳重警戒
2023-08-09 15:00:00,8月9日 15時時点,55091,32.1,36.791666666666664,137.055,伏木,危険
2023-08-09 15:00:00,8月9日 15時時点,55102,30.7,36.708333333333336,137.20166666666665,富山,厳重警戒
2023-08-09 15:00:00,8月9日 15時時点,55141,31.5,36.61,136.955,砺波,危険
2023-08-09 15:00:00,8月9日 15時時点,55166,29.2,36.67,137.42333333333335,上市,厳重警戒
2023-08-09 15:00:00,8月9日 15時時点,55191,29.4,36.545,136.87166666666667,南砺高宮,厳重警戒
2023-08-09 15:00:00,8月9日 15時時点,55206,31.4,36.57,137.15833333333333,八尾,危険
2023-08-09 15:00:00,8月9日 15時時点,56036,32.9,37.446666666666665,137.28666666666666,珠洲,危険
2023-08-09 15:00:00,8月9日 15時時点,56052,30.2,37.39,136.895,輪島,厳重警戒
2023-08-09 15:00:00,8月9日 15時時点,56116,32.2,37.14333333333333,136.725,志賀,危険
2023-08-09 15:00:00,8月9日 15時時点,56146,31.0,37.03,136.99166666666667,七尾,危険
2023-08-09 15:00:00,8月9日 15時時点,56176,31.9,36.89333333333333,136.77666666666667,羽咋,危険
2023-08-09 15:00:00,8月9日 15時時点,56186,29.3,36.711666666666666,136.69166666666666,かほく,厳重警戒
2023-08-09 15:00:00,8月9日 15時時点,56227,30.6,36.58833333333333,136.63333333333333,金沢,厳重警戒
2023-08-09 15:00:00,8月9日 15時時点,56276,33.9,36.38166666666667,136.435,小松,危険
2023-08-09 15:00:00,8月9日 15時時点,56286,30.5,36.39666666666667,136.62,白山河内,厳重警戒
2023-08-09 15:00:00,8月9日 15時時点,56301,31.6,36.26166666666666,136.39666666666668,加賀中津原,危険
2023-08-09 15:00:00,8月9日 15時時点,57001,29.1,36.24333333333333,136.17333333333335,三国,厳重警戒
2023-08-09 15:00:00,8月9日 15時時点,57051,31.7,36.01166666666666,135.99,越廼,危険
2023-08-09 15:00:00,8月9日 15時時点,57066,30.0,36.055,136.22166666666666,福井,厳重警戒
2023-08-09 15:00:00,8月9日 15時時点,57082,28.5,36.038333333333334,136.52166666666668,勝山,厳重警戒
2023-08-09 15:00:00,8月9日 15時時点,57121,27.4,35.971666666666664,136.49666666666667,大野,警戒
2023-08-09 15:00:00,8月9日 15時時点,57206,28.1,35.766666666666666,136.2,今庄,厳重警戒
2023-08-09 15:00:00,8月9日 15時時点,57248,30.4,35.653333333333336,136.06166666666667,敦賀,厳重警戒
2023-08-09 15:00:00,8月9日 15時時点,57286,33.1,35.6,135.91666666666666,美浜,危険
2023-08-09 15:00:00,8月9日 15時時点,57317,31.0,35.483333333333334,135.78166666666667,小浜,危険
2023-08-09 15:00:00,8月9日 15時時点,60051,29.1,35.41166666666667,136.02833333333334,今津,厳重警戒
2023-08-09 15:00:00,8月9日 15時時点,60061,28.0,35.42333333333333,136.24166666666667,長浜,厳重警戒
2023-08-09 15:00:00,8月9日 15時時点,60102,28.1,35.38333333333333,136.34333333333333,米原,厳重警戒
2023-08-09 15:00:00,8月9日 15時時点,60116,29.2,35.235,135.95666666666668,南小松,厳重警戒
2023-08-09 15:00:00,8月9日 15時時点,60131,28.9,35.275,136.24333333333334,彦根,厳重警戒
2023-08-09 15:00:00,8月9日 15時時点,60196,28.5,35.06166666666667,136.19,東近江,厳重警戒
2023-08-09 15:00:00,8月9日 15時時点,60216,28.9,34.99166666666667,135.91166666666666,大津,厳重警戒
2023-08-09 15:00:00,8月9日 15時時点,60226,28.1,34.913333333333334,136.08,信楽,厳重警戒
2023-08-09 15:00:00,8月9日 15時時点,60236,27.5,34.93833333333333,136.27833333333334,土山,警戒
2023-08-09 15:00:00,8月9日 15時時点,61001,31.2,35.736666666666665,135.08666666666667,間人,危険
2023-08-09 15:00:00,8月9日 15時時点,61076,31.4,35.55,135.235,宮津,危険
2023-08-09 15:00:00,8月9日 15時時点,61111,31.9,35.45,135.31666666666666,舞鶴,危険
2023-08-09 15:00:00,8月9日 15時時点,61187,32.3,35.31166666666667,135.11333333333334,福知山,危険
2023-08-09 15:00:00,8月9日 15時時点,61206,28.1,35.275,135.55,美山,厳重警戒
2023-08-09 15:00:00,8月9日 15時時点,61242,28.9,35.108333333333334,135.455,園部,厳重警戒
2023-08-09 15:00:00,8月9日 15時時点,61286,28.7,35.013333333333335,135.73166666666665,京都,厳重警戒
2023-08-09 15:00:00,8月9日 15時時点,61326,28.9,34.83,135.76,京田辺,厳重警戒
2023-08-09 15:00:00,8月9日 15時時点,62016,28.6,34.94833333333333,135.455,能勢,厳重警戒
2023-08-09 15:00:00,8月9日 15時時点,62046,29.4,34.80833333333333,135.67166666666665,枚方,厳重警戒
2023-08-09 15:00:00,8月9日 15時時点,62078,30.9,34.681666666666665,135.51833333333335,大阪,厳重警戒
2023-08-09 15:00:00,8月9日 15時時点,62081,26.3,34.675,135.67666666666668,生駒山,警戒
2023-08-09 15:00:00,8月9日 15時時点,62091,32.3,34.555,135.485,堺,危険
2023-08-09 15:00:00,8月9日 15時時点,62131,29.4,34.385,135.35,熊取,厳重警戒
2023-08-09 15:00:00,8月9日 15時時点,63016,31.7,35.625,134.62666666666667,香住,危険
2023-08-09 15:00:00,8月9日 15時時点,63051,32.5,35.535,134.82166666666666,豊岡,危険
2023-08-09 15:00:00,8月9日 15時時点,63071,29.2,35.431666666666665,134.58333333333334,兎和野高原,厳重警戒
2023-08-09 15:00:00,8月9日 15時時点,63121,31.1,35.32333333333333,134.84833333333333,和田山,危険
2023-08-09 15:00:00,8月9日 15時時点,63201,30.4,35.166666666666664,134.79166666666666,生野,厳重警戒
2023-08-09 15:00:00,8月9日 15時時点,63216,29.4,35.13666666666666,135.065,柏原,厳重警戒
2023-08-09 15:00:00,8月9日 15時時点,63251,28.8,35.096666666666664,134.585,一宮,厳重警戒
2023-08-09 15:00:00,8月9日 15時時点,63321,31.5,34.95,134.74833333333333,福崎,危険
2023-08-09 15:00:00,8月9日 15時時点,63331,29.0,34.998333333333335,134.99666666666667,西脇,厳重警戒
2023-08-09 15:00:00,8月9日 15時時点,63366,30.6,34.858333333333334,134.37333333333333,上郡,厳重警戒
2023-08-09 15:00:00,8月9日 15時時点,63383,30.7,34.83833333333333,134.67,姫路,厳重警戒
2023-08-09 15:00:00,8月9日 15時時点,63411,28.4,34.895,135.21166666666667,三田,厳重警戒
2023-08-09 15:00:00,8月9日 15時時点,63461,31.1,34.776666666666664,135.01333333333332,三木,危険
2023-08-09 15:00:00,8月9日 15時時点,63491,29.7,34.67166666666667,134.52666666666667,家島,厳重警戒
2023-08-09 15:00:00,8月9日 15時時点,63496,28.8,34.68666666666667,134.87666666666667,明石,厳重警戒
2023-08-09 15:00:00,8月9日 15時時点,63518,29.5,34.696666666666665,135.21166666666667,神戸,厳重警戒
2023-08-09 15:00:00,8月9日 15時時点,63551,32.5,34.46666666666667,134.84833333333333,郡家,危険
2023-08-09 15:00:00,8月9日 15時時点,63571,30.9,34.31,134.84833333333333,洲本,厳重警戒
2023-08-09 15:00:00,8月9日 15時時点,63588,31.1,34.218333333333334,134.72,南淡,危険
2023-08-09 15:00:00,8月9日 15時時点,64036,28.1,34.67333333333333,135.83666666666667,奈良,厳重警戒
2023-08-09 15:00:00,8月9日 15時時点,64041,27.0,34.605,135.95166666666665,針,警戒
2023-08-09 15:00:00,8月9日 15時時点,64101,27.3,34.48833333333334,135.93166666666667,大宇陀,警戒
2023-08-09 15:00:00,8月9日 15時時点,64127,28.6,34.38,135.73,五條,厳重警戒
2023-08-09 15:00:00,8月9日 15時時点,64206,25.7,34.13666666666666,136.005,上北山,警戒
2023-08-09 15:00:00,8月9日 15時時点,64227,26.7,34.045,135.78666666666666,風屋,警戒
2023-08-09 15:00:00,8月9日 15時時点,65026,28.2,34.31,135.52833333333334,かつらぎ,厳重警戒
2023-08-09 15:00:00,8月9日 15時時点,65036,30.1,34.28,134.99833333333333,友ケ島,厳重警戒
2023-08-09 15:00:00,8月9日 15時時点,65042,30.3,34.22833333333333,135.16333333333333,和歌山,厳重警戒
2023-08-09 15:00:00,8月9日 15時時点,65061,24.6,34.221666666666664,135.59,高野山,注意
2023-08-09 15:00:00,8月9日 15時時点,65121,28.1,34.086666666666666,135.425,清水,厳重警戒
2023-08-09 15:00:00,8月9日 15時時点,65162,28.1,33.945,135.55666666666667,龍神,厳重警戒
2023-08-09 15:00:00,8月9日 15時時点,65201,28.5,33.89333333333333,135.21666666666667,川辺,厳重警戒
2023-08-09 15:00:00,8月9日 15時時点,65256,30.2,33.791666666666664,135.51333333333332,栗栖川,厳重警戒
2023-08-09 15:00:00,8月9日 15時時点,65276,27.5,33.68666666666667,135.97,新宮,警戒
2023-08-09 15:00:00,8月9日 15時時点,65306,27.9,33.638333333333335,135.71,西川,警戒
2023-08-09 15:00:00,8月9日 15時時点,65356,30.8,33.45,135.75666666666666,潮岬,厳重警戒
2023-08-09 15:00:00,8月9日 15時時点,66046,29.7,35.29666666666667,133.725,上長田,厳重警戒
2023-08-09 15:00:00,8月9日 15時時点,66091,26.3,35.10333333333333,133.435,千屋,警戒
2023-08-09 15:00:00,8月9日 15時時点,66127,30.4,35.111666666666665,134.17,奈義,厳重警戒
2023-08-09 15:00:00,8月9日 15時時点,66136,28.0,35.098333333333336,134.325,今岡,厳重警戒
2023-08-09 15:00:00,8月9日 15時時点,66171,30.1,35.068333333333335,133.75333333333333,久世,厳重警戒
2023-08-09 15:00:00,8月9日 15時時点,66186,29.6,35.06333333333333,134.00833333333333,津山,厳重警戒
2023-08-09 15:00:00,8月9日 15時時点,66221,28.7,34.943333333333335,133.51833333333335,新見,厳重警戒
2023-08-09 15:00:00,8月9日 15時時点,66296,31.0,34.86666666666667,133.90333333333334,福渡,危険
2023-08-09 15:00:00,8月9日 15時時点,66306,30.9,34.815,134.18333333333334,和気,厳重警戒
2023-08-09 15:00:00,8月9日 15時時点,66336,31.1,34.791666666666664,133.61,高梁,危険
2023-08-09 15:00:00,8月9日 15時時点,66408,31.5,34.685,133.925,岡山,危険
2023-08-09 15:00:00,8月9日 15時時点,66421,32.0,34.681666666666665,134.20666666666668,虫明,危険
2023-08-09 15:00:00,8月9日 15時時点,66446,31.7,34.59,133.76833333333335,倉敷,危険
2023-08-09 15:00:00,8月9日 15時時点,66481,29.1,34.501666666666665,133.495,笠岡,厳重警戒
2023-08-09 15:00:00,8月9日 15時時点,66501,30.8,34.486666666666665,133.95,玉野,厳重警戒
2023-08-09 15:00:00,8月9日 15時時点,67016,26.8,35.03333333333333,132.90166666666667,高野,警戒
2023-08-09 15:00:00,8月9日 15時時点,67106,28.5,34.81166666666667,132.85,三次,厳重警戒
2023-08-09 15:00:00,8月9日 15時時点,67116,27.7,34.86,133.02333333333334,庄原,警戒
2023-08-09 15:00:00,8月9日 15時時点,67151,27.4,34.76833333333333,132.46333333333334,大朝,警戒
2023-08-09 15:00:00,8月9日 15時時点,67191,26.7,34.763333333333335,133.27833333333334,油木,警戒
2023-08-09 15:00:00,8月9日 15時時点,67212,29.0,34.61,132.32,加計,厳重警戒
2023-08-09 15:00:00,8月9日 15時時点,67292,28.5,34.545,132.53,三入,厳重警戒
2023-08-09 15:00:00,8月9日 15時時点,67316,27.0,34.583333333333336,133.05,世羅,警戒
2023-08-09 15:00:00,8月9日 15時時点,67326,28.4,34.56166666666667,133.23166666666665,府中,厳重警戒
2023-08-09 15:00:00,8月9日 15時時点,67376,29.6,34.416666666666664,132.7,東広島,厳重警戒
2023-08-09 15:00:00,8月9日 15時時点,67401,28.6,34.446666666666665,133.24666666666667,福山,厳重警戒
2023-08-09 15:00:00,8月9日 15時時点,67421,27.1,34.365,132.19,廿日市津田,警戒
2023-08-09 15:00:00,8月9日 15時時点,67437,28.3,34.39833333333333,132.46166666666667,広島,厳重警戒
2023-08-09 15:00:00,8月9日 15時時点,67461,27.7,34.33,132.98166666666665,竹原,警戒
2023-08-09 15:00:00,8月9日 15時時点,67471,27.4,34.278333333333336,133.12333333333333,生口島,警戒
2023-08-09 15:00:00,8月9日 15時時点,67496,28.7,34.221666666666664,132.22,大竹,厳重警戒
2023-08-09 15:00:00,8月9日 15時時点,67511,29.6,34.24,132.55,呉,厳重警戒
2023-08-09 15:00:00,8月9日 15時時点,67576,29.9,34.165,132.74833333333333,呉市蒲刈,厳重警戒
2023-08-09 15:00:00,8月9日 15時時点,68022,31.2,36.20333333333333,133.33333333333334,西郷,危険
2023-08-09 15:00:00,8月9日 15時時点,68056,31.8,36.096666666666664,133.09666666666666,海士,危険
2023-08-09 15:00:00,8月9日 15時時点,68091,31.6,35.52,132.98333333333332,鹿島,危険
2023-08-09 15:00:00,8月9日 15時時点,68132,31.1,35.45666666666666,133.065,松江,危険
2023-08-09 15:00:00,8月9日 15時時点,68156,29.1,35.33166666666666,132.73,出雲,厳重警戒
2023-08-09 15:00:00,8月9日 15時時点,68246,29.3,35.19,132.49666666666667,大田,厳重警戒
2023-08-09 15:00:00,8月9日 15時時点,68261,28.1,35.196666666666665,132.815,掛合,厳重警戒
2023-08-09 15:00:00,8月9日 15時時点,68276,26.9,35.17333333333333,133.10333333333332,横田,警戒
2023-08-09 15:00:00,8月9日 15時時点,68306,26.7,35.001666666666665,132.71166666666667,赤名,警戒
2023-08-09 15:00:00,8月9日 15時時点,68351,27.9,34.97666666666667,132.49166666666667,川本,警戒
2023-08-09 15:00:00,8月9日 15時時点,68376,31.0,34.89666666666667,132.07,浜田,危険
2023-08-09 15:00:00,8月9日 15時時点,68401,27.2,34.85333333333333,132.53,瑞穂,警戒
2023-08-09 15:00:00,8月9日 15時時点,68431,29.7,34.776666666666664,132.10833333333332,弥栄,厳重警戒
2023-08-09 15:00:00,8月9日 15時時点,68462,33.0,34.67666666666667,131.84333333333333,益田,危険
2023-08-09 15:00:00,8月9日 15時時点,68516,30.2,34.461666666666666,131.77,津和野,厳重警戒
2023-08-09 15:00:00,8月9日 15時時点,68541,27.6,34.391666666666666,131.89333333333335,吉賀,警戒
2023-08-09 15:00:00,8月9日 15時時点,69006,32.2,35.54333333333334,133.235,境,危険
2023-08-09 15:00:00,8月9日 15時時点,69021,31.2,35.52333333333333,133.56666666666666,塩津,危険
2023-08-09 15:00:00,8月9日 15時時点,69041,32.4,35.52,133.99666666666667,青谷,危険
2023-08-09 15:00:00,8月9日 15時時点,69061,30.0,35.55833333333333,134.36,岩井,厳重警戒
2023-08-09 15:00:00,8月9日 15時時点,69076,30.9,35.43333333333333,133.33833333333334,米子,厳重警戒
2023-08-09 15:00:00,8月9日 15時時点,69101,31.1,35.473333333333336,133.83833333333334,倉吉,危険
2023-08-09 15:00:00,8月9日 15時時点,69122,31.8,35.486666666666665,134.23833333333334,鳥取,危険
2023-08-09 15:00:00,8月9日 15時時点,69246,30.3,35.263333333333335,134.24,智頭,厳重警戒
2023-08-09 15:00:00,8月9日 15時時点,69271,26.1,35.18666666666667,133.23,茶屋,警戒
2023-08-09 15:00:00,8月9日 15時時点,81011,29.3,34.615,131.62333333333333,須佐,厳重警戒
2023-08-09 15:00:00,8月9日 15時時点,81071,30.7,34.41,131.405,萩,厳重警戒
2023-08-09 15:00:00,8月9日 15時時点,81116,27.8,34.37,131.055,油谷,警戒
2023-08-09 15:00:00,8月9日 15時時点,81151,29.4,34.39833333333333,131.725,徳佐,厳重警戒
2023-08-09 15:00:00,8月9日 15時時点,81196,26.9,34.235,131.30666666666667,秋吉台,警戒
2023-08-09 15:00:00,8月9日 15時時点,81231,30.6,34.26166666666666,131.95166666666665,広瀬,厳重警戒
2023-08-09 15:00:00,8月9日 15時時点,81266,27.8,34.18666666666667,131.07666666666665,豊田,警戒
2023-08-09 15:00:00,8月9日 15時時点,81286,28.6,34.16166666666667,131.46166666666667,山口,厳重警戒
2023-08-09 15:00:00,8月9日 15時時点,81321,29.2,34.155,132.17833333333334,岩国,厳重警戒
2023-08-09 15:00:00,8月9日 15時時点,81371,28.2,34.04,131.53333333333333,防府,厳重警戒
2023-08-09 15:00:00,8月9日 15時時点,81386,28.5,34.01,131.87166666666667,下松,厳重警戒
2023-08-09 15:00:00,8月9日 15時時点,81397,31.6,34.095,132.075,玖珂,危険
2023-08-09 15:00:00,8月9日 15時時点,81428,27.4,33.94833333333333,130.925,下関,警戒
2023-08-09 15:00:00,8月9日 15時時点,81481,30.0,33.958333333333336,132.11333333333334,柳井,厳重警戒
2023-08-09 15:00:00,8月9日 15時時点,81486,30.5,33.903333333333336,132.29333333333332,安下庄,厳重警戒
2023-08-09 15:00:00,8月9日 15時時点,71066,27.5,34.02333333333333,133.795,池田,警戒
2023-08-09 15:00:00,8月9日 15時時点,71087,31.3,34.04,134.15666666666667,穴吹,危険
2023-08-09 15:00:00,8月9日 15時時点,71106,31.2,34.06666666666667,134.57333333333332,徳島,危険
2023-08-09 15:00:00,8月9日 15時時点,71191,24.7,33.86666666666667,133.90333333333334,京上,注意
2023-08-09 15:00:00,8月9日 15時時点,71231,31.0,33.836666666666666,134.74166666666667,蒲生田,危険
2023-08-09 15:00:00,8月9日 15時時点,71251,25.8,33.77166666666667,134.19833333333332,木頭,警戒
2023-08-09 15:00:00,8月9日 15時時点,71266,29.0,33.73166666666667,134.53833333333333,日和佐,厳重警戒
2023-08-09 15:00:00,8月9日 15時時点,71291,29.3,33.611666666666665,134.355,海陽,厳重警戒
2023-08-09 15:00:00,8月9日 15時時点,72061,31.8,34.471666666666664,134.27333333333334,内海,危険
2023-08-09 15:00:00,8月9日 15時時点,72086,31.7,34.318333333333335,134.05333333333334,高松,危険
2023-08-09 15:00:00,8月9日 15時時点,72111,31.7,34.275,133.75166666666667,多度津,危険
2023-08-09 15:00:00,8月9日 15時時点,72121,28.9,34.236666666666665,133.92333333333335,滝宮,厳重警戒
2023-08-09 15:00:00,8月9日 15時時点,72146,29.9,34.21333333333333,134.40666666666667,引田,厳重警戒
2023-08-09 15:00:00,8月9日 15時時点,72161,29.7,34.12,133.77166666666668,財田,厳重警戒
2023-08-09 15:00:00,8月9日 15時時点,73001,30.1,34.25,133.00666666666666,大三島,厳重警戒
2023-08-09 15:00:00,8月9日 15時時点,73076,29.7,34.053333333333335,132.975,今治,厳重警戒
2023-08-09 15:00:00,8月9日 15時時点,73126,28.2,33.915,133.08,西条,厳重警戒
2023-08-09 15:00:00,8月9日 15時時点,73141,26.2,33.93666666666667,133.33833333333334,新居浜,警戒
2023-08-09 15:00:00,8月9日 15時時点,73151,26.6,33.98166666666667,133.58166666666668,四国中央,警戒
2023-08-09 15:00:00,8月9日 15時時点,73166,30.6,33.843333333333334,132.77666666666667,松山,厳重警戒
2023-08-09 15:00:00,8月9日 15時時点,73256,28.1,33.61666666666667,132.48,長浜,厳重警戒
2023-08-09 15:00:00,8月9日 15時時点,73276,25.2,33.663333333333334,132.895,久万,警戒
2023-08-09 15:00:00,8月9日 15時時点,73306,28.2,33.50833333333333,132.535,大洲,厳重警戒
2023-08-09 15:00:00,8月9日 15時時点,73341,26.9,33.446666666666665,132.25666666666666,瀬戸,警戒
2023-08-09 15:00:00,8月9日 15時時点,73406,27.2,33.36666666666667,132.50333333333333,宇和,警戒
2023-08-09 15:00:00,8月9日 15時時点,73442,30.0,33.22666666666667,132.55166666666668,宇和島,厳重警戒
2023-08-09 15:00:00,8月9日 15時時点,73446,27.2,33.25333333333333,132.675,近永,警戒
2023-08-09 15:00:00,8月9日 15時時点,73516,28.1,32.96333333333333,132.57,御荘,厳重警戒
2023-08-09 15:00:00,8月9日 15時時点,74056,23.8,33.765,133.33833333333334,本川,注意
2023-08-09 15:00:00,8月9日 15時時点,74071,25.1,33.75333333333333,133.575,本山,警戒
2023-08-09 15:00:00,8月9日 15時時点,74136,26.9,33.69833333333333,133.875,大栃,警戒
2023-08-09 15:00:00,8月9日 15時時点,74182,25.4,33.56666666666667,133.54833333333335,高知,警戒
2023-08-09 15:00:00,8月9日 15時時点,74187,26.6,33.59,133.64333333333335,後免,警戒
2023-08-09 15:00:00,8月9日 15時時点,74271,29.2,33.48833333333334,133.93333333333334,安芸,厳重警戒
2023-08-09 15:00:00,8月9日 15時時点,74296,25.6,33.39,132.92166666666665,梼原,警戒
2023-08-09 15:00:00,8月9日 15時時点,74311,28.5,33.385,133.27666666666667,須崎,厳重警戒
2023-08-09 15:00:00,8月9日 15時時点,74361,28.4,33.20666666666666,133.12833333333333,窪川,厳重警戒
2023-08-09 15:00:00,8月9日 15時時点,74372,28.3,33.251666666666665,134.17666666666668,室戸岬,厳重警戒
2023-08-09 15:00:00,8月9日 15時時点,74381,28.0,33.17,132.79166666666666,江川崎,厳重警戒
2023-08-09 15:00:00,8月9日 15時時点,74436,28.3,33.07833333333333,133.10166666666666,佐賀,厳重警戒
2023-08-09 15:00:00,8月9日 15時時点,74447,28.1,32.92,132.695,宿毛,厳重警戒
2023-08-09 15:00:00,8月9日 15時時点,74456,28.6,32.99,132.92,中村,厳重警戒
2023-08-09 15:00:00,8月9日 15時時点,74516,31.0,32.721666666666664,133.01,清水,危険
2023-08-09 15:00:00,8月9日 15時時点,82046,29.3,33.80833333333333,130.53833333333333,宗像,厳重警戒
2023-08-09 15:00:00,8月9日 15時時点,82056,27.9,33.85166666666667,130.74333333333334,八幡,警戒
2023-08-09 15:00:00,8月9日 15時時点,82101,27.2,33.71333333333333,130.975,行橋,警戒
2023-08-09 15:00:00,8月9日 15時時点,82136,27.5,33.651666666666664,130.69333333333333,飯塚,警戒
2023-08-09 15:00:00,8月9日 15時時点,82171,29.0,33.56,130.19,前原,厳重警戒
2023-08-09 15:00:00,8月9日 15時時点,82182,26.6,33.58166666666666,130.375,福岡,警戒
2023-08-09 15:00:00,8月9日 15時時点,82191,27.7,33.49666666666667,130.49,太宰府,警戒
2023-08-09 15:00:00,8月9日 15時時点,82206,27.5,33.55833333333333,130.855,添田,警戒
2023-08-09 15:00:00,8月9日 15時時点,82261,27.6,33.406666666666666,130.695,朝倉,警戒
2023-08-09 15:00:00,8月9日 15時時点,82306,28.6,33.303333333333335,130.49333333333334,久留米,厳重警戒
2023-08-09 15:00:00,8月9日 15時時点,82317,26.8,33.225,130.645,黒木,警戒
2023-08-09 15:00:00,8月9日 15時時点,82361,27.3,33.00666666666667,130.46666666666667,大牟田,警戒
2023-08-09 15:00:00,8月9日 15時時点,83021,26.1,33.678333333333335,131.575,国見,警戒
2023-08-09 15:00:00,8月9日 15時時点,83051,27.2,33.586666666666666,131.245,中津,警戒
2023-08-09 15:00:00,8月9日 15時時点,83061,26.9,33.57,131.43333333333334,豊後高田,警戒
2023-08-09 15:00:00,8月9日 15時時点,83106,26.9,33.42,131.31666666666666,院内,警戒
2023-08-09 15:00:00,8月9日 15時時点,83121,26.9,33.416666666666664,131.59666666666666,杵築,警戒
2023-08-09 15:00:00,8月9日 15時時点,83137,27.9,33.321666666666665,130.92833333333334,日田,警戒
2023-08-09 15:00:00,8月9日 15時時点,83191,25.9,33.291666666666664,131.155,玖珠,警戒
2023-08-09 15:00:00,8月9日 15時時点,83201,25.3,33.25333333333333,131.34666666666666,湯布院,警戒
2023-08-09 15:00:00,8月9日 15時時点,83216,28.1,33.235,131.61833333333334,大分,厳重警戒
2023-08-09 15:00:00,8月9日 15時時点,83341,27.8,33.065,131.63166666666666,犬飼,警戒
2023-08-09 15:00:00,8月9日 15時時点,83371,27.0,32.973333333333336,131.39833333333334,竹田,警戒
2023-08-09 15:00:00,8月9日 15時時点,83401,27.7,32.95,131.90166666666667,佐伯,警戒
2023-08-09 15:00:00,8月9日 15時時点,83431,26.9,32.845,131.675,宇目,警戒
2023-08-09 15:00:00,8月9日 15時時点,83476,27.7,32.795,131.92333333333335,蒲江,警戒
2023-08-09 15:00:00,8月9日 15時時点,84012,26.4,34.69833333333333,129.445,鰐浦,警戒
2023-08-09 15:00:00,8月9日 15時時点,84072,27.2,34.196666666666665,129.29166666666666,厳原,警戒
2023-08-09 15:00:00,8月9日 15時時点,84121,26.8,33.8,129.72166666666666,芦辺,警戒
2023-08-09 15:00:00,8月9日 15時時点,84171,26.9,33.36,129.55,平戸,警戒
2023-08-09 15:00:00,8月9日 15時時点,84183,27.5,33.34166666666667,129.71166666666667,松浦,警戒
2023-08-09 15:00:00,8月9日 15時時点,84266,27.5,33.15833333333333,129.72666666666666,佐世保,警戒
2023-08-09 15:00:00,8月9日 15時時点,84306,27.2,33.013333333333335,129.65166666666667,西海,警戒
2023-08-09 15:00:00,8月9日 15時時点,84341,27.3,32.98166666666667,129.11833333333334,有川,警戒
2023-08-09 15:00:00,8月9日 15時時点,84496,25.7,32.733333333333334,129.86666666666667,長崎,警戒
2023-08-09 15:00:00,8月9日 15時時点,84519,23.6,32.736666666666665,130.26166666666666,雲仙岳,注意
2023-08-09 15:00:00,8月9日 15時時点,84523,28.5,32.76,130.36166666666668,島原,厳重警戒
2023-08-09 15:00:00,8月9日 15時時点,84536,27.0,32.693333333333335,128.82666666666665,福江,警戒
2023-08-09 15:00:00,8月9日 15時時点,84561,28.0,32.611666666666665,130.19333333333333,口之津,厳重警戒
2023-08-09 15:00:00,8月9日 15時時点,84597,26.8,32.58166666666666,129.77666666666667,脇岬,警戒
2023-08-09 15:00:00,8月9日 15時時点,85033,29.1,33.458333333333336,129.955,唐津,厳重警戒
2023-08-09 15:00:00,8月9日 15時時点,85116,27.4,33.266666666666666,129.87833333333333,伊万里,警戒
2023-08-09 15:00:00,8月9日 15時時点,85142,26.7,33.265,130.305,佐賀,警戒
2023-08-09 15:00:00,8月9日 15時時点,85161,27.2,33.11666666666667,129.995,嬉野,警戒
2023-08-09 15:00:00,8月9日 15時時点,85166,27.5,33.18333333333333,130.14833333333334,白石,警戒
2023-08-09 15:00:00,8月9日 15時時点,86006,27.3,33.115,130.69166666666666,鹿北,警戒
2023-08-09 15:00:00,8月9日 15時時点,86066,25.5,33.10333333333333,131.06666666666666,南小国,警戒
2023-08-09 15:00:00,8月9日 15時時点,86086,27.5,32.915,130.51166666666666,岱明,警戒
2023-08-09 15:00:00,8月9日 15時時点,86101,27.5,32.945,130.78166666666667,菊池,警戒
2023-08-09 15:00:00,8月9日 15時時点,86111,25.1,32.946666666666665,131.04,阿蘇乙姫,警戒
2023-08-09 15:00:00,8月9日 15時時点,86141,26.5,32.81333333333333,130.70666666666668,熊本,警戒
2023-08-09 15:00:00,8月9日 15時時点,86157,25.3,32.83166666666666,131.01333333333332,南阿蘇,警戒
2023-08-09 15:00:00,8月9日 15時時点,86161,25.1,32.821666666666665,131.125,高森,警戒
2023-08-09 15:00:00,8月9日 15時時点,86216,27.4,32.611666666666665,130.47833333333332,三角,警戒
2023-08-09 15:00:00,8月9日 15時時点,86236,29.5,32.67166666666667,130.81666666666666,甲佐,厳重警戒
2023-08-09 15:00:00,8月9日 15時時点,86271,27.3,32.515,130.44666666666666,松島,警戒
2023-08-09 15:00:00,8月9日 15時時点,86316,26.8,32.468333333333334,130.18,本渡,警戒
2023-08-09 15:00:00,8月9日 15時時点,86336,26.9,32.473333333333336,130.60666666666665,八代,警戒
2023-08-09 15:00:00,8月9日 15時時点,86451,26.8,32.205,130.40666666666667,水俣,警戒
2023-08-09 15:00:00,8月9日 15時時点,86467,26.9,32.21666666666667,130.755,人吉,警戒
2023-08-09 15:00:00,8月9日 15時時点,86477,26.1,32.225,130.905,上,警戒
2023-08-09 15:00:00,8月9日 15時時点,86491,26.7,32.196666666666665,130.02666666666667,牛深,警戒
2023-08-09 15:00:00,8月9日 15時時点,87041,25.7,32.711666666666666,131.29,高千穂,警戒
2023-08-09 15:00:00,8月9日 15時時点,87066,28.0,32.711666666666666,131.82,古江,厳重警戒
2023-08-09 15:00:00,8月9日 15時時点,87071,24.8,32.64333333333333,131.15666666666667,鞍岡,注意
2023-08-09 15:00:00,8月9日 15時時点,87141,28.6,32.58166666666666,131.65666666666667,延岡,厳重警戒
2023-08-09 15:00:00,8月9日 15時時点,87181,27.8,32.40833333333333,131.6,日向,警戒
2023-08-09 15:00:00,8月9日 15時時点,87206,26.3,32.385,131.33166666666668,神門,警戒
2023-08-09 15:00:00,8月9日 15時時点,87231,26.1,32.24,131.15166666666667,西米良,警戒
2023-08-09 15:00:00,8月9日 15時時点,87293,28.3,32.123333333333335,131.475,高鍋,厳重警戒
2023-08-09 15:00:00,8月9日 15時時点,87301,25.9,32.04666666666667,130.81,加久藤,警戒
2023-08-09 15:00:00,8月9日 15時時点,87331,27.4,32.06333333333333,131.41333333333333,西都,警戒
2023-08-09 15:00:00,8月9日 15時時点,87352,25.7,32.0,130.95333333333335,小林,警戒
2023-08-09 15:00:00,8月9日 15時時点,87376,27.1,31.938333333333333,131.41333333333333,宮崎,警戒
2023-08-09 15:00:00,8月9日 15時時点,87406,26.7,31.843333333333334,131.30833333333334,田野,警戒
2023-08-09 15:00:00,8月9日 15時時点,87426,26.8,31.73,131.08166666666668,都城,警戒
2023-08-09 15:00:00,8月9日 15時時点,87492,28.4,31.578333333333333,131.40666666666667,油津,厳重警戒
2023-08-09 15:00:00,8月9日 15時時点,87501,27.3,31.465,131.22,串間,警戒
2023-08-09 15:00:00,8月9日 15時時点,88061,27.2,32.026666666666664,130.2,阿久根,警戒
2023-08-09 15:00:00,8月9日 15時時点,88081,25.7,32.04666666666667,130.62666666666667,大口,警戒
2023-08-09 15:00:00,8月9日 15時時点,88107,27.5,31.916666666666668,130.455,さつま柏原,警戒
2023-08-09 15:00:00,8月9日 15時時点,88131,27.3,31.835,129.86666666666667,中甑,警戒
2023-08-09 15:00:00,8月9日 15時時点,88151,26.8,31.833333333333332,130.315,川内,警戒
2023-08-09 15:00:00,8月9日 15時時点,88261,27.0,31.668333333333333,130.32833333333335,東市来,警戒
2023-08-09 15:00:00,8月9日 15時時点,88286,25.1,31.661666666666665,130.84333333333333,牧之原,警戒
2023-08-09 15:00:00,8月9日 15時時点,88317,26.2,31.555,130.54666666666665,鹿児島,警戒
2023-08-09 15:00:00,8月9日 15時時点,88331,25.4,31.588333333333335,130.855,輝北,警戒
2023-08-09 15:00:00,8月9日 15時時点,88371,27.3,31.415,130.325,加世田,警戒
2023-08-09 15:00:00,8月9日 15時時点,88406,26.9,31.47833333333333,131.095,志布志,警戒
2023-08-09 15:00:00,8月9日 15時時点,88432,27.3,31.386666666666667,130.54,喜入,警戒
2023-08-09 15:00:00,8月9日 15時時点,88442,26.9,31.391666666666666,130.86333333333334,鹿屋,警戒
2023-08-09 15:00:00,8月9日 15時時点,88447,28.2,31.34,130.93833333333333,肝付前田,厳重警戒
2023-08-09 15:00:00,8月9日 15時時点,88466,27.9,31.27166666666667,130.29166666666666,枕崎,警戒
2023-08-09 15:00:00,8月9日 15時時点,88486,27.1,31.25,130.63666666666666,指宿,警戒
2023-08-09 15:00:00,8月9日 15時時点,88506,27.4,31.276666666666667,131.055,内之浦,警戒
2023-08-09 15:00:00,8月9日 15時時点,88536,26.2,31.198333333333334,130.84333333333333,田代,警戒
2023-08-09 15:00:00,8月9日 15時時点,88612,27.9,30.72,130.98166666666665,種子島,警戒
2023-08-09 15:00:00,8月9日 15時時点,88666,27.0,30.406666666666666,130.90166666666667,上中,警戒
2023-08-09 15:00:00,8月9日 15時時点,88686,27.8,30.385,130.65833333333333,屋久島,警戒
2023-08-09 15:00:00,8月9日 15時時点,88706,28.4,30.235,130.555,尾之間,厳重警戒
2023-08-09 15:00:00,8月9日 15時時点,88736,27.3,29.84,129.86666666666667,中之島,警戒
2023-08-09 15:00:00,8月9日 15時時点,88836,26.7,28.378333333333334,129.495,名瀬,警戒
2023-08-09 15:00:00,8月9日 15時時点,88901,28.2,28.143333333333334,129.315,古仁屋,厳重警戒
2023-08-09 15:00:00,8月9日 15時時点,88956,27.9,27.676666666666666,128.97333333333333,伊仙,警戒
2023-08-09 15:00:00,8月9日 15時時点,88971,29.6,27.431666666666665,128.705,沖永良部,厳重警戒
2023-08-09 15:00:00,8月9日 15時時点,91011,30.8,26.948333333333334,127.94,伊是名,厳重警戒
2023-08-09 15:00:00,8月9日 15時時点,91021,28.9,26.835,128.27166666666668,奥,厳重警戒
2023-08-09 15:00:00,8月9日 15時時点,91107,30.3,26.593333333333334,127.965,名護,厳重警戒
2023-08-09 15:00:00,8月9日 15時時点,91146,30.5,26.336666666666666,126.80333333333333,久米島,厳重警戒
2023-08-09 15:00:00,8月9日 15時時点,91166,30.4,26.363333333333333,127.97166666666666,宮城島,厳重警戒
2023-08-09 15:00:00,8月9日 15時時点,91181,29.3,26.21,127.36333333333333,渡嘉敷,厳重警戒
2023-08-09 15:00:00,8月9日 15時時点,91197,30.0,26.206666666666667,127.68666666666667,那覇,厳重警戒
2023-08-09 15:00:00,8月9日 15時時点,91241,28.1,26.153333333333332,127.765,糸数,厳重警戒
2023-08-09 15:00:00,8月9日 15時時点,92011,30.6,25.828333333333333,131.22833333333332,南大東,厳重警戒
2023-08-09 15:00:00,8月9日 15時時点,93041,29.4,24.793333333333333,125.27833333333334,宮古島,厳重警戒
2023-08-09 15:00:00,8月9日 15時時点,94001,29.2,24.506666666666668,124.28,伊原間,厳重警戒
2023-08-09 15:00:00,8月9日 15時時点,94017,31.3,24.466666666666665,123.01,与那国島,危険
2023-08-09 15:00:00,8月9日 15時時点,94062,30.8,24.426666666666666,123.765,西表島,厳重警戒
2023-08-09 15:00:00,8月9日 15時時点,94081,29.6,24.336666666666666,124.16333333333333,石垣島,厳重警戒
2023-08-09 15:00:00,8月9日 15時時点,94101,29.4,24.265,123.87166666666667,大原,厳重警戒
2023-08-09 15:00:00,8月9日 15時時点,94116,29.7,24.055,123.76666666666667,波照間,厳重警戒
