date_dt,date_popup,amdno,wbgt,lat,lon,kjName,guideline
2023-08-21 15:00:00,8月21日 15時時点,11001,27.2,45.52,141.935,宗谷岬,警戒
2023-08-21 15:00:00,8月21日 15時時点,11016,25.6,45.415,141.67833333333334,稚内,警戒
2023-08-21 15:00:00,8月21日 15時時点,11046,25.8,45.305,141.045,礼文,警戒
2023-08-21 15:00:00,8月21日 15時時点,11076,28.4,45.335,142.17,浜鬼志別,厳重警戒
2023-08-21 15:00:00,8月21日 15時時点,11121,28.2,45.248333333333335,141.85166666666666,沼川,厳重警戒
2023-08-21 15:00:00,8月21日 15時時点,11151,25.7,45.178333333333335,141.13833333333332,沓形,警戒
2023-08-21 15:00:00,8月21日 15時時点,11176,26.2,45.10166666666667,141.78,豊富,警戒
2023-08-21 15:00:00,8月21日 15時時点,11206,27.9,45.125,142.35,浜頓別,警戒
2023-08-21 15:00:00,8月21日 15時時点,11276,31.0,44.965,142.28,中頓別,危険
2023-08-21 15:00:00,8月21日 15時時点,11291,25.3,44.94,142.585,北見枝幸,警戒
2023-08-21 15:00:00,8月21日 15時時点,11316,30.5,44.84166666666667,142.48,歌登,厳重警戒
2023-08-21 15:00:00,8月21日 15時時点,12011,28.8,44.82833333333333,142.07666666666665,中川,厳重警戒
2023-08-21 15:00:00,8月21日 15時時点,12041,32.1,44.72666666666667,142.265,音威子府,危険
2023-08-21 15:00:00,8月21日 15時時点,12141,31.3,44.48,142.34166666666667,美深,危険
2023-08-21 15:00:00,8月21日 15時時点,12181,29.9,44.37,142.45666666666668,名寄,厳重警戒
2023-08-21 15:00:00,8月21日 15時時点,12231,30.4,44.295,142.63666666666666,下川,厳重警戒
2023-08-21 15:00:00,8月21日 15時時点,12261,30.4,44.18666666666667,142.41666666666666,士別,厳重警戒
2023-08-21 15:00:00,8月21日 15時時点,12266,30.9,44.11833333333333,142.595,朝日,厳重警戒
2023-08-21 15:00:00,8月21日 15時時点,12301,30.3,44.028333333333336,142.41,和寒,厳重警戒
2023-08-21 15:00:00,8月21日 15時時点,12386,30.0,43.87,142.26,江丹別,厳重警戒
2023-08-21 15:00:00,8月21日 15時時点,12396,30.2,43.87,142.47,比布,厳重警戒
2023-08-21 15:00:00,8月21日 15時時点,12411,28.8,43.846666666666664,142.75333333333333,上川,厳重警戒
2023-08-21 15:00:00,8月21日 15時時点,12442,29.9,43.75666666666667,142.37166666666667,旭川,厳重警戒
2023-08-21 15:00:00,8月21日 15時時点,12451,30.2,43.70166666666667,142.50833333333333,東川,厳重警戒
2023-08-21 15:00:00,8月21日 15時時点,12512,30.4,43.64333333333333,142.58166666666668,志比内,厳重警戒
2023-08-21 15:00:00,8月21日 15時時点,12551,26.2,43.58833333333333,142.49333333333334,美瑛,警戒
2023-08-21 15:00:00,8月21日 15時時点,12596,29.6,43.455,142.465,上富良野,厳重警戒
2023-08-21 15:00:00,8月21日 15時時点,12626,30.1,43.333333333333336,142.4,富良野,厳重警戒
2023-08-21 15:00:00,8月21日 15時時点,12632,27.7,43.30166666666667,142.52166666666668,麓郷,警戒
2023-08-21 15:00:00,8月21日 15時時点,12691,29.5,43.16833333333334,142.56833333333333,幾寅,厳重警戒
2023-08-21 15:00:00,8月21日 15時時点,12746,29.3,42.97833333333333,142.395,占冠,厳重警戒
2023-08-21 15:00:00,8月21日 15時時点,15041,26.8,44.281666666666666,142.16166666666666,朱鞠内,警戒
2023-08-21 15:00:00,8月21日 15時時点,15076,30.2,44.01,142.16,幌加内,厳重警戒
2023-08-21 15:00:00,8月21日 15時時点,13061,26.7,44.89333333333333,141.76166666666666,天塩,警戒
2023-08-21 15:00:00,8月21日 15時時点,13086,26.5,44.718333333333334,141.80666666666667,遠別,警戒
2023-08-21 15:00:00,8月21日 15時時点,13121,27.1,44.52333333333333,141.77,初山別,警戒
2023-08-21 15:00:00,8月21日 15時時点,13146,26.5,44.428333333333335,141.42166666666665,焼尻,警戒
2023-08-21 15:00:00,8月21日 15時時点,13181,26.9,44.36333333333334,141.7,羽幌,警戒
2023-08-21 15:00:00,8月21日 15時時点,13261,29.8,44.04833333333333,141.85666666666665,達布,厳重警戒
2023-08-21 15:00:00,8月21日 15時時点,13277,27.2,43.945,141.63166666666666,留萌,警戒
2023-08-21 15:00:00,8月21日 15時時点,13311,27.0,43.848333333333336,141.51,増毛,警戒
2023-08-21 15:00:00,8月21日 15時時点,13321,27.8,43.85333333333333,141.76,幌糠,警戒
2023-08-21 15:00:00,8月21日 15時時点,14026,27.5,43.58166666666666,141.38666666666666,浜益,警戒
2023-08-21 15:00:00,8月21日 15時時点,14071,27.0,43.39666666666667,141.43666666666667,厚田,警戒
2023-08-21 15:00:00,8月21日 15時時点,14101,31.8,43.22,141.645,新篠津,危険
2023-08-21 15:00:00,8月21日 15時時点,14116,28.3,43.14833333333333,141.22166666666666,山口,厳重警戒
2023-08-21 15:00:00,8月21日 15時時点,14121,27.9,43.193333333333335,141.37,石狩,警戒
2023-08-21 15:00:00,8月21日 15時時点,14136,29.3,43.11,141.60166666666666,江別,厳重警戒
2023-08-21 15:00:00,8月21日 15時時点,14163,28.4,43.06,141.32833333333335,札幌,厳重警戒
2023-08-21 15:00:00,8月21日 15時時点,14206,30.6,42.92666666666667,141.565,恵庭島松,厳重警戒
2023-08-21 15:00:00,8月21日 15時時点,14286,28.8,42.77166666666667,141.40666666666667,支笏湖畔,厳重警戒
2023-08-21 15:00:00,8月21日 15時時点,15116,29.9,43.815,141.92666666666668,石狩沼田,厳重警戒
2023-08-21 15:00:00,8月21日 15時時点,15156,30.9,43.78,141.96166666666667,秩父別,厳重警戒
2023-08-21 15:00:00,8月21日 15時時点,15161,30.2,43.718333333333334,142.07333333333332,深川,厳重警戒
2023-08-21 15:00:00,8月21日 15時時点,15231,30.2,43.595,141.73166666666665,空知吉野,厳重警戒
2023-08-21 15:00:00,8月21日 15時時点,15241,30.8,43.57,141.93833333333333,滝川,厳重警戒
2023-08-21 15:00:00,8月21日 15時時点,15251,30.5,43.52,142.19,芦別,厳重警戒
2023-08-21 15:00:00,8月21日 15時時点,15311,31.3,43.33,141.61666666666667,月形,危険
2023-08-21 15:00:00,8月21日 15時時点,15321,31.1,43.36333333333334,141.82666666666665,美唄,危険
2023-08-21 15:00:00,8月21日 15時時点,15356,28.7,43.211666666666666,141.785,岩見沢,厳重警戒
2023-08-21 15:00:00,8月21日 15時時点,15431,30.4,43.01166666666666,141.69333333333333,長沼,厳重警戒
2023-08-21 15:00:00,8月21日 15時時点,15442,29.5,43.038333333333334,141.95666666666668,夕張,厳重警戒
2023-08-21 15:00:00,8月21日 15時時点,16026,24.0,43.27166666666667,140.56333333333333,美国,注意
2023-08-21 15:00:00,8月21日 15時時点,16061,28.6,43.145,140.42333333333335,神恵内,厳重警戒
2023-08-21 15:00:00,8月21日 15時時点,16076,27.2,43.181666666666665,140.75833333333333,余市,警戒
2023-08-21 15:00:00,8月21日 15時時点,16091,26.9,43.181666666666665,141.015,小樽,警戒
2023-08-21 15:00:00,8月21日 15時時点,16156,28.1,42.98,140.60333333333332,共和,厳重警戒
2023-08-21 15:00:00,8月21日 15時時点,16206,28.9,42.81,140.54166666666666,蘭越,厳重警戒
2023-08-21 15:00:00,8月21日 15時時点,16217,27.7,42.9,140.75666666666666,倶知安,警戒
2023-08-21 15:00:00,8月21日 15時時点,16252,27.1,42.795,140.22333333333333,寿都,警戒
2023-08-21 15:00:00,8月21日 15時時点,16281,28.1,42.775,140.88,真狩,厳重警戒
2023-08-21 15:00:00,8月21日 15時時点,16286,30.3,42.79333333333334,140.94833333333332,喜茂別,厳重警戒
2023-08-21 15:00:00,8月21日 15時時点,16321,29.9,42.663333333333334,140.31,黒松内,厳重警戒
2023-08-21 15:00:00,8月21日 15時時点,17036,26.1,44.58,142.96333333333334,雄武,警戒
2023-08-21 15:00:00,8月21日 15時時点,17076,27.4,44.47,143.10833333333332,興部,警戒
2023-08-21 15:00:00,8月21日 15時時点,17091,29.2,44.33166666666666,142.935,西興部,厳重警戒
2023-08-21 15:00:00,8月21日 15時時点,17112,25.3,44.345,143.355,紋別,警戒
2023-08-21 15:00:00,8月21日 15時時点,17166,26.4,44.21333333333333,143.61833333333334,湧別,警戒
2023-08-21 15:00:00,8月21日 15時時点,17196,30.6,44.17666666666667,143.06166666666667,滝上,厳重警戒
2023-08-21 15:00:00,8月21日 15時時点,17246,27.6,44.115,144.03666666666666,常呂,警戒
2023-08-21 15:00:00,8月21日 15時時点,17306,29.7,44.053333333333335,143.54,遠軽,厳重警戒
2023-08-21 15:00:00,8月21日 15時時点,17316,27.5,44.01833333333333,143.76,佐呂間,警戒
2023-08-21 15:00:00,8月21日 15時時点,17341,25.9,44.016666666666666,144.27833333333334,網走,警戒
2023-08-21 15:00:00,8月21日 15時時点,17351,30.3,44.05166666666667,144.98166666666665,宇登呂,厳重警戒
2023-08-21 15:00:00,8月21日 15時時点,17482,26.5,43.865,143.15333333333334,白滝,警戒
2023-08-21 15:00:00,8月21日 15時時点,17501,27.9,43.916666666666664,143.53166666666667,生田原,警戒
2023-08-21 15:00:00,8月21日 15時時点,17521,28.0,43.776666666666664,143.84166666666667,北見,厳重警戒
2023-08-21 15:00:00,8月21日 15時時点,17546,29.0,43.84166666666667,144.485,小清水,厳重警戒
2023-08-21 15:00:00,8月21日 15時時点,17561,29.0,43.885,144.7,斜里,厳重警戒
2023-08-21 15:00:00,8月21日 15時時点,17596,24.2,43.74166666666667,143.45,留辺蘂,注意
2023-08-21 15:00:00,8月21日 15時時点,17607,27.5,43.70666666666666,143.64333333333335,境野,警戒
2023-08-21 15:00:00,8月21日 15時時点,17631,31.0,43.77,144.17166666666665,美幌,危険
2023-08-21 15:00:00,8月21日 15時時点,17717,31.1,43.70166666666667,144.03333333333333,津別,危険
2023-08-21 15:00:00,8月21日 15時時点,18038,25.2,44.02333333333333,145.18666666666667,羅臼,警戒
2023-08-21 15:00:00,8月21日 15時時点,18136,25.6,43.66166666666667,145.13166666666666,標津,警戒
2023-08-21 15:00:00,8月21日 15時時点,18161,26.6,43.52,144.74666666666667,上標津,警戒
2023-08-21 15:00:00,8月21日 15時時点,18171,25.9,43.54333333333334,144.97833333333332,中標津,警戒
2023-08-21 15:00:00,8月21日 15時時点,18256,26.8,43.38166666666667,145.11833333333334,別海,警戒
2023-08-21 15:00:00,8月21日 15時時点,18273,26.8,43.33,145.585,根室,警戒
2023-08-21 15:00:00,8月21日 15時時点,18281,26.3,43.39333333333333,145.75833333333333,納沙布,警戒
2023-08-21 15:00:00,8月21日 15時時点,18311,28.1,43.221666666666664,145.22666666666666,厚床,厳重警戒
2023-08-21 15:00:00,8月21日 15時時点,19021,29.7,43.61666666666667,144.45666666666668,川湯,厳重警戒
2023-08-21 15:00:00,8月21日 15時時点,19051,25.3,43.51,144.46666666666667,弟子屈,警戒
2023-08-21 15:00:00,8月21日 15時時点,19076,27.0,43.43666666666667,144.08333333333334,阿寒湖畔,警戒
2023-08-21 15:00:00,8月21日 15時時点,19151,27.0,43.291666666666664,144.58666666666667,標茶,警戒
2023-08-21 15:00:00,8月21日 15時時点,19191,29.8,43.23166666666667,144.325,鶴居,厳重警戒
2023-08-21 15:00:00,8月21日 15時時点,19261,28.5,43.19833333333333,144.14166666666668,中徹別,厳重警戒
2023-08-21 15:00:00,8月21日 15時時点,19311,26.3,43.12,145.11,榊町,警戒
2023-08-21 15:00:00,8月21日 15時時点,19376,29.1,43.09,144.77833333333334,太田,厳重警戒
2023-08-21 15:00:00,8月21日 15時時点,19416,22.9,42.97,144.06166666666667,白糠,注意
2023-08-21 15:00:00,8月21日 15時時点,19432,24.6,42.985,144.37666666666667,釧路,注意
2023-08-21 15:00:00,8月21日 15時時点,19451,25.7,42.93833333333333,144.735,知方学,警戒
2023-08-21 15:00:00,8月21日 15時時点,20146,30.8,43.471666666666664,143.75333333333333,陸別,厳重警戒
2023-08-21 15:00:00,8月21日 15時時点,20186,26.0,43.36666666666667,143.19166666666666,ぬかびら源泉郷,警戒
2023-08-21 15:00:00,8月21日 15時時点,20266,26.2,43.24166666666667,143.295,上士幌,警戒
2023-08-21 15:00:00,8月21日 15時時点,20276,30.8,43.24333333333333,143.55333333333334,足寄,厳重警戒
2023-08-21 15:00:00,8月21日 15時時点,20341,28.0,43.13166666666667,143.6,本別,厳重警戒
2023-08-21 15:00:00,8月21日 15時時点,20356,28.2,43.07666666666667,142.84,新得,厳重警戒
2023-08-21 15:00:00,8月21日 15時時点,20361,27.5,43.10333333333333,142.995,鹿追,警戒
2023-08-21 15:00:00,8月21日 15時時点,20371,27.6,43.05,143.18333333333334,駒場,警戒
2023-08-21 15:00:00,8月21日 15時時点,20421,26.0,42.9,143.04333333333332,芽室,警戒
2023-08-21 15:00:00,8月21日 15時時点,20432,26.5,42.92166666666667,143.21166666666667,帯広,警戒
2023-08-21 15:00:00,8月21日 15時時点,20441,24.1,42.92,143.45833333333334,池田,注意
2023-08-21 15:00:00,8月21日 15時時点,20506,27.8,42.80833333333333,143.65666666666667,浦幌,警戒
2023-08-21 15:00:00,8月21日 15時時点,20556,29.3,42.78666666666667,143.32833333333335,糠内,厳重警戒
2023-08-21 15:00:00,8月21日 15時時点,20601,24.4,42.641666666666666,143.09666666666666,上札内,注意
2023-08-21 15:00:00,8月21日 15時時点,20606,26.1,42.651666666666664,143.195,更別,警戒
2023-08-21 15:00:00,8月21日 15時時点,20631,25.2,42.68666666666667,143.64666666666668,大津,警戒
2023-08-21 15:00:00,8月21日 15時時点,20696,24.9,42.5,143.27333333333334,大樹,注意
2023-08-21 15:00:00,8月21日 15時時点,20751,24.5,42.29333333333334,143.31666666666666,広尾,注意
2023-08-21 15:00:00,8月21日 15時時点,21111,30.1,42.73,141.88833333333332,厚真,厳重警戒
2023-08-21 15:00:00,8月21日 15時時点,21126,31.0,42.76166666666667,142.14333333333335,穂別,危険
2023-08-21 15:00:00,8月21日 15時時点,21161,28.7,42.67,141.07833333333335,大滝,厳重警戒
2023-08-21 15:00:00,8月21日 15時時点,21171,29.0,42.63,141.24666666666667,森野,厳重警戒
2023-08-21 15:00:00,8月21日 15時時点,21187,28.0,42.623333333333335,141.54666666666665,苫小牧,厳重警戒
2023-08-21 15:00:00,8月21日 15時時点,21226,29.3,42.59,140.64333333333335,大岸,厳重警戒
2023-08-21 15:00:00,8月21日 15時時点,21261,28.4,42.54333333333334,141.35166666666666,白老,厳重警戒
2023-08-21 15:00:00,8月21日 15時時点,21276,28.6,42.59,141.93333333333334,鵡川,厳重警戒
2023-08-21 15:00:00,8月21日 15時時点,21297,29.0,42.475,140.84833333333333,伊達,厳重警戒
2023-08-21 15:00:00,8月21日 15時時点,21312,28.3,42.458333333333336,141.11833333333334,登別,厳重警戒
2023-08-21 15:00:00,8月21日 15時時点,21323,28.5,42.31166666666667,140.975,室蘭,厳重警戒
2023-08-21 15:00:00,8月21日 15時時点,22036,31.2,42.876666666666665,142.44166666666666,日高,危険
2023-08-21 15:00:00,8月21日 15時時点,22141,26.9,42.49666666666667,142.05333333333334,日高門別,警戒
2023-08-21 15:00:00,8月21日 15時時点,22156,30.6,42.54333333333334,142.33333333333334,新和,厳重警戒
2023-08-21 15:00:00,8月21日 15時時点,22241,26.5,42.343333333333334,142.36166666666668,静内,警戒
2023-08-21 15:00:00,8月21日 15時時点,22291,29.6,42.245,142.66166666666666,三石,厳重警戒
2023-08-21 15:00:00,8月21日 15時時点,22306,28.2,42.223333333333336,142.94833333333332,中杵臼,厳重警戒
2023-08-21 15:00:00,8月21日 15時時点,22327,26.4,42.16166666666667,142.77666666666667,浦河,警戒
2023-08-21 15:00:00,8月21日 15時時点,22391,25.7,41.925,143.24333333333334,えりも岬,警戒
2023-08-21 15:00:00,8月21日 15時時点,23031,27.7,42.52333333333333,140.38166666666666,長万部,警戒
2023-08-21 15:00:00,8月21日 15時時点,23086,27.8,42.251666666666665,140.27166666666668,八雲,警戒
2023-08-21 15:00:00,8月21日 15時時点,23166,28.7,42.06666666666667,140.58833333333334,森,厳重警戒
2023-08-21 15:00:00,8月21日 15時時点,23206,28.5,41.905,140.97,川汲,厳重警戒
2023-08-21 15:00:00,8月21日 15時時点,23226,30.5,41.88666666666667,140.65333333333334,北斗,厳重警戒
2023-08-21 15:00:00,8月21日 15時時点,23232,28.3,41.81666666666667,140.75333333333333,函館,厳重警戒
2023-08-21 15:00:00,8月21日 15時時点,23326,28.6,41.68,140.43666666666667,木古内,厳重警戒
2023-08-21 15:00:00,8月21日 15時時点,23376,28.7,41.42333333333333,140.08666666666667,松前,厳重警戒
2023-08-21 15:00:00,8月21日 15時時点,24141,28.4,42.12833333333333,139.985,熊石,厳重警戒
2023-08-21 15:00:00,8月21日 15時時点,24041,28.2,42.45,139.85166666666666,せたな,厳重警戒
2023-08-21 15:00:00,8月21日 15時時点,24051,29.2,42.428333333333335,140.00833333333333,今金,厳重警戒
2023-08-21 15:00:00,8月21日 15時時点,24101,28.2,42.248333333333335,139.55666666666667,奥尻,厳重警戒
2023-08-21 15:00:00,8月21日 15時時点,24201,29.6,41.93,140.31166666666667,鶉,厳重警戒
2023-08-21 15:00:00,8月21日 15時時点,24217,27.7,41.86666666666667,140.12333333333333,江差,警戒
2023-08-21 15:00:00,8月21日 15時時点,31001,29.0,41.526666666666664,140.91166666666666,大間,厳重警戒
2023-08-21 15:00:00,8月21日 15時時点,31111,29.0,41.28333333333333,141.21,むつ,厳重警戒
2023-08-21 15:00:00,8月21日 15時時点,31121,27.4,41.235,141.39666666666668,小田野沢,警戒
2023-08-21 15:00:00,8月21日 15時時点,31136,28.2,41.18,140.48166666666665,今別,厳重警戒
2023-08-21 15:00:00,8月21日 15時時点,31156,28.5,41.145,140.82166666666666,脇野沢,厳重警戒
2023-08-21 15:00:00,8月21日 15時時点,31186,29.3,41.056666666666665,140.34666666666666,市浦,厳重警戒
2023-08-21 15:00:00,8月21日 15時時点,31201,28.0,41.045,140.63333333333333,蟹田,厳重警戒
2023-08-21 15:00:00,8月21日 15時時点,31296,30.8,40.80833333333333,140.45833333333334,五所川原,厳重警戒
2023-08-21 15:00:00,8月21日 15時時点,31312,29.8,40.821666666666665,140.76833333333335,青森,厳重警戒
2023-08-21 15:00:00,8月21日 15時時点,31332,30.6,40.885,141.16,野辺地,厳重警戒
2023-08-21 15:00:00,8月21日 15時時点,31336,27.1,40.885,141.27166666666668,六ケ所,警戒
2023-08-21 15:00:00,8月21日 15時時点,31366,29.7,40.776666666666664,140.205,鰺ケ沢,厳重警戒
2023-08-21 15:00:00,8月21日 15時時点,31436,29.5,40.645,139.93166666666667,深浦,厳重警戒
2023-08-21 15:00:00,8月21日 15時時点,31461,28.1,40.611666666666665,140.455,弘前,厳重警戒
2023-08-21 15:00:00,8月21日 15時時点,31466,30.5,40.666666666666664,140.585,黒石,厳重警戒
2023-08-21 15:00:00,8月21日 15時時点,31482,23.7,40.64833333333333,140.84833333333333,酸ケ湯,注意
2023-08-21 15:00:00,8月21日 15時時点,31506,28.6,40.675,141.375,三沢,厳重警戒
2023-08-21 15:00:00,8月21日 15時時点,31586,27.8,40.60666666666667,141.23333333333332,十和田,警戒
2023-08-21 15:00:00,8月21日 15時時点,31602,28.7,40.526666666666664,141.52166666666668,八戸,厳重警戒
2023-08-21 15:00:00,8月21日 15時時点,31646,29.9,40.48166666666667,140.62,碇ケ関,厳重警戒
2023-08-21 15:00:00,8月21日 15時時点,31662,27.9,40.42666666666667,140.89833333333334,休屋,警戒
2023-08-21 15:00:00,8月21日 15時時点,31721,27.0,40.38333333333333,141.25666666666666,三戸,警戒
2023-08-21 15:00:00,8月21日 15時時点,32056,29.9,40.413333333333334,139.94833333333332,八森,厳重警戒
2023-08-21 15:00:00,8月21日 15時時点,32111,29.5,40.19833333333333,140.03166666666667,能代,厳重警戒
2023-08-21 15:00:00,8月21日 15時時点,32126,31.5,40.22666666666667,140.37166666666667,鷹巣,危険
2023-08-21 15:00:00,8月21日 15時時点,32136,32.5,40.251666666666665,140.505,大館,危険
2023-08-21 15:00:00,8月21日 15時時点,32146,32.0,40.215,140.78666666666666,鹿角,危険
2023-08-21 15:00:00,8月21日 15時時点,32206,32.0,40.12,140.84,湯瀬,危険
2023-08-21 15:00:00,8月21日 15時時点,32266,26.1,40.013333333333335,140.80166666666668,八幡平,警戒
2023-08-21 15:00:00,8月21日 15時時点,32286,29.5,39.91166666666667,139.9,男鹿,厳重警戒
2023-08-21 15:00:00,8月21日 15時時点,32287,29.8,40.0,139.95,大潟,厳重警戒
2023-08-21 15:00:00,8月21日 15時時点,32296,30.8,39.93833333333333,140.115,五城目,厳重警戒
2023-08-21 15:00:00,8月21日 15時時点,32311,31.3,39.99333333333333,140.40333333333334,阿仁合,危険
2023-08-21 15:00:00,8月21日 15時時点,32402,31.2,39.71666666666667,140.09833333333333,秋田,危険
2023-08-21 15:00:00,8月21日 15時時点,32407,30.8,39.70666666666666,140.28666666666666,岩見三内,厳重警戒
2023-08-21 15:00:00,8月21日 15時時点,32466,34.1,39.60333333333333,140.55666666666667,角館,危険
2023-08-21 15:00:00,8月21日 15時時点,32476,33.8,39.69833333333333,140.73166666666665,田沢湖,危険
2023-08-21 15:00:00,8月21日 15時時点,32496,31.9,39.526666666666664,140.23333333333332,大正寺,危険
2023-08-21 15:00:00,8月21日 15時時点,32551,33.4,39.49,140.495,大曲,危険
2023-08-21 15:00:00,8月21日 15時時点,32571,30.6,39.36,140.055,本荘,厳重警戒
2023-08-21 15:00:00,8月21日 15時時点,32581,29.4,39.305,140.28833333333333,東由利,厳重警戒
2023-08-21 15:00:00,8月21日 15時時点,32596,35.3,39.32,140.555,横手,危険
2023-08-21 15:00:00,8月21日 15時時点,32616,30.8,39.255,139.91333333333333,にかほ,厳重警戒
2023-08-21 15:00:00,8月21日 15時時点,32626,30.5,39.235,140.13666666666666,矢島,厳重警戒
2023-08-21 15:00:00,8月21日 15時時点,32691,30.9,39.18666666666667,140.46333333333334,湯沢,厳重警戒
2023-08-21 15:00:00,8月21日 15時時点,32771,24.1,38.96,140.52833333333334,湯の岱,注意
2023-08-21 15:00:00,8月21日 15時時点,33006,27.2,40.403333333333336,141.7,種市,警戒
2023-08-21 15:00:00,8月21日 15時時点,33026,28.6,40.325,141.46666666666667,軽米,厳重警戒
2023-08-21 15:00:00,8月21日 15時時点,33071,26.6,40.29833333333333,141.29833333333335,二戸,警戒
2023-08-21 15:00:00,8月21日 15時時点,33136,28.7,40.14833333333333,141.57166666666666,山形,厳重警戒
2023-08-21 15:00:00,8月21日 15時時点,33146,31.1,40.16833333333334,141.74833333333333,久慈,危険
2023-08-21 15:00:00,8月21日 15時時点,33166,29.6,40.10333333333333,141.05,荒屋,厳重警戒
2023-08-21 15:00:00,8月21日 15時時点,33176,27.3,40.06,141.225,奥中山,警戒
2023-08-21 15:00:00,8月21日 15時時点,33186,28.7,40.04,141.45666666666668,葛巻,厳重警戒
2023-08-21 15:00:00,8月21日 15時時点,33206,30.9,40.00333333333333,141.88333333333333,普代,厳重警戒
2023-08-21 15:00:00,8月21日 15時時点,33226,33.1,39.95166666666667,141.065,岩手松尾,危険
2023-08-21 15:00:00,8月21日 15時時点,33296,34.3,39.86833333333333,141.16666666666666,好摩,危険
2023-08-21 15:00:00,8月21日 15時時点,33326,28.3,39.846666666666664,141.795,岩泉,厳重警戒
2023-08-21 15:00:00,8月21日 15時時点,33336,30.8,39.846666666666664,141.96333333333334,小本,厳重警戒
2023-08-21 15:00:00,8月21日 15時時点,33371,29.4,39.78333333333333,141.32833333333335,薮川,厳重警戒
2023-08-21 15:00:00,8月21日 15時時点,33421,32.1,39.696666666666665,140.975,雫石,危険
2023-08-21 15:00:00,8月21日 15時時点,33431,31.7,39.69833333333333,141.165,盛岡,危険
2023-08-21 15:00:00,8月21日 15時時点,33441,27.5,39.65,141.35333333333332,区界,警戒
2023-08-21 15:00:00,8月21日 15時時点,33472,30.1,39.64666666666667,141.965,宮古,厳重警戒
2023-08-21 15:00:00,8月21日 15時時点,33486,27.5,39.54833333333333,140.84333333333333,沢内,警戒
2023-08-21 15:00:00,8月21日 15時時点,33501,31.7,39.54666666666667,141.12666666666667,紫波,危険
2023-08-21 15:00:00,8月21日 15時時点,33526,27.2,39.598333333333336,141.68166666666667,川井,警戒
2023-08-21 15:00:00,8月21日 15時時点,33581,32.3,39.47,141.27833333333334,大迫,危険
2023-08-21 15:00:00,8月21日 15時時点,33616,30.8,39.45,141.95666666666668,山田,厳重警戒
2023-08-21 15:00:00,8月21日 15時時点,33631,29.8,39.31,140.77666666666667,湯田,厳重警戒
2023-08-21 15:00:00,8月21日 15時時点,33671,27.3,39.33833333333333,141.54333333333332,遠野,警戒
2023-08-21 15:00:00,8月21日 15時時点,33716,29.1,39.288333333333334,141.11,北上,厳重警戒
2023-08-21 15:00:00,8月21日 15時時点,33751,30.5,39.27,141.87833333333333,釜石,厳重警戒
2023-08-21 15:00:00,8月21日 15時時点,33776,29.2,39.14,141.06333333333333,若柳,厳重警戒
2023-08-21 15:00:00,8月21日 15時時点,33781,30.0,39.18333333333333,141.16166666666666,江刺,厳重警戒
2023-08-21 15:00:00,8月21日 15時時点,33801,31.0,39.141666666666666,141.57333333333332,住田,危険
2023-08-21 15:00:00,8月21日 15時時点,33877,29.9,39.06333333333333,141.71333333333334,大船渡,厳重警戒
2023-08-21 15:00:00,8月21日 15時時点,33911,31.2,38.93333333333333,141.125,一関,危険
2023-08-21 15:00:00,8月21日 15時時点,33921,31.6,38.92166666666667,141.33,千厩,危険
2023-08-21 15:00:00,8月21日 15時時点,34012,24.9,38.913333333333334,140.82833333333335,駒ノ湯,注意
2023-08-21 15:00:00,8月21日 15時時点,34026,29.4,38.906666666666666,141.55666666666667,気仙沼,厳重警戒
2023-08-21 15:00:00,8月21日 15時時点,34096,27.9,38.74333333333333,140.76,川渡,警戒
2023-08-21 15:00:00,8月21日 15時時点,34111,29.9,38.735,141.005,築館,厳重警戒
2023-08-21 15:00:00,8月21日 15時時点,34171,31.2,38.626666666666665,141.18833333333333,米山,危険
2023-08-21 15:00:00,8月21日 15時時点,34186,29.8,38.681666666666665,141.44833333333332,志津川,厳重警戒
2023-08-21 15:00:00,8月21日 15時時点,34216,30.5,38.598333333333336,140.91166666666666,古川,厳重警戒
2023-08-21 15:00:00,8月21日 15時時点,34266,30.5,38.473333333333336,140.88833333333332,大衡,厳重警戒
2023-08-21 15:00:00,8月21日 15時時点,34276,30.8,38.46,141.09166666666667,鹿島台,厳重警戒
2023-08-21 15:00:00,8月21日 15時時点,34292,30.6,38.42666666666667,141.29833333333335,石巻,厳重警戒
2023-08-21 15:00:00,8月21日 15時時点,34296,30.2,38.446666666666665,141.45,女川,厳重警戒
2023-08-21 15:00:00,8月21日 15時時点,34311,28.0,38.303333333333335,140.63666666666666,新川,厳重警戒
2023-08-21 15:00:00,8月21日 15時時点,34331,31.2,38.33833333333333,141.01333333333332,塩釜,危険
2023-08-21 15:00:00,8月21日 15時時点,34392,30.1,38.26166666666666,140.89666666666668,仙台,厳重警戒
2023-08-21 15:00:00,8月21日 15時時点,34461,33.5,38.015,140.61166666666668,白石,危険
2023-08-21 15:00:00,8月21日 15時時点,34462,31.6,38.126666666666665,140.68,蔵王,危険
2023-08-21 15:00:00,8月21日 15時時点,34471,29.8,38.025,140.85833333333332,亘理,厳重警戒
2023-08-21 15:00:00,8月21日 15時時点,34506,32.3,37.931666666666665,140.77833333333334,丸森,危険
2023-08-21 15:00:00,8月21日 15時時点,35002,31.1,39.18333333333333,139.54333333333332,飛島,危険
2023-08-21 15:00:00,8月21日 15時時点,35052,29.7,38.90833333333333,139.84333333333333,酒田,厳重警戒
2023-08-21 15:00:00,8月21日 15時時点,35071,31.8,38.91833333333334,140.2,差首鍋,危険
2023-08-21 15:00:00,8月21日 15時時点,35116,32.4,38.87833333333333,140.33166666666668,金山,危険
2023-08-21 15:00:00,8月21日 15時時点,35141,31.0,38.735,139.82833333333335,鶴岡,危険
2023-08-21 15:00:00,8月21日 15時時点,35146,30.2,38.8,139.97333333333333,狩川,厳重警戒
2023-08-21 15:00:00,8月21日 15時時点,35162,30.7,38.75666666666667,140.31166666666667,新庄,厳重警戒
2023-08-21 15:00:00,8月21日 15時時点,35176,30.9,38.75833333333333,140.51666666666668,向町,厳重警戒
2023-08-21 15:00:00,8月21日 15時時点,35216,27.4,38.60666666666667,140.16333333333333,肘折,警戒
2023-08-21 15:00:00,8月21日 15時時点,35231,32.5,38.608333333333334,140.41166666666666,尾花沢,危険
2023-08-21 15:00:00,8月21日 15時時点,35246,31.6,38.56666666666667,139.55166666666668,鼠ケ関,危険
2023-08-21 15:00:00,8月21日 15時時点,35332,32.3,38.46,140.34833333333333,村山,危険
2023-08-21 15:00:00,8月21日 15時時点,35361,25.8,38.39,139.99333333333334,大井沢,警戒
2023-08-21 15:00:00,8月21日 15時時点,35376,29.7,38.37,140.19166666666666,左沢,厳重警戒
2023-08-21 15:00:00,8月21日 15時時点,35426,29.3,38.255,140.345,山形,厳重警戒
2023-08-21 15:00:00,8月21日 15時時点,35456,31.7,38.105,140.015,長井,危険
2023-08-21 15:00:00,8月21日 15時時点,35486,33.3,38.07833333333333,139.735,小国,危険
2023-08-21 15:00:00,8月21日 15時時点,35511,32.5,38.00333333333333,140.20666666666668,高畠,危険
2023-08-21 15:00:00,8月21日 15時時点,35541,32.2,37.99,139.95333333333335,高峰,危険
2023-08-21 15:00:00,8月21日 15時時点,35552,32.3,37.91166666666667,140.14333333333335,米沢,危険
2023-08-21 15:00:00,8月21日 15時時点,36056,31.7,37.891666666666666,140.43666666666667,茂庭,危険
2023-08-21 15:00:00,8月21日 15時時点,36066,32.5,37.85166666666667,140.58833333333334,梁川,危険
2023-08-21 15:00:00,8月21日 15時時点,36106,27.9,37.721666666666664,140.05833333333334,桧原,警戒
2023-08-21 15:00:00,8月21日 15時時点,36127,29.1,37.75833333333333,140.47,福島,厳重警戒
2023-08-21 15:00:00,8月21日 15時時点,36151,31.0,37.78333333333333,140.925,相馬,危険
2023-08-21 15:00:00,8月21日 15時時点,36176,33.5,37.65833333333333,139.86333333333334,喜多方,危険
2023-08-21 15:00:00,8月21日 15時時点,36196,24.4,37.66833333333334,140.26,鷲倉,注意
2023-08-21 15:00:00,8月21日 15時時点,36221,25.9,37.665,140.72666666666666,飯舘,警戒
2023-08-21 15:00:00,8月21日 15時時点,36251,32.2,37.58833333333333,139.65666666666667,西会津,危険
2023-08-21 15:00:00,8月21日 15時時点,36276,29.4,37.55166666666667,140.10833333333332,猪苗代,厳重警戒
2023-08-21 15:00:00,8月21日 15時時点,36291,27.6,37.583333333333336,140.43,二本松,警戒
2023-08-21 15:00:00,8月21日 15時時点,36342,26.9,37.473333333333336,139.52833333333334,金山,警戒
2023-08-21 15:00:00,8月21日 15時時点,36361,31.5,37.48833333333334,139.91,若松,危険
2023-08-21 15:00:00,8月21日 15時時点,36391,32.1,37.435,140.57666666666665,船引,危険
2023-08-21 15:00:00,8月21日 15時時点,36411,31.9,37.49166666666667,140.965,浪江,危険
2023-08-21 15:00:00,8月21日 15時時点,36426,22.7,37.343333333333334,139.31333333333333,只見,注意
2023-08-21 15:00:00,8月21日 15時時点,36476,31.0,37.36833333333333,140.33,郡山,危険
2023-08-21 15:00:00,8月21日 15時時点,36501,29.7,37.336666666666666,140.80833333333334,川内,厳重警戒
2023-08-21 15:00:00,8月21日 15時時点,36536,25.3,37.265,139.53666666666666,南郷,警戒
2023-08-21 15:00:00,8月21日 15時時点,36562,23.9,37.276666666666664,140.06333333333333,湯本,注意
2023-08-21 15:00:00,8月21日 15時時点,36591,31.0,37.28666666666667,140.625,小野新町,危険
2023-08-21 15:00:00,8月21日 15時時点,36611,31.3,37.233333333333334,141.0,広野,危険
2023-08-21 15:00:00,8月21日 15時時点,36641,24.2,37.20666666666666,139.795,田島,注意
2023-08-21 15:00:00,8月21日 15時時点,36667,27.3,37.13166666666667,140.215,白河,警戒
2023-08-21 15:00:00,8月21日 15時時点,36676,32.5,37.14666666666667,140.46,石川,危険
2023-08-21 15:00:00,8月21日 15時時点,36716,23.0,37.01,139.375,桧枝岐,注意
2023-08-21 15:00:00,8月21日 15時時点,36821,29.8,36.93833333333333,140.40833333333333,東白川,厳重警戒
2023-08-21 15:00:00,8月21日 15時時点,36836,30.4,36.93333333333333,140.73333333333332,山田,厳重警戒
2023-08-21 15:00:00,8月21日 15時時点,36846,30.7,36.946666666666665,140.90333333333334,小名浜,厳重警戒
2023-08-21 15:00:00,8月21日 15時時点,40046,31.4,36.833333333333336,140.77166666666668,北茨城,危険
2023-08-21 15:00:00,8月21日 15時時点,40061,31.0,36.778333333333336,140.345,大子,危険
2023-08-21 15:00:00,8月21日 15時時点,40091,30.5,36.60666666666667,140.325,常陸大宮,厳重警戒
2023-08-21 15:00:00,8月21日 15時時点,40136,31.3,36.58,140.645,日立,危険
2023-08-21 15:00:00,8月21日 15時時点,40191,32.1,36.395,140.24,笠間,危険
2023-08-21 15:00:00,8月21日 15時時点,40201,30.9,36.38,140.46666666666667,水戸,厳重警戒
2023-08-21 15:00:00,8月21日 15時時点,40221,33.0,36.20166666666667,139.71666666666667,古河,危険
2023-08-21 15:00:00,8月21日 15時時点,40231,31.7,36.281666666666666,139.98833333333334,下館,危険
2023-08-21 15:00:00,8月21日 15時時点,40281,31.0,36.16833333333334,139.945,下妻,危険
2023-08-21 15:00:00,8月21日 15時時点,40311,31.3,36.16833333333334,140.52666666666667,鉾田,危険
2023-08-21 15:00:00,8月21日 15時時点,40336,31.0,36.056666666666665,140.125,つくば,危険
2023-08-21 15:00:00,8月21日 15時時点,40341,31.8,36.10333333333333,140.22,土浦,危険
2023-08-21 15:00:00,8月21日 15時時点,40406,31.0,35.96333333333333,140.62166666666667,鹿嶋,危険
2023-08-21 15:00:00,8月21日 15時時点,40426,31.4,35.89,140.21166666666667,龍ケ崎,危険
2023-08-21 15:00:00,8月21日 15時時点,41011,25.8,37.123333333333335,140.035,那須高原,警戒
2023-08-21 15:00:00,8月21日 15時時点,41076,24.3,36.92166666666667,139.695,五十里,注意
2023-08-21 15:00:00,8月21日 15時時点,41091,28.3,36.98166666666667,140.01833333333335,黒磯,厳重警戒
2023-08-21 15:00:00,8月21日 15時時点,41116,22.6,36.891666666666666,139.56833333333333,土呂部,注意
2023-08-21 15:00:00,8月21日 15時時点,41141,30.6,36.84,140.035,大田原,厳重警戒
2023-08-21 15:00:00,8月21日 15時時点,41166,24.5,36.73833333333333,139.5,奥日光,注意
2023-08-21 15:00:00,8月21日 15時時点,41172,26.6,36.75,139.615,日光東町,警戒
2023-08-21 15:00:00,8月21日 15時時点,41181,28.0,36.75666666666667,139.88333333333333,塩谷,厳重警戒
2023-08-21 15:00:00,8月21日 15時時点,41247,30.0,36.641666666666666,140.11666666666667,那須烏山,厳重警戒
2023-08-21 15:00:00,8月21日 15時時点,41271,33.1,36.59166666666667,139.735,鹿沼,危険
2023-08-21 15:00:00,8月21日 15時時点,41277,32.1,36.54833333333333,139.86833333333334,宇都宮,危険
2023-08-21 15:00:00,8月21日 15時時点,41331,29.0,36.47666666666667,139.98666666666668,真岡,厳重警戒
2023-08-21 15:00:00,8月21日 15時時点,41361,33.2,36.36333333333334,139.57,佐野,危険
2023-08-21 15:00:00,8月21日 15時時点,41376,31.8,36.33833333333333,139.83,小山,危険
2023-08-21 15:00:00,8月21日 15時時点,42046,25.7,36.86333333333333,139.05833333333334,藤原,警戒
2023-08-21 15:00:00,8月21日 15時時点,42091,30.0,36.77333333333333,138.965,みなかみ,厳重警戒
2023-08-21 15:00:00,8月21日 15時時点,42121,22.5,36.61666666666667,138.59166666666667,草津,注意
2023-08-21 15:00:00,8月21日 15時時点,42146,31.5,36.66833333333334,139.02166666666668,沼田,危険
2023-08-21 15:00:00,8月21日 15時時点,42186,31.4,36.586666666666666,138.85,中之条,危険
2023-08-21 15:00:00,8月21日 15時時点,42221,25.4,36.46333333333333,138.46333333333334,田代,警戒
2023-08-21 15:00:00,8月21日 15時時点,42251,30.9,36.405,139.06,前橋,厳重警戒
2023-08-21 15:00:00,8月21日 15時時点,42266,33.4,36.41,139.325,桐生,危険
2023-08-21 15:00:00,8月21日 15時時点,42286,31.6,36.376666666666665,138.895,上里見,危険
2023-08-21 15:00:00,8月21日 15時時点,42302,32.3,36.33166666666666,139.165,伊勢崎,危険
2023-08-21 15:00:00,8月21日 15時時点,42326,25.7,36.245,138.70666666666668,西野牧,警戒
2023-08-21 15:00:00,8月21日 15時時点,42366,32.7,36.24,139.51333333333332,館林,危険
2023-08-21 15:00:00,8月21日 15時時点,42396,23.3,36.108333333333334,138.89666666666668,神流,注意
2023-08-21 15:00:00,8月21日 15時時点,43051,28.0,36.105,139.18333333333334,寄居,厳重警戒
2023-08-21 15:00:00,8月21日 15時時点,43056,31.5,36.15,139.38,熊谷,危険
2023-08-21 15:00:00,8月21日 15時時点,43126,32.5,36.086666666666666,139.635,久喜,危険
2023-08-21 15:00:00,8月21日 15時時点,43156,28.1,35.99,139.07333333333332,秩父,厳重警戒
2023-08-21 15:00:00,8月21日 15時時点,43171,31.8,35.985,139.335,鳩山,危険
2023-08-21 15:00:00,8月21日 15時時点,43241,31.0,35.875,139.58666666666667,さいたま,危険
2023-08-21 15:00:00,8月21日 15時時点,43256,29.9,35.88333333333333,139.75666666666666,越谷,厳重警戒
2023-08-21 15:00:00,8月21日 15時時点,43266,31.2,35.77333333333333,139.41333333333333,所沢,危険
2023-08-21 15:00:00,8月21日 15時時点,44046,26.7,35.791666666666664,139.05,小河内,警戒
2023-08-21 15:00:00,8月21日 15時時点,44056,31.0,35.788333333333334,139.31166666666667,青梅,危険
2023-08-21 15:00:00,8月21日 15時時点,44071,28.3,35.73833333333333,139.59166666666667,練馬,厳重警戒
2023-08-21 15:00:00,8月21日 15時時点,44112,31.3,35.666666666666664,139.31666666666666,八王子,危険
2023-08-21 15:00:00,8月21日 15時時点,44116,27.8,35.68333333333333,139.48333333333332,府中,警戒
2023-08-21 15:00:00,8月21日 15時時点,44132,30.7,35.69166666666667,139.75,東京,厳重警戒
2023-08-21 15:00:00,8月21日 15時時点,44136,31.2,35.638333333333335,139.86333333333334,江戸川臨海,危険
2023-08-21 15:00:00,8月21日 15時時点,44172,30.2,34.748333333333335,139.36166666666668,大島,厳重警戒
2023-08-21 15:00:00,8月21日 15時時点,44226,30.8,34.123333333333335,139.52,三宅島,厳重警戒
2023-08-21 15:00:00,8月21日 15時時点,44263,29.8,33.12166666666667,139.77833333333334,八丈島,厳重警戒
2023-08-21 15:00:00,8月21日 15時時点,44301,31.9,27.091666666666665,142.19,父島,危険
2023-08-21 15:00:00,8月21日 15時時点,45061,31.6,35.86333333333333,140.11,我孫子,危険
2023-08-21 15:00:00,8月21日 15時時点,45081,30.5,35.858333333333334,140.50166666666667,香取,厳重警戒
2023-08-21 15:00:00,8月21日 15時時点,45106,32.2,35.711666666666666,140.04333333333332,船橋,危険
2023-08-21 15:00:00,8月21日 15時時点,45116,32.9,35.72833333333333,140.21166666666667,佐倉,危険
2023-08-21 15:00:00,8月21日 15時時点,45147,31.1,35.73833333333333,140.85666666666665,銚子,危険
2023-08-21 15:00:00,8月21日 15時時点,45181,31.6,35.655,140.505,横芝光,危険
2023-08-21 15:00:00,8月21日 15時時点,45212,30.2,35.60166666666667,140.10333333333332,千葉,厳重警戒
2023-08-21 15:00:00,8月21日 15時時点,45261,30.9,35.43666666666667,140.29333333333332,茂原,厳重警戒
2023-08-21 15:00:00,8月21日 15時時点,45282,31.7,35.361666666666665,139.94,木更津,危険
2023-08-21 15:00:00,8月21日 15時時点,45291,31.2,35.39666666666667,140.14833333333334,牛久,危険
2023-08-21 15:00:00,8月21日 15時時点,45326,30.7,35.235,140.09833333333333,坂畑,厳重警戒
2023-08-21 15:00:00,8月21日 15時時点,45361,32.2,35.111666666666665,140.1,鴨川,危険
2023-08-21 15:00:00,8月21日 15時時点,45371,31.3,35.15,140.31166666666667,勝浦,危険
2023-08-21 15:00:00,8月21日 15時時点,45401,31.0,34.986666666666665,139.865,館山,危険
2023-08-21 15:00:00,8月21日 15時時点,46091,31.7,35.43333333333333,139.38666666666666,海老名,危険
2023-08-21 15:00:00,8月21日 15時時点,46106,31.3,35.43833333333333,139.65166666666667,横浜,危険
2023-08-21 15:00:00,8月21日 15時時点,46141,32.6,35.32,139.45,辻堂,危険
2023-08-21 15:00:00,8月21日 15時時点,46166,32.1,35.276666666666664,139.155,小田原,危険
2023-08-21 15:00:00,8月21日 15時時点,46211,29.9,35.178333333333335,139.63,三浦,厳重警戒
2023-08-21 15:00:00,8月21日 15時時点,48031,25.8,36.91166666666667,138.44166666666666,野沢温泉,警戒
2023-08-21 15:00:00,8月21日 15時時点,48061,27.1,36.80833333333333,138.19666666666666,信濃町,警戒
2023-08-21 15:00:00,8月21日 15時時点,48066,28.4,36.875,138.375,飯山,厳重警戒
2023-08-21 15:00:00,8月21日 15時時点,48141,30.7,36.69833333333333,137.86166666666668,白馬,厳重警戒
2023-08-21 15:00:00,8月21日 15時時点,48156,30.4,36.66166666666667,138.19166666666666,長野,厳重警戒
2023-08-21 15:00:00,8月21日 15時時点,48191,26.5,36.52333333333333,137.83166666666668,大町,警戒
2023-08-21 15:00:00,8月21日 15時時点,48196,27.4,36.54833333333333,137.99666666666667,信州新町,警戒
2023-08-21 15:00:00,8月21日 15時時点,48216,25.3,36.531666666666666,138.325,菅平,警戒
2023-08-21 15:00:00,8月21日 15時時点,48256,28.1,36.4,138.265,上田,厳重警戒
2023-08-21 15:00:00,8月21日 15時時点,48296,30.4,36.343333333333334,137.88166666666666,穂高,厳重警戒
2023-08-21 15:00:00,8月21日 15時時点,48321,25.1,36.38333333333333,138.38333333333333,東御,警戒
2023-08-21 15:00:00,8月21日 15時時点,48331,25.8,36.34166666666667,138.54666666666665,軽井沢,警戒
2023-08-21 15:00:00,8月21日 15時時点,48361,26.5,36.24666666666667,137.97,松本,警戒
2023-08-21 15:00:00,8月21日 15時時点,48381,25.6,36.27166666666667,138.31333333333333,立科,警戒
2023-08-21 15:00:00,8月21日 15時時点,48386,29.1,36.24666666666667,138.47666666666666,佐久,厳重警戒
2023-08-21 15:00:00,8月21日 15時時点,48466,26.5,36.08833333333333,137.68333333333334,奈川,警戒
2023-08-21 15:00:00,8月21日 15時時点,48491,26.5,36.045,138.10833333333332,諏訪,警戒
2023-08-21 15:00:00,8月21日 15時時点,48531,23.1,35.93833333333333,137.60166666666666,開田高原,注意
2023-08-21 15:00:00,8月21日 15時時点,48536,24.4,35.93666666666667,137.78666666666666,木祖薮原,注意
2023-08-21 15:00:00,8月21日 15時時点,48546,23.8,35.983333333333334,137.98333333333332,辰野,注意
2023-08-21 15:00:00,8月21日 15時時点,48561,23.6,35.97,138.22,原村,注意
2023-08-21 15:00:00,8月21日 15時時点,48571,19.1,35.94833333333333,138.47166666666666,野辺山,ほぼ安全
2023-08-21 15:00:00,8月21日 15時時点,48606,24.3,35.84,137.68833333333333,木曽福島,注意
2023-08-21 15:00:00,8月21日 15時時点,48621,20.6,35.825,137.955,伊那,ほぼ安全
2023-08-21 15:00:00,8月21日 15時時点,48717,26.6,35.61,137.62,南木曽,警戒
2023-08-21 15:00:00,8月21日 15時時点,48731,24.3,35.653333333333336,137.89833333333334,飯島,注意
2023-08-21 15:00:00,8月21日 15時時点,48767,25.5,35.52333333333333,137.82166666666666,飯田,警戒
2023-08-21 15:00:00,8月21日 15時時点,48826,26.2,35.373333333333335,137.69166666666666,浪合,警戒
2023-08-21 15:00:00,8月21日 15時時点,48841,32.0,35.321666666666665,137.93166666666667,南信濃,危険
2023-08-21 15:00:00,8月21日 15時時点,49036,23.5,35.861666666666665,138.38666666666666,大泉,注意
2023-08-21 15:00:00,8月21日 15時時点,49086,25.4,35.693333333333335,138.44833333333332,韮崎,警戒
2023-08-21 15:00:00,8月21日 15時時点,49142,28.7,35.666666666666664,138.55333333333334,甲府,厳重警戒
2023-08-21 15:00:00,8月21日 15時時点,49151,30.3,35.663333333333334,138.725,勝沼,厳重警戒
2023-08-21 15:00:00,8月21日 15時時点,49161,29.9,35.608333333333334,138.93833333333333,大月,厳重警戒
2023-08-21 15:00:00,8月21日 15時時点,49196,25.1,35.528333333333336,138.615,古関,警戒
2023-08-21 15:00:00,8月21日 15時時点,49236,31.2,35.46666666666667,138.44166666666666,切石,危険
2023-08-21 15:00:00,8月21日 15時時点,49251,26.7,35.5,138.76,河口湖,警戒
2023-08-21 15:00:00,8月21日 15時時点,49256,26.3,35.43666666666667,138.83666666666667,山中,警戒
2023-08-21 15:00:00,8月21日 15時時点,49316,31.1,35.288333333333334,138.445,南部,危険
2023-08-21 15:00:00,8月21日 15時時点,50106,26.5,35.21666666666667,138.22166666666666,井川,警戒
2023-08-21 15:00:00,8月21日 15時時点,50136,29.2,35.305,138.92666666666668,御殿場,厳重警戒
2023-08-21 15:00:00,8月21日 15時時点,50196,31.2,35.185,138.66333333333333,富士,危険
2023-08-21 15:00:00,8月21日 15時時点,50206,31.5,35.11333333333334,138.925,三島,危険
2023-08-21 15:00:00,8月21日 15時時点,50226,30.2,35.056666666666665,137.76166666666666,佐久間,厳重警戒
2023-08-21 15:00:00,8月21日 15時時点,50241,28.5,35.10166666666667,138.12833333333333,川根本町,厳重警戒
2023-08-21 15:00:00,8月21日 15時時点,50261,30.8,35.053333333333335,138.52166666666668,清水,厳重警戒
2023-08-21 15:00:00,8月21日 15時時点,50281,31.3,35.045,139.09166666666667,網代,危険
2023-08-21 15:00:00,8月21日 15時時点,50331,31.3,34.975,138.40333333333334,静岡,危険
2023-08-21 15:00:00,8月21日 15時時点,50386,29.1,34.89,137.81333333333333,天竜,厳重警戒
2023-08-21 15:00:00,8月21日 15時時点,50456,30.9,34.75333333333333,137.71166666666667,浜松,厳重警戒
2023-08-21 15:00:00,8月21日 15時時点,50476,30.3,34.785,138.13833333333332,菊川牧之原,厳重警戒
2023-08-21 15:00:00,8月21日 15時時点,50491,31.9,34.755,138.78333333333333,松崎,危険
2023-08-21 15:00:00,8月21日 15時時点,50506,30.6,34.781666666666666,139.04833333333335,稲取,厳重警戒
2023-08-21 15:00:00,8月21日 15時時点,50536,30.7,34.69166666666667,137.88,磐田,厳重警戒
2023-08-21 15:00:00,8月21日 15時時点,50551,31.4,34.60333333333333,138.21333333333334,御前崎,危険
2023-08-21 15:00:00,8月21日 15時時点,50561,30.1,34.60333333333333,138.84166666666667,石廊崎,厳重警戒
2023-08-21 15:00:00,8月21日 15時時点,51031,31.7,35.21666666666667,136.69833333333332,愛西,危険
2023-08-21 15:00:00,8月21日 15時時点,51071,26.1,35.211666666666666,137.50666666666666,稲武,警戒
2023-08-21 15:00:00,8月21日 15時時点,51106,29.4,35.166666666666664,136.965,名古屋,厳重警戒
2023-08-21 15:00:00,8月21日 15時時点,51116,30.1,35.13166666666667,137.17666666666668,豊田,厳重警戒
2023-08-21 15:00:00,8月21日 15時時点,51216,31.4,34.995,136.94333333333333,大府,危険
2023-08-21 15:00:00,8月21日 15時時点,51226,30.9,34.91833333333334,137.19333333333333,岡崎,厳重警戒
2023-08-21 15:00:00,8月21日 15時時点,51247,31.5,34.906666666666666,137.51833333333335,新城,危険
2023-08-21 15:00:00,8月21日 15時時点,51281,31.4,34.845,137.21666666666667,蒲郡,危険
2023-08-21 15:00:00,8月21日 15時時点,51311,30.4,34.74,136.93833333333333,南知多,厳重警戒
2023-08-21 15:00:00,8月21日 15時時点,51331,31.5,34.75,137.34166666666667,豊橋,危険
2023-08-21 15:00:00,8月21日 15時時点,51346,30.4,34.62833333333333,137.09333333333333,伊良湖,厳重警戒
2023-08-21 15:00:00,8月21日 15時時点,52041,29.9,36.305,137.1,河合,厳重警戒
2023-08-21 15:00:00,8月21日 15時時点,52051,31.0,36.321666666666665,137.30833333333334,神岡,危険
2023-08-21 15:00:00,8月21日 15時時点,52081,28.9,36.27333333333333,136.89666666666668,白川,厳重警戒
2023-08-21 15:00:00,8月21日 15時時点,52111,31.8,36.248333333333335,137.50333333333333,栃尾,危険
2023-08-21 15:00:00,8月21日 15時時点,52146,26.6,36.155,137.25333333333333,高山,警戒
2023-08-21 15:00:00,8月21日 15時時点,52181,22.2,36.06,137.035,六厩,注意
2023-08-21 15:00:00,8月21日 15時時点,52196,30.7,36.015,137.38833333333332,宮之前,厳重警戒
2023-08-21 15:00:00,8月21日 15時時点,52221,29.2,35.92333333333333,136.83166666666668,長滝,厳重警戒
2023-08-21 15:00:00,8月21日 15時時点,52286,29.0,35.888333333333335,137.20666666666668,萩原,厳重警戒
2023-08-21 15:00:00,8月21日 15時時点,52331,34.5,35.75666666666667,136.97833333333332,八幡,危険
2023-08-21 15:00:00,8月21日 15時時点,52346,29.1,35.763333333333335,137.28833333333333,宮地,厳重警戒
2023-08-21 15:00:00,8月21日 15時時点,52381,31.9,35.638333333333335,136.60166666666666,樽見,危険
2023-08-21 15:00:00,8月21日 15時時点,52406,33.4,35.66166666666667,137.16,金山,危険
2023-08-21 15:00:00,8月21日 15時時点,52461,34.4,35.555,136.91,美濃,危険
2023-08-21 15:00:00,8月21日 15時時点,52482,30.3,35.598333333333336,137.31833333333333,黒川,厳重警戒
2023-08-21 15:00:00,8月21日 15時時点,52511,33.6,35.485,136.56666666666666,揖斐川,危険
2023-08-21 15:00:00,8月21日 15時時点,52536,33.8,35.445,137.005,美濃加茂,危険
2023-08-21 15:00:00,8月21日 15時時点,52556,26.2,35.446666666666665,137.40333333333334,恵那,警戒
2023-08-21 15:00:00,8月21日 15時時点,52557,25.8,35.47666666666667,137.48666666666668,中津川,警戒
2023-08-21 15:00:00,8月21日 15時時点,52571,32.5,35.36333333333334,136.46666666666667,関ケ原,危険
2023-08-21 15:00:00,8月21日 15時時点,52581,33.6,35.346666666666664,136.62,大垣,危険
2023-08-21 15:00:00,8月21日 15時時点,52586,31.9,35.4,136.76166666666666,岐阜,危険
2023-08-21 15:00:00,8月21日 15時時点,52606,31.5,35.346666666666664,137.10833333333332,多治見,危険
2023-08-21 15:00:00,8月21日 15時時点,53041,31.9,35.05,136.69333333333333,桑名,危険
2023-08-21 15:00:00,8月21日 15時時点,53061,31.5,34.94,136.58,四日市,危険
2023-08-21 15:00:00,8月21日 15時時点,53091,31.0,34.87,136.45333333333335,亀山,危険
2023-08-21 15:00:00,8月21日 15時時点,53112,31.4,34.76166666666667,136.14166666666668,上野,危険
2023-08-21 15:00:00,8月21日 15時時点,53133,31.1,34.733333333333334,136.51833333333335,津,危険
2023-08-21 15:00:00,8月21日 15時時点,53196,30.7,34.528333333333336,136.665,小俣,厳重警戒
2023-08-21 15:00:00,8月21日 15時時点,53231,30.5,34.44833333333333,136.39,粥見,厳重警戒
2023-08-21 15:00:00,8月21日 15時時点,53257,30.3,34.48166666666667,136.825,鳥羽,厳重警戒
2023-08-21 15:00:00,8月21日 15時時点,53296,31.3,34.345,136.68166666666667,南伊勢,危険
2023-08-21 15:00:00,8月21日 15時時点,53326,31.0,34.208333333333336,136.32666666666665,紀伊長島,危険
2023-08-21 15:00:00,8月21日 15時時点,53378,31.1,34.068333333333335,136.19333333333333,尾鷲,危険
2023-08-21 15:00:00,8月21日 15時時点,53401,31.1,33.931666666666665,136.13833333333332,熊野新鹿,危険
2023-08-21 15:00:00,8月21日 15時時点,54012,30.6,38.465,139.25333333333333,粟島,厳重警戒
2023-08-21 15:00:00,8月21日 15時時点,54041,29.5,38.33,138.51166666666666,弾崎,厳重警戒
2023-08-21 15:00:00,8月21日 15時時点,54086,32.4,38.22666666666667,139.47833333333332,村上,危険
2023-08-21 15:00:00,8月21日 15時時点,54157,30.6,38.028333333333336,138.24,相川,厳重警戒
2023-08-21 15:00:00,8月21日 15時時点,54166,31.2,38.07333333333333,138.44,両津,危険
2023-08-21 15:00:00,8月21日 15時時点,54181,31.1,38.07666666666667,139.38833333333332,中条,危険
2023-08-21 15:00:00,8月21日 15時時点,54191,32.4,38.09166666666667,139.56333333333333,下関,危険
2023-08-21 15:00:00,8月21日 15時時点,54232,31.3,37.89333333333333,139.01833333333335,新潟,危険
2023-08-21 15:00:00,8月21日 15時時点,54271,32.5,37.84166666666667,138.31333333333333,羽茂,危険
2023-08-21 15:00:00,8月21日 15時時点,54296,32.7,37.791666666666664,139.08666666666667,新津,危険
2023-08-21 15:00:00,8月21日 15時時点,54341,31.2,37.76833333333333,138.91333333333333,巻,危険
2023-08-21 15:00:00,8月21日 15時時点,54387,33.1,37.64,138.76666666666668,寺泊,危険
2023-08-21 15:00:00,8月21日 15時時点,54396,32.5,37.64,138.955,三条,危険
2023-08-21 15:00:00,8月21日 15時時点,54421,34.3,37.67166666666667,139.44666666666666,津川,危険
2023-08-21 15:00:00,8月21日 15時時点,54501,34.5,37.45,138.82333333333332,長岡,危険
2023-08-21 15:00:00,8月21日 15時時点,54541,32.4,37.35166666666667,138.55333333333334,柏崎,危険
2023-08-21 15:00:00,8月21日 15時時点,54566,30.0,37.346666666666664,139.04333333333332,守門,厳重警戒
2023-08-21 15:00:00,8月21日 15時時点,54586,32.2,37.225,138.325,大潟,危険
2023-08-21 15:00:00,8月21日 15時時点,54616,27.6,37.22666666666667,138.96333333333334,小出,警戒
2023-08-21 15:00:00,8月21日 15時時点,54651,31.9,37.10666666666667,138.24666666666667,高田,危険
2023-08-21 15:00:00,8月21日 15時時点,54661,32.0,37.10666666666667,138.45666666666668,安塚,危険
2023-08-21 15:00:00,8月21日 15時時点,54676,29.2,37.14333333333333,138.72666666666666,十日町,厳重警戒
2023-08-21 15:00:00,8月21日 15時時点,54711,31.8,37.04333333333334,137.875,糸魚川,危険
2023-08-21 15:00:00,8月21日 15時時点,54721,29.8,37.083333333333336,138.02333333333334,能生,厳重警戒
2023-08-21 15:00:00,8月21日 15時時点,54816,29.9,36.93333333333333,138.22166666666666,関山,厳重警戒
2023-08-21 15:00:00,8月21日 15時時点,54836,27.9,36.99666666666667,138.68333333333334,津南,警戒
2023-08-21 15:00:00,8月21日 15時時点,54841,25.4,36.94166666666667,138.81,湯沢,警戒
2023-08-21 15:00:00,8月21日 15時時点,55022,31.2,36.93666666666667,137.56333333333333,朝日,危険
2023-08-21 15:00:00,8月21日 15時時点,55041,30.9,36.86333333333333,136.96,氷見,厳重警戒
2023-08-21 15:00:00,8月21日 15時時点,55056,31.4,36.821666666666665,137.42833333333334,魚津,危険
2023-08-21 15:00:00,8月21日 15時時点,55091,31.8,36.791666666666664,137.055,伏木,危険
2023-08-21 15:00:00,8月21日 15時時点,55102,31.4,36.708333333333336,137.20166666666665,富山,危険
2023-08-21 15:00:00,8月21日 15時時点,55141,31.6,36.61,136.955,砺波,危険
2023-08-21 15:00:00,8月21日 15時時点,55166,30.4,36.67,137.42333333333335,上市,厳重警戒
2023-08-21 15:00:00,8月21日 15時時点,55191,31.7,36.545,136.87166666666667,南砺高宮,危険
2023-08-21 15:00:00,8月21日 15時時点,55206,32.0,36.57,137.15833333333333,八尾,危険
2023-08-21 15:00:00,8月21日 15時時点,56036,31.9,37.446666666666665,137.28666666666666,珠洲,危険
2023-08-21 15:00:00,8月21日 15時時点,56052,30.8,37.39,136.895,輪島,厳重警戒
2023-08-21 15:00:00,8月21日 15時時点,56116,32.3,37.14333333333333,136.725,志賀,危険
2023-08-21 15:00:00,8月21日 15時時点,56146,31.8,37.03,136.99166666666667,七尾,危険
2023-08-21 15:00:00,8月21日 15時時点,56176,32.5,36.89333333333333,136.77666666666667,羽咋,危険
2023-08-21 15:00:00,8月21日 15時時点,56186,30.7,36.711666666666666,136.69166666666666,かほく,厳重警戒
2023-08-21 15:00:00,8月21日 15時時点,56227,31.9,36.58833333333333,136.63333333333333,金沢,危険
2023-08-21 15:00:00,8月21日 15時時点,56276,32.6,36.38166666666667,136.435,小松,危険
2023-08-21 15:00:00,8月21日 15時時点,56286,31.4,36.39666666666667,136.62,白山河内,危険
2023-08-21 15:00:00,8月21日 15時時点,56301,31.8,36.26166666666666,136.39666666666668,加賀中津原,危険
2023-08-21 15:00:00,8月21日 15時時点,57001,32.0,36.24333333333333,136.17333333333335,三国,危険
2023-08-21 15:00:00,8月21日 15時時点,57051,33.1,36.01166666666666,135.99,越廼,危険
2023-08-21 15:00:00,8月21日 15時時点,57066,32.0,36.055,136.22166666666666,福井,危険
2023-08-21 15:00:00,8月21日 15時時点,57082,32.4,36.038333333333334,136.52166666666668,勝山,危険
2023-08-21 15:00:00,8月21日 15時時点,57121,29.3,35.971666666666664,136.49666666666667,大野,厳重警戒
2023-08-21 15:00:00,8月21日 15時時点,57206,33.4,35.766666666666666,136.2,今庄,危険
2023-08-21 15:00:00,8月21日 15時時点,57248,32.2,35.653333333333336,136.06166666666667,敦賀,危険
2023-08-21 15:00:00,8月21日 15時時点,57286,30.4,35.6,135.91666666666666,美浜,厳重警戒
2023-08-21 15:00:00,8月21日 15時時点,57317,29.4,35.483333333333334,135.78166666666667,小浜,厳重警戒
2023-08-21 15:00:00,8月21日 15時時点,60051,30.9,35.41166666666667,136.02833333333334,今津,厳重警戒
2023-08-21 15:00:00,8月21日 15時時点,60061,32.0,35.42333333333333,136.24166666666667,長浜,危険
2023-08-21 15:00:00,8月21日 15時時点,60102,31.4,35.38333333333333,136.34333333333333,米原,危険
2023-08-21 15:00:00,8月21日 15時時点,60116,31.2,35.235,135.95666666666668,南小松,危険
2023-08-21 15:00:00,8月21日 15時時点,60131,31.6,35.275,136.24333333333334,彦根,危険
2023-08-21 15:00:00,8月21日 15時時点,60196,31.6,35.06166666666667,136.19,東近江,危険
2023-08-21 15:00:00,8月21日 15時時点,60216,29.0,34.99166666666667,135.91166666666666,大津,厳重警戒
2023-08-21 15:00:00,8月21日 15時時点,60226,31.0,34.913333333333334,136.08,信楽,危険
2023-08-21 15:00:00,8月21日 15時時点,60236,30.5,34.93833333333333,136.27833333333334,土山,厳重警戒
2023-08-21 15:00:00,8月21日 15時時点,61001,31.1,35.736666666666665,135.08666666666667,間人,危険
2023-08-21 15:00:00,8月21日 15時時点,61076,32.2,35.55,135.235,宮津,危険
2023-08-21 15:00:00,8月21日 15時時点,61111,32.1,35.45,135.31666666666666,舞鶴,危険
2023-08-21 15:00:00,8月21日 15時時点,61187,31.2,35.31166666666667,135.11333333333334,福知山,危険
2023-08-21 15:00:00,8月21日 15時時点,61206,30.7,35.275,135.55,美山,厳重警戒
2023-08-21 15:00:00,8月21日 15時時点,61242,32.4,35.108333333333334,135.455,園部,危険
2023-08-21 15:00:00,8月21日 15時時点,61286,32.9,35.013333333333335,135.73166666666665,京都,危険
2023-08-21 15:00:00,8月21日 15時時点,61326,32.5,34.83,135.76,京田辺,危険
2023-08-21 15:00:00,8月21日 15時時点,62016,31.7,34.94833333333333,135.455,能勢,危険
2023-08-21 15:00:00,8月21日 15時時点,62046,33.2,34.80833333333333,135.67166666666665,枚方,危険
2023-08-21 15:00:00,8月21日 15時時点,62078,28.1,34.681666666666665,135.51833333333335,大阪,厳重警戒
2023-08-21 15:00:00,8月21日 15時時点,62081,27.4,34.675,135.67666666666668,生駒山,警戒
2023-08-21 15:00:00,8月21日 15時時点,62091,30.0,34.555,135.485,堺,厳重警戒
2023-08-21 15:00:00,8月21日 15時時点,62131,27.3,34.385,135.35,熊取,警戒
2023-08-21 15:00:00,8月21日 15時時点,63016,31.8,35.625,134.62666666666667,香住,危険
2023-08-21 15:00:00,8月21日 15時時点,63051,32.9,35.535,134.82166666666666,豊岡,危険
2023-08-21 15:00:00,8月21日 15時時点,63071,28.4,35.431666666666665,134.58333333333334,兎和野高原,厳重警戒
2023-08-21 15:00:00,8月21日 15時時点,63121,29.6,35.32333333333333,134.84833333333333,和田山,厳重警戒
2023-08-21 15:00:00,8月21日 15時時点,63201,27.2,35.166666666666664,134.79166666666666,生野,警戒
2023-08-21 15:00:00,8月21日 15時時点,63216,32.9,35.13666666666666,135.065,柏原,危険
2023-08-21 15:00:00,8月21日 15時時点,63251,25.8,35.096666666666664,134.585,一宮,警戒
2023-08-21 15:00:00,8月21日 15時時点,63321,32.8,34.95,134.74833333333333,福崎,危険
2023-08-21 15:00:00,8月21日 15時時点,63331,33.1,34.998333333333335,134.99666666666667,西脇,危険
2023-08-21 15:00:00,8月21日 15時時点,63366,32.5,34.858333333333334,134.37333333333333,上郡,危険
2023-08-21 15:00:00,8月21日 15時時点,63383,32.2,34.83833333333333,134.67,姫路,危険
2023-08-21 15:00:00,8月21日 15時時点,63411,32.4,34.895,135.21166666666667,三田,危険
2023-08-21 15:00:00,8月21日 15時時点,63461,32.0,34.776666666666664,135.01333333333332,三木,危険
2023-08-21 15:00:00,8月21日 15時時点,63491,31.7,34.67166666666667,134.52666666666667,家島,危険
2023-08-21 15:00:00,8月21日 15時時点,63496,31.3,34.68666666666667,134.87666666666667,明石,危険
2023-08-21 15:00:00,8月21日 15時時点,63518,31.6,34.696666666666665,135.21166666666667,神戸,危険
2023-08-21 15:00:00,8月21日 15時時点,63551,34.5,34.46666666666667,134.84833333333333,郡家,危険
2023-08-21 15:00:00,8月21日 15時時点,63571,32.6,34.31,134.84833333333333,洲本,危険
2023-08-21 15:00:00,8月21日 15時時点,63588,31.4,34.218333333333334,134.72,南淡,危険
2023-08-21 15:00:00,8月21日 15時時点,64036,32.2,34.67333333333333,135.83666666666667,奈良,危険
2023-08-21 15:00:00,8月21日 15時時点,64041,30.5,34.605,135.95166666666665,針,厳重警戒
2023-08-21 15:00:00,8月21日 15時時点,64101,30.1,34.48833333333334,135.93166666666667,大宇陀,厳重警戒
2023-08-21 15:00:00,8月21日 15時時点,64127,29.0,34.38,135.73,五條,厳重警戒
2023-08-21 15:00:00,8月21日 15時時点,64206,29.3,34.13666666666666,136.005,上北山,厳重警戒
2023-08-21 15:00:00,8月21日 15時時点,64227,30.6,34.045,135.78666666666666,風屋,厳重警戒
2023-08-21 15:00:00,8月21日 15時時点,65026,28.0,34.31,135.52833333333334,かつらぎ,厳重警戒
2023-08-21 15:00:00,8月21日 15時時点,65036,28.6,34.28,134.99833333333333,友ケ島,厳重警戒
2023-08-21 15:00:00,8月21日 15時時点,65042,29.2,34.22833333333333,135.16333333333333,和歌山,厳重警戒
2023-08-21 15:00:00,8月21日 15時時点,65061,25.1,34.221666666666664,135.59,高野山,警戒
2023-08-21 15:00:00,8月21日 15時時点,65121,26.9,34.086666666666666,135.425,清水,警戒
2023-08-21 15:00:00,8月21日 15時時点,65162,29.2,33.945,135.55666666666667,龍神,厳重警戒
2023-08-21 15:00:00,8月21日 15時時点,65201,32.0,33.89333333333333,135.21666666666667,川辺,危険
2023-08-21 15:00:00,8月21日 15時時点,65256,29.1,33.791666666666664,135.51333333333332,栗栖川,厳重警戒
2023-08-21 15:00:00,8月21日 15時時点,65276,30.3,33.68666666666667,135.97,新宮,厳重警戒
2023-08-21 15:00:00,8月21日 15時時点,65306,30.4,33.638333333333335,135.71,西川,厳重警戒
2023-08-21 15:00:00,8月21日 15時時点,65356,30.5,33.45,135.75666666666666,潮岬,厳重警戒
2023-08-21 15:00:00,8月21日 15時時点,66046,31.2,35.29666666666667,133.725,上長田,危険
2023-08-21 15:00:00,8月21日 15時時点,66091,31.3,35.10333333333333,133.435,千屋,危険
2023-08-21 15:00:00,8月21日 15時時点,66127,27.7,35.111666666666665,134.17,奈義,警戒
2023-08-21 15:00:00,8月21日 15時時点,66136,29.6,35.098333333333336,134.325,今岡,厳重警戒
2023-08-21 15:00:00,8月21日 15時時点,66171,32.5,35.068333333333335,133.75333333333333,久世,危険
2023-08-21 15:00:00,8月21日 15時時点,66186,29.8,35.06333333333333,134.00833333333333,津山,厳重警戒
2023-08-21 15:00:00,8月21日 15時時点,66221,31.2,34.943333333333335,133.51833333333335,新見,危険
2023-08-21 15:00:00,8月21日 15時時点,66296,33.0,34.86666666666667,133.90333333333334,福渡,危険
2023-08-21 15:00:00,8月21日 15時時点,66306,31.9,34.815,134.18333333333334,和気,危険
2023-08-21 15:00:00,8月21日 15時時点,66336,32.7,34.791666666666664,133.61,高梁,危険
2023-08-21 15:00:00,8月21日 15時時点,66408,32.5,34.685,133.925,岡山,危険
2023-08-21 15:00:00,8月21日 15時時点,66421,31.6,34.681666666666665,134.20666666666668,虫明,危険
2023-08-21 15:00:00,8月21日 15時時点,66446,32.5,34.59,133.76833333333335,倉敷,危険
2023-08-21 15:00:00,8月21日 15時時点,66481,32.9,34.501666666666665,133.495,笠岡,危険
2023-08-21 15:00:00,8月21日 15時時点,66501,31.2,34.486666666666665,133.95,玉野,危険
2023-08-21 15:00:00,8月21日 15時時点,67016,29.6,35.03333333333333,132.90166666666667,高野,厳重警戒
2023-08-21 15:00:00,8月21日 15時時点,67106,30.7,34.81166666666667,132.85,三次,厳重警戒
2023-08-21 15:00:00,8月21日 15時時点,67116,32.2,34.86,133.02333333333334,庄原,危険
2023-08-21 15:00:00,8月21日 15時時点,67151,29.2,34.76833333333333,132.46333333333334,大朝,厳重警戒
2023-08-21 15:00:00,8月21日 15時時点,67191,30.5,34.763333333333335,133.27833333333334,油木,厳重警戒
2023-08-21 15:00:00,8月21日 15時時点,67212,32.8,34.61,132.32,加計,危険
2023-08-21 15:00:00,8月21日 15時時点,67292,29.8,34.545,132.53,三入,厳重警戒
2023-08-21 15:00:00,8月21日 15時時点,67316,31.4,34.583333333333336,133.05,世羅,危険
2023-08-21 15:00:00,8月21日 15時時点,67326,33.2,34.56166666666667,133.23166666666665,府中,危険
2023-08-21 15:00:00,8月21日 15時時点,67376,29.4,34.416666666666664,132.7,東広島,厳重警戒
2023-08-21 15:00:00,8月21日 15時時点,67401,32.6,34.446666666666665,133.24666666666667,福山,危険
2023-08-21 15:00:00,8月21日 15時時点,67421,30.9,34.365,132.19,廿日市津田,厳重警戒
2023-08-21 15:00:00,8月21日 15時時点,67437,30.8,34.39833333333333,132.46166666666667,広島,厳重警戒
2023-08-21 15:00:00,8月21日 15時時点,67461,31.1,34.33,132.98166666666665,竹原,危険
2023-08-21 15:00:00,8月21日 15時時点,67471,31.5,34.278333333333336,133.12333333333333,生口島,危険
2023-08-21 15:00:00,8月21日 15時時点,67496,32.0,34.221666666666664,132.22,大竹,危険
2023-08-21 15:00:00,8月21日 15時時点,67511,31.3,34.24,132.55,呉,危険
2023-08-21 15:00:00,8月21日 15時時点,67576,31.4,34.165,132.74833333333333,呉市蒲刈,危険
2023-08-21 15:00:00,8月21日 15時時点,68022,31.3,36.20333333333333,133.33333333333334,西郷,危険
2023-08-21 15:00:00,8月21日 15時時点,68056,31.0,36.096666666666664,133.09666666666666,海士,危険
2023-08-21 15:00:00,8月21日 15時時点,68091,32.0,35.52,132.98333333333332,鹿島,危険
2023-08-21 15:00:00,8月21日 15時時点,68132,31.3,35.45666666666666,133.065,松江,危険
2023-08-21 15:00:00,8月21日 15時時点,68156,32.6,35.33166666666666,132.73,出雲,危険
2023-08-21 15:00:00,8月21日 15時時点,68246,31.7,35.19,132.49666666666667,大田,危険
2023-08-21 15:00:00,8月21日 15時時点,68261,31.6,35.196666666666665,132.815,掛合,危険
2023-08-21 15:00:00,8月21日 15時時点,68276,28.1,35.17333333333333,133.10333333333332,横田,厳重警戒
2023-08-21 15:00:00,8月21日 15時時点,68306,30.3,35.001666666666665,132.71166666666667,赤名,厳重警戒
2023-08-21 15:00:00,8月21日 15時時点,68351,32.2,34.97666666666667,132.49166666666667,川本,危険
2023-08-21 15:00:00,8月21日 15時時点,68376,31.3,34.89666666666667,132.07,浜田,危険
2023-08-21 15:00:00,8月21日 15時時点,68401,31.0,34.85333333333333,132.53,瑞穂,危険
2023-08-21 15:00:00,8月21日 15時時点,68431,31.2,34.776666666666664,132.10833333333332,弥栄,危険
2023-08-21 15:00:00,8月21日 15時時点,68462,32.2,34.67666666666667,131.84333333333333,益田,危険
2023-08-21 15:00:00,8月21日 15時時点,68516,29.0,34.461666666666666,131.77,津和野,厳重警戒
2023-08-21 15:00:00,8月21日 15時時点,68541,31.6,34.391666666666666,131.89333333333335,吉賀,危険
2023-08-21 15:00:00,8月21日 15時時点,69006,32.2,35.54333333333334,133.235,境,危険
2023-08-21 15:00:00,8月21日 15時時点,69021,31.6,35.52333333333333,133.56666666666666,塩津,危険
2023-08-21 15:00:00,8月21日 15時時点,69041,30.2,35.52,133.99666666666667,青谷,厳重警戒
2023-08-21 15:00:00,8月21日 15時時点,69061,29.2,35.55833333333333,134.36,岩井,厳重警戒
2023-08-21 15:00:00,8月21日 15時時点,69076,31.5,35.43333333333333,133.33833333333334,米子,危険
2023-08-21 15:00:00,8月21日 15時時点,69101,32.0,35.473333333333336,133.83833333333334,倉吉,危険
2023-08-21 15:00:00,8月21日 15時時点,69122,29.3,35.486666666666665,134.23833333333334,鳥取,厳重警戒
2023-08-21 15:00:00,8月21日 15時時点,69246,29.9,35.263333333333335,134.24,智頭,厳重警戒
2023-08-21 15:00:00,8月21日 15時時点,69271,28.0,35.18666666666667,133.23,茶屋,厳重警戒
2023-08-21 15:00:00,8月21日 15時時点,81011,30.6,34.615,131.62333333333333,須佐,厳重警戒
2023-08-21 15:00:00,8月21日 15時時点,81071,31.6,34.41,131.405,萩,危険
2023-08-21 15:00:00,8月21日 15時時点,81116,32.0,34.37,131.055,油谷,危険
2023-08-21 15:00:00,8月21日 15時時点,81151,28.2,34.39833333333333,131.725,徳佐,厳重警戒
2023-08-21 15:00:00,8月21日 15時時点,81196,31.2,34.235,131.30666666666667,秋吉台,危険
2023-08-21 15:00:00,8月21日 15時時点,81231,33.4,34.26166666666666,131.95166666666665,広瀬,危険
2023-08-21 15:00:00,8月21日 15時時点,81266,32.7,34.18666666666667,131.07666666666665,豊田,危険
2023-08-21 15:00:00,8月21日 15時時点,81286,33.4,34.16166666666667,131.46166666666667,山口,危険
2023-08-21 15:00:00,8月21日 15時時点,81321,32.1,34.155,132.17833333333334,岩国,危険
2023-08-21 15:00:00,8月21日 15時時点,81371,31.7,34.04,131.53333333333333,防府,危険
2023-08-21 15:00:00,8月21日 15時時点,81386,32.1,34.01,131.87166666666667,下松,危険
2023-08-21 15:00:00,8月21日 15時時点,81397,34.0,34.095,132.075,玖珂,危険
2023-08-21 15:00:00,8月21日 15時時点,81428,31.8,33.94833333333333,130.925,下関,危険
2023-08-21 15:00:00,8月21日 15時時点,81481,30.8,33.958333333333336,132.11333333333334,柳井,厳重警戒
2023-08-21 15:00:00,8月21日 15時時点,81486,31.5,33.903333333333336,132.29333333333332,安下庄,危険
2023-08-21 15:00:00,8月21日 15時時点,71066,29.4,34.02333333333333,133.795,池田,厳重警戒
2023-08-21 15:00:00,8月21日 15時時点,71087,32.7,34.04,134.15666666666667,穴吹,危険
2023-08-21 15:00:00,8月21日 15時時点,71106,31.7,34.06666666666667,134.57333333333332,徳島,危険
2023-08-21 15:00:00,8月21日 15時時点,71191,26.9,33.86666666666667,133.90333333333334,京上,警戒
2023-08-21 15:00:00,8月21日 15時時点,71231,30.9,33.836666666666666,134.74166666666667,蒲生田,厳重警戒
2023-08-21 15:00:00,8月21日 15時時点,71251,30.7,33.77166666666667,134.19833333333332,木頭,厳重警戒
2023-08-21 15:00:00,8月21日 15時時点,71266,30.5,33.73166666666667,134.53833333333333,日和佐,厳重警戒
2023-08-21 15:00:00,8月21日 15時時点,71291,30.3,33.611666666666665,134.355,海陽,厳重警戒
2023-08-21 15:00:00,8月21日 15時時点,72061,32.8,34.471666666666664,134.27333333333334,内海,危険
2023-08-21 15:00:00,8月21日 15時時点,72086,33.1,34.318333333333335,134.05333333333334,高松,危険
2023-08-21 15:00:00,8月21日 15時時点,72111,31.4,34.275,133.75166666666667,多度津,危険
2023-08-21 15:00:00,8月21日 15時時点,72121,32.5,34.236666666666665,133.92333333333335,滝宮,危険
2023-08-21 15:00:00,8月21日 15時時点,72146,32.7,34.21333333333333,134.40666666666667,引田,危険
2023-08-21 15:00:00,8月21日 15時時点,72161,32.9,34.12,133.77166666666668,財田,危険
2023-08-21 15:00:00,8月21日 15時時点,73001,32.5,34.25,133.00666666666666,大三島,危険
2023-08-21 15:00:00,8月21日 15時時点,73076,31.3,34.053333333333335,132.975,今治,危険
2023-08-21 15:00:00,8月21日 15時時点,73126,29.5,33.915,133.08,西条,厳重警戒
2023-08-21 15:00:00,8月21日 15時時点,73141,31.9,33.93666666666667,133.33833333333334,新居浜,危険
2023-08-21 15:00:00,8月21日 15時時点,73151,29.6,33.98166666666667,133.58166666666668,四国中央,厳重警戒
2023-08-21 15:00:00,8月21日 15時時点,73166,31.4,33.843333333333334,132.77666666666667,松山,危険
2023-08-21 15:00:00,8月21日 15時時点,73256,28.7,33.61666666666667,132.48,長浜,厳重警戒
2023-08-21 15:00:00,8月21日 15時時点,73276,30.2,33.663333333333334,132.895,久万,厳重警戒
2023-08-21 15:00:00,8月21日 15時時点,73306,29.0,33.50833333333333,132.535,大洲,厳重警戒
2023-08-21 15:00:00,8月21日 15時時点,73341,30.7,33.446666666666665,132.25666666666666,瀬戸,厳重警戒
2023-08-21 15:00:00,8月21日 15時時点,73406,29.9,33.36666666666667,132.50333333333333,宇和,厳重警戒
2023-08-21 15:00:00,8月21日 15時時点,73442,32.1,33.22666666666667,132.55166666666668,宇和島,危険
2023-08-21 15:00:00,8月21日 15時時点,73446,31.4,33.25333333333333,132.675,近永,危険
2023-08-21 15:00:00,8月21日 15時時点,73516,31.6,32.96333333333333,132.57,御荘,危険
2023-08-21 15:00:00,8月21日 15時時点,74056,26.9,33.765,133.33833333333334,本川,警戒
2023-08-21 15:00:00,8月21日 15時時点,74071,30.7,33.75333333333333,133.575,本山,厳重警戒
2023-08-21 15:00:00,8月21日 15時時点,74136,28.8,33.69833333333333,133.875,大栃,厳重警戒
2023-08-21 15:00:00,8月21日 15時時点,74182,28.9,33.56666666666667,133.54833333333335,高知,厳重警戒
2023-08-21 15:00:00,8月21日 15時時点,74187,28.4,33.59,133.64333333333335,後免,厳重警戒
2023-08-21 15:00:00,8月21日 15時時点,74271,32.0,33.48833333333334,133.93333333333334,安芸,危険
2023-08-21 15:00:00,8月21日 15時時点,74296,29.3,33.39,132.92166666666665,梼原,厳重警戒
2023-08-21 15:00:00,8月21日 15時時点,74311,31.1,33.385,133.27666666666667,須崎,危険
2023-08-21 15:00:00,8月21日 15時時点,74361,31.1,33.20666666666666,133.12833333333333,窪川,危険
2023-08-21 15:00:00,8月21日 15時時点,74372,30.1,33.251666666666665,134.17666666666668,室戸岬,厳重警戒
2023-08-21 15:00:00,8月21日 15時時点,74381,31.5,33.17,132.79166666666666,江川崎,危険
2023-08-21 15:00:00,8月21日 15時時点,74436,31.0,33.07833333333333,133.10166666666666,佐賀,危険
2023-08-21 15:00:00,8月21日 15時時点,74447,31.8,32.92,132.695,宿毛,危険
2023-08-21 15:00:00,8月21日 15時時点,74456,31.0,32.99,132.92,中村,危険
2023-08-21 15:00:00,8月21日 15時時点,74516,31.7,32.721666666666664,133.01,清水,危険
2023-08-21 15:00:00,8月21日 15時時点,82046,31.4,33.80833333333333,130.53833333333333,宗像,危険
2023-08-21 15:00:00,8月21日 15時時点,82056,32.4,33.85166666666667,130.74333333333334,八幡,危険
2023-08-21 15:00:00,8月21日 15時時点,82101,31.2,33.71333333333333,130.975,行橋,危険
2023-08-21 15:00:00,8月21日 15時時点,82136,31.9,33.651666666666664,130.69333333333333,飯塚,危険
2023-08-21 15:00:00,8月21日 15時時点,82171,32.3,33.56,130.19,前原,危険
2023-08-21 15:00:00,8月21日 15時時点,82182,32.5,33.58166666666666,130.375,福岡,危険
2023-08-21 15:00:00,8月21日 15時時点,82191,30.0,33.49666666666667,130.49,太宰府,厳重警戒
2023-08-21 15:00:00,8月21日 15時時点,82206,31.8,33.55833333333333,130.855,添田,危険
2023-08-21 15:00:00,8月21日 15時時点,82261,28.0,33.406666666666666,130.695,朝倉,厳重警戒
2023-08-21 15:00:00,8月21日 15時時点,82306,30.0,33.303333333333335,130.49333333333334,久留米,厳重警戒
2023-08-21 15:00:00,8月21日 15時時点,82317,27.7,33.225,130.645,黒木,警戒
2023-08-21 15:00:00,8月21日 15時時点,82361,31.2,33.00666666666667,130.46666666666667,大牟田,危険
2023-08-21 15:00:00,8月21日 15時時点,83021,31.2,33.678333333333335,131.575,国見,危険
2023-08-21 15:00:00,8月21日 15時時点,83051,31.8,33.586666666666666,131.245,中津,危険
2023-08-21 15:00:00,8月21日 15時時点,83061,33.1,33.57,131.43333333333334,豊後高田,危険
2023-08-21 15:00:00,8月21日 15時時点,83106,31.6,33.42,131.31666666666666,院内,危険
2023-08-21 15:00:00,8月21日 15時時点,83121,31.1,33.416666666666664,131.59666666666666,杵築,危険
2023-08-21 15:00:00,8月21日 15時時点,83137,28.9,33.321666666666665,130.92833333333334,日田,厳重警戒
2023-08-21 15:00:00,8月21日 15時時点,83191,32.3,33.291666666666664,131.155,玖珠,危険
2023-08-21 15:00:00,8月21日 15時時点,83201,30.1,33.25333333333333,131.34666666666666,湯布院,厳重警戒
2023-08-21 15:00:00,8月21日 15時時点,83216,31.9,33.235,131.61833333333334,大分,危険
2023-08-21 15:00:00,8月21日 15時時点,83341,32.3,33.065,131.63166666666666,犬飼,危険
2023-08-21 15:00:00,8月21日 15時時点,83371,32.1,32.973333333333336,131.39833333333334,竹田,危険
2023-08-21 15:00:00,8月21日 15時時点,83401,31.6,32.95,131.90166666666667,佐伯,危険
2023-08-21 15:00:00,8月21日 15時時点,83431,31.1,32.845,131.675,宇目,危険
2023-08-21 15:00:00,8月21日 15時時点,83476,31.7,32.795,131.92333333333335,蒲江,危険
2023-08-21 15:00:00,8月21日 15時時点,84012,30.0,34.69833333333333,129.445,鰐浦,厳重警戒
2023-08-21 15:00:00,8月21日 15時時点,84072,31.7,34.196666666666665,129.29166666666666,厳原,危険
2023-08-21 15:00:00,8月21日 15時時点,84121,30.4,33.8,129.72166666666666,芦辺,厳重警戒
2023-08-21 15:00:00,8月21日 15時時点,84171,30.7,33.36,129.55,平戸,厳重警戒
2023-08-21 15:00:00,8月21日 15時時点,84183,30.0,33.34166666666667,129.71166666666667,松浦,厳重警戒
2023-08-21 15:00:00,8月21日 15時時点,84266,31.1,33.15833333333333,129.72666666666666,佐世保,危険
2023-08-21 15:00:00,8月21日 15時時点,84306,30.9,33.013333333333335,129.65166666666667,西海,厳重警戒
2023-08-21 15:00:00,8月21日 15時時点,84341,31.5,32.98166666666667,129.11833333333334,有川,危険
2023-08-21 15:00:00,8月21日 15時時点,84496,31.4,32.733333333333334,129.86666666666667,長崎,危険
2023-08-21 15:00:00,8月21日 15時時点,84519,28.8,32.736666666666665,130.26166666666666,雲仙岳,厳重警戒
2023-08-21 15:00:00,8月21日 15時時点,84523,32.4,32.76,130.36166666666668,島原,危険
2023-08-21 15:00:00,8月21日 15時時点,84536,31.2,32.693333333333335,128.82666666666665,福江,危険
2023-08-21 15:00:00,8月21日 15時時点,84561,32.4,32.611666666666665,130.19333333333333,口之津,危険
2023-08-21 15:00:00,8月21日 15時時点,84597,32.0,32.58166666666666,129.77666666666667,脇岬,危険
2023-08-21 15:00:00,8月21日 15時時点,85033,32.9,33.458333333333336,129.955,唐津,危険
2023-08-21 15:00:00,8月21日 15時時点,85116,30.9,33.266666666666666,129.87833333333333,伊万里,厳重警戒
2023-08-21 15:00:00,8月21日 15時時点,85142,31.2,33.265,130.305,佐賀,危険
2023-08-21 15:00:00,8月21日 15時時点,85161,31.9,33.11666666666667,129.995,嬉野,危険
2023-08-21 15:00:00,8月21日 15時時点,85166,32.9,33.18333333333333,130.14833333333334,白石,危険
2023-08-21 15:00:00,8月21日 15時時点,86006,27.2,33.115,130.69166666666666,鹿北,警戒
2023-08-21 15:00:00,8月21日 15時時点,86066,30.3,33.10333333333333,131.06666666666666,南小国,厳重警戒
2023-08-21 15:00:00,8月21日 15時時点,86086,32.4,32.915,130.51166666666666,岱明,危険
2023-08-21 15:00:00,8月21日 15時時点,86101,31.0,32.945,130.78166666666667,菊池,危険
2023-08-21 15:00:00,8月21日 15時時点,86111,27.4,32.946666666666665,131.04,阿蘇乙姫,警戒
2023-08-21 15:00:00,8月21日 15時時点,86141,31.1,32.81333333333333,130.70666666666668,熊本,危険
2023-08-21 15:00:00,8月21日 15時時点,86157,28.5,32.83166666666666,131.01333333333332,南阿蘇,厳重警戒
2023-08-21 15:00:00,8月21日 15時時点,86161,29.0,32.821666666666665,131.125,高森,厳重警戒
2023-08-21 15:00:00,8月21日 15時時点,86216,31.8,32.611666666666665,130.47833333333332,三角,危険
2023-08-21 15:00:00,8月21日 15時時点,86236,32.7,32.67166666666667,130.81666666666666,甲佐,危険
2023-08-21 15:00:00,8月21日 15時時点,86271,31.9,32.515,130.44666666666666,松島,危険
2023-08-21 15:00:00,8月21日 15時時点,86316,32.1,32.468333333333334,130.18,本渡,危険
2023-08-21 15:00:00,8月21日 15時時点,86336,32.6,32.473333333333336,130.60666666666665,八代,危険
2023-08-21 15:00:00,8月21日 15時時点,86451,31.1,32.205,130.40666666666667,水俣,危険
2023-08-21 15:00:00,8月21日 15時時点,86467,31.3,32.21666666666667,130.755,人吉,危険
2023-08-21 15:00:00,8月21日 15時時点,86477,30.9,32.225,130.905,上,厳重警戒
2023-08-21 15:00:00,8月21日 15時時点,86491,32.0,32.196666666666665,130.02666666666667,牛深,危険
2023-08-21 15:00:00,8月21日 15時時点,87041,30.2,32.711666666666666,131.29,高千穂,厳重警戒
2023-08-21 15:00:00,8月21日 15時時点,87066,31.3,32.711666666666666,131.82,古江,危険
2023-08-21 15:00:00,8月21日 15時時点,87071,29.3,32.64333333333333,131.15666666666667,鞍岡,厳重警戒
2023-08-21 15:00:00,8月21日 15時時点,87141,31.7,32.58166666666666,131.65666666666667,延岡,危険
2023-08-21 15:00:00,8月21日 15時時点,87181,31.3,32.40833333333333,131.6,日向,危険
2023-08-21 15:00:00,8月21日 15時時点,87206,30.6,32.385,131.33166666666668,神門,厳重警戒
2023-08-21 15:00:00,8月21日 15時時点,87231,30.3,32.24,131.15166666666667,西米良,厳重警戒
2023-08-21 15:00:00,8月21日 15時時点,87293,31.4,32.123333333333335,131.475,高鍋,危険
2023-08-21 15:00:00,8月21日 15時時点,87301,31.0,32.04666666666667,130.81,加久藤,危険
2023-08-21 15:00:00,8月21日 15時時点,87331,30.7,32.06333333333333,131.41333333333333,西都,厳重警戒
2023-08-21 15:00:00,8月21日 15時時点,87352,30.0,32.0,130.95333333333335,小林,厳重警戒
2023-08-21 15:00:00,8月21日 15時時点,87376,31.3,31.938333333333333,131.41333333333333,宮崎,危険
2023-08-21 15:00:00,8月21日 15時時点,87406,30.5,31.843333333333334,131.30833333333334,田野,厳重警戒
2023-08-21 15:00:00,8月21日 15時時点,87426,31.4,31.73,131.08166666666668,都城,危険
2023-08-21 15:00:00,8月21日 15時時点,87492,32.1,31.578333333333333,131.40666666666667,油津,危険
2023-08-21 15:00:00,8月21日 15時時点,87501,30.6,31.465,131.22,串間,厳重警戒
2023-08-21 15:00:00,8月21日 15時時点,88061,31.2,32.026666666666664,130.2,阿久根,危険
2023-08-21 15:00:00,8月21日 15時時点,88081,30.7,32.04666666666667,130.62666666666667,大口,厳重警戒
2023-08-21 15:00:00,8月21日 15時時点,88107,32.4,31.916666666666668,130.455,さつま柏原,危険
2023-08-21 15:00:00,8月21日 15時時点,88131,31.6,31.835,129.86666666666667,中甑,危険
2023-08-21 15:00:00,8月21日 15時時点,88151,31.8,31.833333333333332,130.315,川内,危険
2023-08-21 15:00:00,8月21日 15時時点,88261,31.4,31.668333333333333,130.32833333333335,東市来,危険
2023-08-21 15:00:00,8月21日 15時時点,88286,26.8,31.661666666666665,130.84333333333333,牧之原,警戒
2023-08-21 15:00:00,8月21日 15時時点,88317,31.4,31.555,130.54666666666665,鹿児島,危険
2023-08-21 15:00:00,8月21日 15時時点,88331,27.3,31.588333333333335,130.855,輝北,警戒
2023-08-21 15:00:00,8月21日 15時時点,88371,31.6,31.415,130.325,加世田,危険
2023-08-21 15:00:00,8月21日 15時時点,88406,31.0,31.47833333333333,131.095,志布志,危険
2023-08-21 15:00:00,8月21日 15時時点,88432,31.2,31.386666666666667,130.54,喜入,危険
2023-08-21 15:00:00,8月21日 15時時点,88442,31.1,31.391666666666666,130.86333333333334,鹿屋,危険
2023-08-21 15:00:00,8月21日 15時時点,88447,31.1,31.34,130.93833333333333,肝付前田,危険
2023-08-21 15:00:00,8月21日 15時時点,88466,31.1,31.27166666666667,130.29166666666666,枕崎,危険
2023-08-21 15:00:00,8月21日 15時時点,88486,31.8,31.25,130.63666666666666,指宿,危険
2023-08-21 15:00:00,8月21日 15時時点,88506,31.4,31.276666666666667,131.055,内之浦,危険
2023-08-21 15:00:00,8月21日 15時時点,88536,29.8,31.198333333333334,130.84333333333333,田代,厳重警戒
2023-08-21 15:00:00,8月21日 15時時点,88612,31.1,30.72,130.98166666666665,種子島,危険
2023-08-21 15:00:00,8月21日 15時時点,88666,32.2,30.406666666666666,130.90166666666667,上中,危険
2023-08-21 15:00:00,8月21日 15時時点,88686,30.0,30.385,130.65833333333333,屋久島,厳重警戒
2023-08-21 15:00:00,8月21日 15時時点,88706,31.9,30.235,130.555,尾之間,危険
2023-08-21 15:00:00,8月21日 15時時点,88736,28.7,29.84,129.86666666666667,中之島,厳重警戒
2023-08-21 15:00:00,8月21日 15時時点,88836,28.0,28.378333333333334,129.495,名瀬,厳重警戒
2023-08-21 15:00:00,8月21日 15時時点,88901,30.3,28.143333333333334,129.315,古仁屋,厳重警戒
2023-08-21 15:00:00,8月21日 15時時点,88956,30.5,27.676666666666666,128.97333333333333,伊仙,厳重警戒
2023-08-21 15:00:00,8月21日 15時時点,88971,29.3,27.431666666666665,128.705,沖永良部,厳重警戒
2023-08-21 15:00:00,8月21日 15時時点,91011,30.6,26.948333333333334,127.94,伊是名,厳重警戒
2023-08-21 15:00:00,8月21日 15時時点,91021,29.8,26.835,128.27166666666668,奥,厳重警戒
2023-08-21 15:00:00,8月21日 15時時点,91107,30.2,26.593333333333334,127.965,名護,厳重警戒
2023-08-21 15:00:00,8月21日 15時時点,91146,31.9,26.336666666666666,126.80333333333333,久米島,危険
2023-08-21 15:00:00,8月21日 15時時点,91166,29.9,26.363333333333333,127.97166666666666,宮城島,厳重警戒
2023-08-21 15:00:00,8月21日 15時時点,91181,30.1,26.21,127.36333333333333,渡嘉敷,厳重警戒
2023-08-21 15:00:00,8月21日 15時時点,91197,31.3,26.206666666666667,127.68666666666667,那覇,危険
2023-08-21 15:00:00,8月21日 15時時点,91241,30.1,26.153333333333332,127.765,糸数,厳重警戒
2023-08-21 15:00:00,8月21日 15時時点,92011,29.8,25.828333333333333,131.22833333333332,南大東,厳重警戒
2023-08-21 15:00:00,8月21日 15時時点,93041,31.5,24.793333333333333,125.27833333333334,宮古島,危険
2023-08-21 15:00:00,8月21日 15時時点,94001,31.6,24.506666666666668,124.28,伊原間,危険
2023-08-21 15:00:00,8月21日 15時時点,94017,29.2,24.466666666666665,123.01,与那国島,厳重警戒
2023-08-21 15:00:00,8月21日 15時時点,94062,31.5,24.426666666666666,123.765,西表島,危険
2023-08-21 15:00:00,8月21日 15時時点,94081,31.0,24.336666666666666,124.16333333333333,石垣島,危険
2023-08-21 15:00:00,8月21日 15時時点,94101,30.4,24.265,123.87166666666667,大原,厳重警戒
2023-08-21 15:00:00,8月21日 15時時点,94116,30.7,24.055,123.76666666666667,波照間,厳重警戒
