date_dt,date_popup,amdno,wbgt,lat,lon,kjName,guideline
2023-08-24 05:00:00,8月24日 5時時点,11001,23.1,45.52,141.935,宗谷岬,注意
2023-08-24 05:00:00,8月24日 5時時点,11016,23.8,45.415,141.67833333333334,稚内,注意
2023-08-24 05:00:00,8月24日 5時時点,11046,25.0,45.305,141.045,礼文,警戒
2023-08-24 05:00:00,8月24日 5時時点,11076,21.9,45.335,142.17,浜鬼志別,注意
2023-08-24 05:00:00,8月24日 5時時点,11121,21.4,45.248333333333335,141.85166666666666,沼川,注意
2023-08-24 05:00:00,8月24日 5時時点,11151,24.4,45.178333333333335,141.13833333333332,沓形,注意
2023-08-24 05:00:00,8月24日 5時時点,11176,22.0,45.10166666666667,141.78,豊富,注意
2023-08-24 05:00:00,8月24日 5時時点,11206,22.5,45.125,142.35,浜頓別,注意
2023-08-24 05:00:00,8月24日 5時時点,11276,21.2,44.965,142.28,中頓別,注意
2023-08-24 05:00:00,8月24日 5時時点,11291,23.5,44.94,142.585,北見枝幸,注意
2023-08-24 05:00:00,8月24日 5時時点,11316,20.5,44.84166666666667,142.48,歌登,ほぼ安全
2023-08-24 05:00:00,8月24日 5時時点,12011,20.9,44.82833333333333,142.07666666666665,中川,ほぼ安全
2023-08-24 05:00:00,8月24日 5時時点,12041,22.2,44.72666666666667,142.265,音威子府,注意
2023-08-24 05:00:00,8月24日 5時時点,12141,22.3,44.48,142.34166666666667,美深,注意
2023-08-24 05:00:00,8月24日 5時時点,12181,22.2,44.37,142.45666666666668,名寄,注意
2023-08-24 05:00:00,8月24日 5時時点,12231,21.4,44.295,142.63666666666666,下川,注意
2023-08-24 05:00:00,8月24日 5時時点,12261,22.7,44.18666666666667,142.41666666666666,士別,注意
2023-08-24 05:00:00,8月24日 5時時点,12266,22.5,44.11833333333333,142.595,朝日,注意
2023-08-24 05:00:00,8月24日 5時時点,12301,22.6,44.028333333333336,142.41,和寒,注意
2023-08-24 05:00:00,8月24日 5時時点,12386,23.0,43.87,142.26,江丹別,注意
2023-08-24 05:00:00,8月24日 5時時点,12396,22.5,43.87,142.47,比布,注意
2023-08-24 05:00:00,8月24日 5時時点,12411,20.7,43.846666666666664,142.75333333333333,上川,ほぼ安全
2023-08-24 05:00:00,8月24日 5時時点,12442,24.1,43.75666666666667,142.37166666666667,旭川,注意
2023-08-24 05:00:00,8月24日 5時時点,12451,23.8,43.70166666666667,142.50833333333333,東川,注意
2023-08-24 05:00:00,8月24日 5時時点,12512,22.8,43.64333333333333,142.58166666666668,志比内,注意
2023-08-24 05:00:00,8月24日 5時時点,12551,21.6,43.58833333333333,142.49333333333334,美瑛,注意
2023-08-24 05:00:00,8月24日 5時時点,12596,23.5,43.455,142.465,上富良野,注意
2023-08-24 05:00:00,8月24日 5時時点,12626,22.4,43.333333333333336,142.4,富良野,注意
2023-08-24 05:00:00,8月24日 5時時点,12632,22.3,43.30166666666667,142.52166666666668,麓郷,注意
2023-08-24 05:00:00,8月24日 5時時点,12691,21.9,43.16833333333334,142.56833333333333,幾寅,注意
2023-08-24 05:00:00,8月24日 5時時点,12746,21.6,42.97833333333333,142.395,占冠,注意
2023-08-24 05:00:00,8月24日 5時時点,15041,19.5,44.281666666666666,142.16166666666666,朱鞠内,ほぼ安全
2023-08-24 05:00:00,8月24日 5時時点,15076,22.3,44.01,142.16,幌加内,注意
2023-08-24 05:00:00,8月24日 5時時点,13061,21.6,44.89333333333333,141.76166666666666,天塩,注意
2023-08-24 05:00:00,8月24日 5時時点,13086,22.1,44.718333333333334,141.80666666666667,遠別,注意
2023-08-24 05:00:00,8月24日 5時時点,13121,22.4,44.52333333333333,141.77,初山別,注意
2023-08-24 05:00:00,8月24日 5時時点,13146,24.6,44.428333333333335,141.42166666666665,焼尻,注意
2023-08-24 05:00:00,8月24日 5時時点,13181,23.6,44.36333333333334,141.7,羽幌,注意
2023-08-24 05:00:00,8月24日 5時時点,13261,21.9,44.04833333333333,141.85666666666665,達布,注意
2023-08-24 05:00:00,8月24日 5時時点,13277,24.0,43.945,141.63166666666666,留萌,注意
2023-08-24 05:00:00,8月24日 5時時点,13311,23.6,43.848333333333336,141.51,増毛,注意
2023-08-24 05:00:00,8月24日 5時時点,13321,22.4,43.85333333333333,141.76,幌糠,注意
2023-08-24 05:00:00,8月24日 5時時点,14026,25.8,43.58166666666666,141.38666666666666,浜益,警戒
2023-08-24 05:00:00,8月24日 5時時点,14071,24.4,43.39666666666667,141.43666666666667,厚田,注意
2023-08-24 05:00:00,8月24日 5時時点,14101,23.1,43.22,141.645,新篠津,注意
2023-08-24 05:00:00,8月24日 5時時点,14116,24.1,43.14833333333333,141.22166666666666,山口,注意
2023-08-24 05:00:00,8月24日 5時時点,14121,24.7,43.193333333333335,141.37,石狩,注意
2023-08-24 05:00:00,8月24日 5時時点,14136,24.7,43.11,141.60166666666666,江別,注意
2023-08-24 05:00:00,8月24日 5時時点,14163,24.4,43.06,141.32833333333335,札幌,注意
2023-08-24 05:00:00,8月24日 5時時点,14206,24.4,42.92666666666667,141.565,恵庭島松,注意
2023-08-24 05:00:00,8月24日 5時時点,14286,22.7,42.77166666666667,141.40666666666667,支笏湖畔,注意
2023-08-24 05:00:00,8月24日 5時時点,15116,22.6,43.815,141.92666666666668,石狩沼田,注意
2023-08-24 05:00:00,8月24日 5時時点,15156,22.5,43.78,141.96166666666667,秩父別,注意
2023-08-24 05:00:00,8月24日 5時時点,15161,22.6,43.718333333333334,142.07333333333332,深川,注意
2023-08-24 05:00:00,8月24日 5時時点,15231,21.7,43.595,141.73166666666665,空知吉野,注意
2023-08-24 05:00:00,8月24日 5時時点,15241,23.0,43.57,141.93833333333333,滝川,注意
2023-08-24 05:00:00,8月24日 5時時点,15251,23.4,43.52,142.19,芦別,注意
2023-08-24 05:00:00,8月24日 5時時点,15311,24.6,43.33,141.61666666666667,月形,注意
2023-08-24 05:00:00,8月24日 5時時点,15321,23.2,43.36333333333334,141.82666666666665,美唄,注意
2023-08-24 05:00:00,8月24日 5時時点,15356,23.9,43.211666666666666,141.785,岩見沢,注意
2023-08-24 05:00:00,8月24日 5時時点,15431,25.3,43.01166666666666,141.69333333333333,長沼,警戒
2023-08-24 05:00:00,8月24日 5時時点,15442,22.9,43.038333333333334,141.95666666666668,夕張,注意
2023-08-24 05:00:00,8月24日 5時時点,16026,20.9,43.27166666666667,140.56333333333333,美国,ほぼ安全
2023-08-24 05:00:00,8月24日 5時時点,16061,25.1,43.145,140.42333333333335,神恵内,警戒
2023-08-24 05:00:00,8月24日 5時時点,16076,23.1,43.181666666666665,140.75833333333333,余市,注意
2023-08-24 05:00:00,8月24日 5時時点,16091,24.1,43.181666666666665,141.015,小樽,注意
2023-08-24 05:00:00,8月24日 5時時点,16156,24.5,42.98,140.60333333333332,共和,注意
2023-08-24 05:00:00,8月24日 5時時点,16206,22.6,42.81,140.54166666666666,蘭越,注意
2023-08-24 05:00:00,8月24日 5時時点,16217,22.3,42.9,140.75666666666666,倶知安,注意
2023-08-24 05:00:00,8月24日 5時時点,16252,24.4,42.795,140.22333333333333,寿都,注意
2023-08-24 05:00:00,8月24日 5時時点,16281,21.5,42.775,140.88,真狩,注意
2023-08-24 05:00:00,8月24日 5時時点,16286,20.1,42.79333333333334,140.94833333333332,喜茂別,ほぼ安全
2023-08-24 05:00:00,8月24日 5時時点,16321,24.4,42.663333333333334,140.31,黒松内,注意
2023-08-24 05:00:00,8月24日 5時時点,17036,22.9,44.58,142.96333333333334,雄武,注意
2023-08-24 05:00:00,8月24日 5時時点,17076,22.9,44.47,143.10833333333332,興部,注意
2023-08-24 05:00:00,8月24日 5時時点,17091,21.2,44.33166666666666,142.935,西興部,注意
2023-08-24 05:00:00,8月24日 5時時点,17112,24.2,44.345,143.355,紋別,注意
2023-08-24 05:00:00,8月24日 5時時点,17166,24.3,44.21333333333333,143.61833333333334,湧別,注意
2023-08-24 05:00:00,8月24日 5時時点,17196,20.9,44.17666666666667,143.06166666666667,滝上,ほぼ安全
2023-08-24 05:00:00,8月24日 5時時点,17246,23.3,44.115,144.03666666666666,常呂,注意
2023-08-24 05:00:00,8月24日 5時時点,17306,22.9,44.053333333333335,143.54,遠軽,注意
2023-08-24 05:00:00,8月24日 5時時点,17316,22.0,44.01833333333333,143.76,佐呂間,注意
2023-08-24 05:00:00,8月24日 5時時点,17341,24.2,44.016666666666666,144.27833333333334,網走,注意
2023-08-24 05:00:00,8月24日 5時時点,17351,23.7,44.05166666666667,144.98166666666665,宇登呂,注意
2023-08-24 05:00:00,8月24日 5時時点,17482,21.0,43.865,143.15333333333334,白滝,注意
2023-08-24 05:00:00,8月24日 5時時点,17501,21.9,43.916666666666664,143.53166666666667,生田原,注意
2023-08-24 05:00:00,8月24日 5時時点,17521,22.5,43.776666666666664,143.84166666666667,北見,注意
2023-08-24 05:00:00,8月24日 5時時点,17546,24.4,43.84166666666667,144.485,小清水,注意
2023-08-24 05:00:00,8月24日 5時時点,17561,22.4,43.885,144.7,斜里,注意
2023-08-24 05:00:00,8月24日 5時時点,17596,22.4,43.74166666666667,143.45,留辺蘂,注意
2023-08-24 05:00:00,8月24日 5時時点,17607,23.3,43.70666666666666,143.64333333333335,境野,注意
2023-08-24 05:00:00,8月24日 5時時点,17631,23.9,43.77,144.17166666666665,美幌,注意
2023-08-24 05:00:00,8月24日 5時時点,17717,22.5,43.70166666666667,144.03333333333333,津別,注意
2023-08-24 05:00:00,8月24日 5時時点,18038,22.7,44.02333333333333,145.18666666666667,羅臼,注意
2023-08-24 05:00:00,8月24日 5時時点,18136,24.8,43.66166666666667,145.13166666666666,標津,注意
2023-08-24 05:00:00,8月24日 5時時点,18161,23.8,43.52,144.74666666666667,上標津,注意
2023-08-24 05:00:00,8月24日 5時時点,18171,24.7,43.54333333333334,144.97833333333332,中標津,注意
2023-08-24 05:00:00,8月24日 5時時点,18256,25.0,43.38166666666667,145.11833333333334,別海,警戒
2023-08-24 05:00:00,8月24日 5時時点,18273,24.9,43.33,145.585,根室,注意
2023-08-24 05:00:00,8月24日 5時時点,18281,23.8,43.39333333333333,145.75833333333333,納沙布,注意
2023-08-24 05:00:00,8月24日 5時時点,18311,24.3,43.221666666666664,145.22666666666666,厚床,注意
2023-08-24 05:00:00,8月24日 5時時点,19021,23.1,43.61666666666667,144.45666666666668,川湯,注意
2023-08-24 05:00:00,8月24日 5時時点,19051,23.1,43.51,144.46666666666667,弟子屈,注意
2023-08-24 05:00:00,8月24日 5時時点,19076,23.2,43.43666666666667,144.08333333333334,阿寒湖畔,注意
2023-08-24 05:00:00,8月24日 5時時点,19151,24.6,43.291666666666664,144.58666666666667,標茶,注意
2023-08-24 05:00:00,8月24日 5時時点,19191,24.1,43.23166666666667,144.325,鶴居,注意
2023-08-24 05:00:00,8月24日 5時時点,19261,23.9,43.19833333333333,144.14166666666668,中徹別,注意
2023-08-24 05:00:00,8月24日 5時時点,19311,24.3,43.12,145.11,榊町,注意
2023-08-24 05:00:00,8月24日 5時時点,19376,24.3,43.09,144.77833333333334,太田,注意
2023-08-24 05:00:00,8月24日 5時時点,19416,24.2,42.97,144.06166666666667,白糠,注意
2023-08-24 05:00:00,8月24日 5時時点,19432,23.3,42.985,144.37666666666667,釧路,注意
2023-08-24 05:00:00,8月24日 5時時点,19451,23.3,42.93833333333333,144.735,知方学,注意
2023-08-24 05:00:00,8月24日 5時時点,20146,22.6,43.471666666666664,143.75333333333333,陸別,注意
2023-08-24 05:00:00,8月24日 5時時点,20186,20.2,43.36666666666667,143.19166666666666,ぬかびら源泉郷,ほぼ安全
2023-08-24 05:00:00,8月24日 5時時点,20266,22.6,43.24166666666667,143.295,上士幌,注意
2023-08-24 05:00:00,8月24日 5時時点,20276,24.0,43.24333333333333,143.55333333333334,足寄,注意
2023-08-24 05:00:00,8月24日 5時時点,20341,23.7,43.13166666666667,143.6,本別,注意
2023-08-24 05:00:00,8月24日 5時時点,20356,21.9,43.07666666666667,142.84,新得,注意
2023-08-24 05:00:00,8月24日 5時時点,20361,22.7,43.10333333333333,142.995,鹿追,注意
2023-08-24 05:00:00,8月24日 5時時点,20371,24.0,43.05,143.18333333333334,駒場,注意
2023-08-24 05:00:00,8月24日 5時時点,20421,23.5,42.9,143.04333333333332,芽室,注意
2023-08-24 05:00:00,8月24日 5時時点,20432,24.0,42.92166666666667,143.21166666666667,帯広,注意
2023-08-24 05:00:00,8月24日 5時時点,20441,24.4,42.92,143.45833333333334,池田,注意
2023-08-24 05:00:00,8月24日 5時時点,20506,24.4,42.80833333333333,143.65666666666667,浦幌,注意
2023-08-24 05:00:00,8月24日 5時時点,20556,24.2,42.78666666666667,143.32833333333335,糠内,注意
2023-08-24 05:00:00,8月24日 5時時点,20601,22.3,42.641666666666666,143.09666666666666,上札内,注意
2023-08-24 05:00:00,8月24日 5時時点,20606,23.3,42.651666666666664,143.195,更別,注意
2023-08-24 05:00:00,8月24日 5時時点,20631,24.2,42.68666666666667,143.64666666666668,大津,注意
2023-08-24 05:00:00,8月24日 5時時点,20696,20.4,42.5,143.27333333333334,大樹,ほぼ安全
2023-08-24 05:00:00,8月24日 5時時点,20751,23.3,42.29333333333334,143.31666666666666,広尾,注意
2023-08-24 05:00:00,8月24日 5時時点,21111,22.8,42.73,141.88833333333332,厚真,注意
2023-08-24 05:00:00,8月24日 5時時点,21126,22.5,42.76166666666667,142.14333333333335,穂別,注意
2023-08-24 05:00:00,8月24日 5時時点,21161,21.0,42.67,141.07833333333335,大滝,注意
2023-08-24 05:00:00,8月24日 5時時点,21171,22.0,42.63,141.24666666666667,森野,注意
2023-08-24 05:00:00,8月24日 5時時点,21187,24.9,42.623333333333335,141.54666666666665,苫小牧,注意
2023-08-24 05:00:00,8月24日 5時時点,21226,23.9,42.59,140.64333333333335,大岸,注意
2023-08-24 05:00:00,8月24日 5時時点,21261,24.1,42.54333333333334,141.35166666666666,白老,注意
2023-08-24 05:00:00,8月24日 5時時点,21276,22.8,42.59,141.93333333333334,鵡川,注意
2023-08-24 05:00:00,8月24日 5時時点,21297,24.5,42.475,140.84833333333333,伊達,注意
2023-08-24 05:00:00,8月24日 5時時点,21312,22.2,42.458333333333336,141.11833333333334,登別,注意
2023-08-24 05:00:00,8月24日 5時時点,21323,24.9,42.31166666666667,140.975,室蘭,注意
2023-08-24 05:00:00,8月24日 5時時点,22036,22.5,42.876666666666665,142.44166666666666,日高,注意
2023-08-24 05:00:00,8月24日 5時時点,22141,23.4,42.49666666666667,142.05333333333334,日高門別,注意
2023-08-24 05:00:00,8月24日 5時時点,22156,22.2,42.54333333333334,142.33333333333334,新和,注意
2023-08-24 05:00:00,8月24日 5時時点,22241,24.5,42.343333333333334,142.36166666666668,静内,注意
2023-08-24 05:00:00,8月24日 5時時点,22291,24.8,42.245,142.66166666666666,三石,注意
2023-08-24 05:00:00,8月24日 5時時点,22306,20.8,42.223333333333336,142.94833333333332,中杵臼,ほぼ安全
2023-08-24 05:00:00,8月24日 5時時点,22327,25.4,42.16166666666667,142.77666666666667,浦河,警戒
2023-08-24 05:00:00,8月24日 5時時点,22391,25.6,41.925,143.24333333333334,えりも岬,警戒
2023-08-24 05:00:00,8月24日 5時時点,23031,24.2,42.52333333333333,140.38166666666666,長万部,注意
2023-08-24 05:00:00,8月24日 5時時点,23086,24.6,42.251666666666665,140.27166666666668,八雲,注意
2023-08-24 05:00:00,8月24日 5時時点,23166,23.0,42.06666666666667,140.58833333333334,森,注意
2023-08-24 05:00:00,8月24日 5時時点,23206,23.6,41.905,140.97,川汲,注意
2023-08-24 05:00:00,8月24日 5時時点,23226,24.9,41.88666666666667,140.65333333333334,北斗,注意
2023-08-24 05:00:00,8月24日 5時時点,23232,25.0,41.81666666666667,140.75333333333333,函館,警戒
2023-08-24 05:00:00,8月24日 5時時点,23326,24.3,41.68,140.43666666666667,木古内,注意
2023-08-24 05:00:00,8月24日 5時時点,23376,26.1,41.42333333333333,140.08666666666667,松前,警戒
2023-08-24 05:00:00,8月24日 5時時点,24141,25.2,42.12833333333333,139.985,熊石,警戒
2023-08-24 05:00:00,8月24日 5時時点,24041,24.9,42.45,139.85166666666666,せたな,注意
2023-08-24 05:00:00,8月24日 5時時点,24051,24.9,42.428333333333335,140.00833333333333,今金,注意
2023-08-24 05:00:00,8月24日 5時時点,24101,26.7,42.248333333333335,139.55666666666667,奥尻,警戒
2023-08-24 05:00:00,8月24日 5時時点,24201,22.4,41.93,140.31166666666667,鶉,注意
2023-08-24 05:00:00,8月24日 5時時点,24217,25.0,41.86666666666667,140.12333333333333,江差,警戒
2023-08-24 05:00:00,8月24日 5時時点,31001,25.6,41.526666666666664,140.91166666666666,大間,警戒
2023-08-24 05:00:00,8月24日 5時時点,31111,25.3,41.28333333333333,141.21,むつ,警戒
2023-08-24 05:00:00,8月24日 5時時点,31121,25.1,41.235,141.39666666666668,小田野沢,警戒
2023-08-24 05:00:00,8月24日 5時時点,31136,24.5,41.18,140.48166666666665,今別,注意
2023-08-24 05:00:00,8月24日 5時時点,31156,23.7,41.145,140.82166666666666,脇野沢,注意
2023-08-24 05:00:00,8月24日 5時時点,31186,25.9,41.056666666666665,140.34666666666666,市浦,警戒
2023-08-24 05:00:00,8月24日 5時時点,31201,24.0,41.045,140.63333333333333,蟹田,注意
2023-08-24 05:00:00,8月24日 5時時点,31296,26.3,40.80833333333333,140.45833333333334,五所川原,警戒
2023-08-24 05:00:00,8月24日 5時時点,31312,26.0,40.821666666666665,140.76833333333335,青森,警戒
2023-08-24 05:00:00,8月24日 5時時点,31332,24.3,40.885,141.16,野辺地,注意
2023-08-24 05:00:00,8月24日 5時時点,31336,23.3,40.885,141.27166666666668,六ケ所,注意
2023-08-24 05:00:00,8月24日 5時時点,31366,25.6,40.776666666666664,140.205,鰺ケ沢,警戒
2023-08-24 05:00:00,8月24日 5時時点,31436,25.4,40.645,139.93166666666667,深浦,警戒
2023-08-24 05:00:00,8月24日 5時時点,31461,25.6,40.611666666666665,140.455,弘前,警戒
2023-08-24 05:00:00,8月24日 5時時点,31466,24.6,40.666666666666664,140.585,黒石,注意
2023-08-24 05:00:00,8月24日 5時時点,31482,21.5,40.64833333333333,140.84833333333333,酸ケ湯,注意
2023-08-24 05:00:00,8月24日 5時時点,31506,26.2,40.675,141.375,三沢,警戒
2023-08-24 05:00:00,8月24日 5時時点,31586,25.7,40.60666666666667,141.23333333333332,十和田,警戒
2023-08-24 05:00:00,8月24日 5時時点,31602,25.8,40.526666666666664,141.52166666666668,八戸,警戒
2023-08-24 05:00:00,8月24日 5時時点,31646,24.7,40.48166666666667,140.62,碇ケ関,注意
2023-08-24 05:00:00,8月24日 5時時点,31662,22.0,40.42666666666667,140.89833333333334,休屋,注意
2023-08-24 05:00:00,8月24日 5時時点,31721,25.3,40.38333333333333,141.25666666666666,三戸,警戒
2023-08-24 05:00:00,8月24日 5時時点,32056,26.4,40.413333333333334,139.94833333333332,八森,警戒
2023-08-24 05:00:00,8月24日 5時時点,32111,25.2,40.19833333333333,140.03166666666667,能代,警戒
2023-08-24 05:00:00,8月24日 5時時点,32126,25.4,40.22666666666667,140.37166666666667,鷹巣,警戒
2023-08-24 05:00:00,8月24日 5時時点,32136,24.9,40.251666666666665,140.505,大館,注意
2023-08-24 05:00:00,8月24日 5時時点,32146,22.4,40.215,140.78666666666666,鹿角,注意
2023-08-24 05:00:00,8月24日 5時時点,32206,22.3,40.12,140.84,湯瀬,注意
2023-08-24 05:00:00,8月24日 5時時点,32266,21.9,40.013333333333335,140.80166666666668,八幡平,注意
2023-08-24 05:00:00,8月24日 5時時点,32286,27.5,39.91166666666667,139.9,男鹿,警戒
2023-08-24 05:00:00,8月24日 5時時点,32287,25.4,40.0,139.95,大潟,警戒
2023-08-24 05:00:00,8月24日 5時時点,32296,24.9,39.93833333333333,140.115,五城目,注意
2023-08-24 05:00:00,8月24日 5時時点,32311,22.9,39.99333333333333,140.40333333333334,阿仁合,注意
2023-08-24 05:00:00,8月24日 5時時点,32402,26.1,39.71666666666667,140.09833333333333,秋田,警戒
2023-08-24 05:00:00,8月24日 5時時点,32407,25.6,39.70666666666666,140.28666666666666,岩見三内,警戒
2023-08-24 05:00:00,8月24日 5時時点,32466,24.8,39.60333333333333,140.55666666666667,角館,注意
2023-08-24 05:00:00,8月24日 5時時点,32476,25.8,39.69833333333333,140.73166666666665,田沢湖,警戒
2023-08-24 05:00:00,8月24日 5時時点,32496,23.6,39.526666666666664,140.23333333333332,大正寺,注意
2023-08-24 05:00:00,8月24日 5時時点,32551,25.1,39.49,140.495,大曲,警戒
2023-08-24 05:00:00,8月24日 5時時点,32571,25.0,39.36,140.055,本荘,警戒
2023-08-24 05:00:00,8月24日 5時時点,32581,25.0,39.305,140.28833333333333,東由利,警戒
2023-08-24 05:00:00,8月24日 5時時点,32596,26.1,39.32,140.555,横手,警戒
2023-08-24 05:00:00,8月24日 5時時点,32616,25.8,39.255,139.91333333333333,にかほ,警戒
2023-08-24 05:00:00,8月24日 5時時点,32626,23.1,39.235,140.13666666666666,矢島,注意
2023-08-24 05:00:00,8月24日 5時時点,32691,24.1,39.18666666666667,140.46333333333334,湯沢,注意
2023-08-24 05:00:00,8月24日 5時時点,32771,24.9,38.96,140.52833333333334,湯の岱,注意
2023-08-24 05:00:00,8月24日 5時時点,33006,23.4,40.403333333333336,141.7,種市,注意
2023-08-24 05:00:00,8月24日 5時時点,33026,23.0,40.325,141.46666666666667,軽米,注意
2023-08-24 05:00:00,8月24日 5時時点,33071,25.2,40.29833333333333,141.29833333333335,二戸,警戒
2023-08-24 05:00:00,8月24日 5時時点,33136,21.3,40.14833333333333,141.57166666666666,山形,注意
2023-08-24 05:00:00,8月24日 5時時点,33146,23.5,40.16833333333334,141.74833333333333,久慈,注意
2023-08-24 05:00:00,8月24日 5時時点,33166,25.5,40.10333333333333,141.05,荒屋,警戒
2023-08-24 05:00:00,8月24日 5時時点,33176,23.7,40.06,141.225,奥中山,注意
2023-08-24 05:00:00,8月24日 5時時点,33186,23.0,40.04,141.45666666666668,葛巻,注意
2023-08-24 05:00:00,8月24日 5時時点,33206,22.0,40.00333333333333,141.88333333333333,普代,注意
2023-08-24 05:00:00,8月24日 5時時点,33226,24.7,39.95166666666667,141.065,岩手松尾,注意
2023-08-24 05:00:00,8月24日 5時時点,33296,25.9,39.86833333333333,141.16666666666666,好摩,警戒
2023-08-24 05:00:00,8月24日 5時時点,33326,23.3,39.846666666666664,141.795,岩泉,注意
2023-08-24 05:00:00,8月24日 5時時点,33336,23.0,39.846666666666664,141.96333333333334,小本,注意
2023-08-24 05:00:00,8月24日 5時時点,33371,22.6,39.78333333333333,141.32833333333335,薮川,注意
2023-08-24 05:00:00,8月24日 5時時点,33421,25.0,39.696666666666665,140.975,雫石,警戒
2023-08-24 05:00:00,8月24日 5時時点,33431,26.0,39.69833333333333,141.165,盛岡,警戒
2023-08-24 05:00:00,8月24日 5時時点,33441,23.0,39.65,141.35333333333332,区界,注意
2023-08-24 05:00:00,8月24日 5時時点,33472,24.2,39.64666666666667,141.965,宮古,注意
2023-08-24 05:00:00,8月24日 5時時点,33486,23.3,39.54833333333333,140.84333333333333,沢内,注意
2023-08-24 05:00:00,8月24日 5時時点,33501,25.8,39.54666666666667,141.12666666666667,紫波,警戒
2023-08-24 05:00:00,8月24日 5時時点,33526,22.9,39.598333333333336,141.68166666666667,川井,注意
2023-08-24 05:00:00,8月24日 5時時点,33581,26.0,39.47,141.27833333333334,大迫,警戒
2023-08-24 05:00:00,8月24日 5時時点,33616,24.1,39.45,141.95666666666668,山田,注意
2023-08-24 05:00:00,8月24日 5時時点,33631,23.4,39.31,140.77666666666667,湯田,注意
2023-08-24 05:00:00,8月24日 5時時点,33671,24.3,39.33833333333333,141.54333333333332,遠野,注意
2023-08-24 05:00:00,8月24日 5時時点,33716,26.4,39.288333333333334,141.11,北上,警戒
2023-08-24 05:00:00,8月24日 5時時点,33751,25.8,39.27,141.87833333333333,釜石,警戒
2023-08-24 05:00:00,8月24日 5時時点,33776,25.8,39.14,141.06333333333333,若柳,警戒
2023-08-24 05:00:00,8月24日 5時時点,33781,26.3,39.18333333333333,141.16166666666666,江刺,警戒
2023-08-24 05:00:00,8月24日 5時時点,33801,25.4,39.141666666666666,141.57333333333332,住田,警戒
2023-08-24 05:00:00,8月24日 5時時点,33877,25.5,39.06333333333333,141.71333333333334,大船渡,警戒
2023-08-24 05:00:00,8月24日 5時時点,33911,26.4,38.93333333333333,141.125,一関,警戒
2023-08-24 05:00:00,8月24日 5時時点,33921,24.4,38.92166666666667,141.33,千厩,注意
2023-08-24 05:00:00,8月24日 5時時点,34012,23.0,38.913333333333334,140.82833333333335,駒ノ湯,注意
2023-08-24 05:00:00,8月24日 5時時点,34026,24.7,38.906666666666666,141.55666666666667,気仙沼,注意
2023-08-24 05:00:00,8月24日 5時時点,34096,25.5,38.74333333333333,140.76,川渡,警戒
2023-08-24 05:00:00,8月24日 5時時点,34111,25.2,38.735,141.005,築館,警戒
2023-08-24 05:00:00,8月24日 5時時点,34171,25.5,38.626666666666665,141.18833333333333,米山,警戒
2023-08-24 05:00:00,8月24日 5時時点,34186,25.2,38.681666666666665,141.44833333333332,志津川,警戒
2023-08-24 05:00:00,8月24日 5時時点,34216,25.0,38.598333333333336,140.91166666666666,古川,警戒
2023-08-24 05:00:00,8月24日 5時時点,34266,25.1,38.473333333333336,140.88833333333332,大衡,警戒
2023-08-24 05:00:00,8月24日 5時時点,34276,25.0,38.46,141.09166666666667,鹿島台,警戒
2023-08-24 05:00:00,8月24日 5時時点,34292,26.1,38.42666666666667,141.29833333333335,石巻,警戒
2023-08-24 05:00:00,8月24日 5時時点,34296,26.6,38.446666666666665,141.45,女川,警戒
2023-08-24 05:00:00,8月24日 5時時点,34311,23.7,38.303333333333335,140.63666666666666,新川,注意
2023-08-24 05:00:00,8月24日 5時時点,34331,25.2,38.33833333333333,141.01333333333332,塩釜,警戒
2023-08-24 05:00:00,8月24日 5時時点,34392,25.2,38.26166666666666,140.89666666666668,仙台,警戒
2023-08-24 05:00:00,8月24日 5時時点,34461,26.2,38.015,140.61166666666668,白石,警戒
2023-08-24 05:00:00,8月24日 5時時点,34462,23.7,38.126666666666665,140.68,蔵王,注意
2023-08-24 05:00:00,8月24日 5時時点,34471,24.1,38.025,140.85833333333332,亘理,注意
2023-08-24 05:00:00,8月24日 5時時点,34506,23.3,37.931666666666665,140.77833333333334,丸森,注意
2023-08-24 05:00:00,8月24日 5時時点,35002,26.6,39.18333333333333,139.54333333333332,飛島,警戒
2023-08-24 05:00:00,8月24日 5時時点,35052,24.7,38.90833333333333,139.84333333333333,酒田,注意
2023-08-24 05:00:00,8月24日 5時時点,35071,22.9,38.91833333333334,140.2,差首鍋,注意
2023-08-24 05:00:00,8月24日 5時時点,35116,23.3,38.87833333333333,140.33166666666668,金山,注意
2023-08-24 05:00:00,8月24日 5時時点,35141,25.5,38.735,139.82833333333335,鶴岡,警戒
2023-08-24 05:00:00,8月24日 5時時点,35146,25.7,38.8,139.97333333333333,狩川,警戒
2023-08-24 05:00:00,8月24日 5時時点,35162,24.7,38.75666666666667,140.31166666666667,新庄,注意
2023-08-24 05:00:00,8月24日 5時時点,35176,23.5,38.75833333333333,140.51666666666668,向町,注意
2023-08-24 05:00:00,8月24日 5時時点,35216,21.7,38.60666666666667,140.16333333333333,肘折,注意
2023-08-24 05:00:00,8月24日 5時時点,35231,26.0,38.608333333333334,140.41166666666666,尾花沢,警戒
2023-08-24 05:00:00,8月24日 5時時点,35246,26.2,38.56666666666667,139.55166666666668,鼠ケ関,警戒
2023-08-24 05:00:00,8月24日 5時時点,35332,24.6,38.46,140.34833333333333,村山,注意
2023-08-24 05:00:00,8月24日 5時時点,35361,20.1,38.39,139.99333333333334,大井沢,ほぼ安全
2023-08-24 05:00:00,8月24日 5時時点,35376,22.6,38.37,140.19166666666666,左沢,注意
2023-08-24 05:00:00,8月24日 5時時点,35426,24.1,38.255,140.345,山形,注意
2023-08-24 05:00:00,8月24日 5時時点,35456,22.3,38.105,140.015,長井,注意
2023-08-24 05:00:00,8月24日 5時時点,35486,21.2,38.07833333333333,139.735,小国,注意
2023-08-24 05:00:00,8月24日 5時時点,35511,23.3,38.00333333333333,140.20666666666668,高畠,注意
2023-08-24 05:00:00,8月24日 5時時点,35541,21.7,37.99,139.95333333333335,高峰,注意
2023-08-24 05:00:00,8月24日 5時時点,35552,23.6,37.91166666666667,140.14333333333335,米沢,注意
2023-08-24 05:00:00,8月24日 5時時点,36056,24.1,37.891666666666666,140.43666666666667,茂庭,注意
2023-08-24 05:00:00,8月24日 5時時点,36066,26.0,37.85166666666667,140.58833333333334,梁川,警戒
2023-08-24 05:00:00,8月24日 5時時点,36106,22.0,37.721666666666664,140.05833333333334,桧原,注意
2023-08-24 05:00:00,8月24日 5時時点,36127,25.2,37.75833333333333,140.47,福島,警戒
2023-08-24 05:00:00,8月24日 5時時点,36151,25.0,37.78333333333333,140.925,相馬,警戒
2023-08-24 05:00:00,8月24日 5時時点,36176,21.8,37.65833333333333,139.86333333333334,喜多方,注意
2023-08-24 05:00:00,8月24日 5時時点,36196,19.9,37.66833333333334,140.26,鷲倉,ほぼ安全
2023-08-24 05:00:00,8月24日 5時時点,36221,23.5,37.665,140.72666666666666,飯舘,注意
2023-08-24 05:00:00,8月24日 5時時点,36251,22.3,37.58833333333333,139.65666666666667,西会津,注意
2023-08-24 05:00:00,8月24日 5時時点,36276,23.0,37.55166666666667,140.10833333333332,猪苗代,注意
2023-08-24 05:00:00,8月24日 5時時点,36291,24.7,37.583333333333336,140.43,二本松,注意
2023-08-24 05:00:00,8月24日 5時時点,36342,21.4,37.473333333333336,139.52833333333334,金山,注意
2023-08-24 05:00:00,8月24日 5時時点,36361,23.5,37.48833333333334,139.91,若松,注意
2023-08-24 05:00:00,8月24日 5時時点,36391,24.6,37.435,140.57666666666665,船引,注意
2023-08-24 05:00:00,8月24日 5時時点,36411,23.6,37.49166666666667,140.965,浪江,注意
2023-08-24 05:00:00,8月24日 5時時点,36426,20.9,37.343333333333334,139.31333333333333,只見,ほぼ安全
2023-08-24 05:00:00,8月24日 5時時点,36476,24.9,37.36833333333333,140.33,郡山,注意
2023-08-24 05:00:00,8月24日 5時時点,36501,23.5,37.336666666666666,140.80833333333334,川内,注意
2023-08-24 05:00:00,8月24日 5時時点,36536,20.9,37.265,139.53666666666666,南郷,ほぼ安全
2023-08-24 05:00:00,8月24日 5時時点,36562,22.2,37.276666666666664,140.06333333333333,湯本,注意
2023-08-24 05:00:00,8月24日 5時時点,36591,24.3,37.28666666666667,140.625,小野新町,注意
2023-08-24 05:00:00,8月24日 5時時点,36611,25.9,37.233333333333334,141.0,広野,警戒
2023-08-24 05:00:00,8月24日 5時時点,36641,20.6,37.20666666666666,139.795,田島,ほぼ安全
2023-08-24 05:00:00,8月24日 5時時点,36667,24.3,37.13166666666667,140.215,白河,注意
2023-08-24 05:00:00,8月24日 5時時点,36676,25.0,37.14666666666667,140.46,石川,警戒
2023-08-24 05:00:00,8月24日 5時時点,36716,17.5,37.01,139.375,桧枝岐,ほぼ安全
2023-08-24 05:00:00,8月24日 5時時点,36821,25.0,36.93833333333333,140.40833333333333,東白川,警戒
2023-08-24 05:00:00,8月24日 5時時点,36836,23.9,36.93333333333333,140.73333333333332,山田,注意
2023-08-24 05:00:00,8月24日 5時時点,36846,25.7,36.946666666666665,140.90333333333334,小名浜,警戒
2023-08-24 05:00:00,8月24日 5時時点,40046,24.6,36.833333333333336,140.77166666666668,北茨城,注意
2023-08-24 05:00:00,8月24日 5時時点,40061,23.7,36.778333333333336,140.345,大子,注意
2023-08-24 05:00:00,8月24日 5時時点,40091,24.8,36.60666666666667,140.325,常陸大宮,注意
2023-08-24 05:00:00,8月24日 5時時点,40136,26.7,36.58,140.645,日立,警戒
2023-08-24 05:00:00,8月24日 5時時点,40191,24.8,36.395,140.24,笠間,注意
2023-08-24 05:00:00,8月24日 5時時点,40201,26.2,36.38,140.46666666666667,水戸,警戒
2023-08-24 05:00:00,8月24日 5時時点,40221,25.5,36.20166666666667,139.71666666666667,古河,警戒
2023-08-24 05:00:00,8月24日 5時時点,40231,25.3,36.281666666666666,139.98833333333334,下館,警戒
2023-08-24 05:00:00,8月24日 5時時点,40281,25.2,36.16833333333334,139.945,下妻,警戒
2023-08-24 05:00:00,8月24日 5時時点,40311,26.5,36.16833333333334,140.52666666666667,鉾田,警戒
2023-08-24 05:00:00,8月24日 5時時点,40336,25.2,36.056666666666665,140.125,つくば,警戒
2023-08-24 05:00:00,8月24日 5時時点,40341,25.9,36.10333333333333,140.22,土浦,警戒
2023-08-24 05:00:00,8月24日 5時時点,40406,25.7,35.96333333333333,140.62166666666667,鹿嶋,警戒
2023-08-24 05:00:00,8月24日 5時時点,40426,24.9,35.89,140.21166666666667,龍ケ崎,注意
2023-08-24 05:00:00,8月24日 5時時点,41011,21.8,37.123333333333335,140.035,那須高原,注意
2023-08-24 05:00:00,8月24日 5時時点,41076,23.2,36.92166666666667,139.695,五十里,注意
2023-08-24 05:00:00,8月24日 5時時点,41091,24.1,36.98166666666667,140.01833333333335,黒磯,注意
2023-08-24 05:00:00,8月24日 5時時点,41116,20.6,36.891666666666666,139.56833333333333,土呂部,ほぼ安全
2023-08-24 05:00:00,8月24日 5時時点,41141,24.5,36.84,140.035,大田原,注意
2023-08-24 05:00:00,8月24日 5時時点,41166,19.5,36.73833333333333,139.5,奥日光,ほぼ安全
2023-08-24 05:00:00,8月24日 5時時点,41172,21.9,36.75,139.615,日光東町,注意
2023-08-24 05:00:00,8月24日 5時時点,41181,24.6,36.75666666666667,139.88333333333333,塩谷,注意
2023-08-24 05:00:00,8月24日 5時時点,41247,23.7,36.641666666666666,140.11666666666667,那須烏山,注意
2023-08-24 05:00:00,8月24日 5時時点,41271,25.2,36.59166666666667,139.735,鹿沼,警戒
2023-08-24 05:00:00,8月24日 5時時点,41277,25.8,36.54833333333333,139.86833333333334,宇都宮,警戒
2023-08-24 05:00:00,8月24日 5時時点,41331,24.9,36.47666666666667,139.98666666666668,真岡,注意
2023-08-24 05:00:00,8月24日 5時時点,41361,26.1,36.36333333333334,139.57,佐野,警戒
2023-08-24 05:00:00,8月24日 5時時点,41376,25.6,36.33833333333333,139.83,小山,警戒
2023-08-24 05:00:00,8月24日 5時時点,42046,21.6,36.86333333333333,139.05833333333334,藤原,注意
2023-08-24 05:00:00,8月24日 5時時点,42091,23.3,36.77333333333333,138.965,みなかみ,注意
2023-08-24 05:00:00,8月24日 5時時点,42121,19.1,36.61666666666667,138.59166666666667,草津,ほぼ安全
2023-08-24 05:00:00,8月24日 5時時点,42146,23.6,36.66833333333334,139.02166666666668,沼田,注意
2023-08-24 05:00:00,8月24日 5時時点,42186,23.9,36.586666666666666,138.85,中之条,注意
2023-08-24 05:00:00,8月24日 5時時点,42221,19.1,36.46333333333333,138.46333333333334,田代,ほぼ安全
2023-08-24 05:00:00,8月24日 5時時点,42251,25.1,36.405,139.06,前橋,警戒
2023-08-24 05:00:00,8月24日 5時時点,42266,26.2,36.41,139.325,桐生,警戒
2023-08-24 05:00:00,8月24日 5時時点,42286,24.8,36.376666666666665,138.895,上里見,注意
2023-08-24 05:00:00,8月24日 5時時点,42302,25.8,36.33166666666666,139.165,伊勢崎,警戒
2023-08-24 05:00:00,8月24日 5時時点,42326,23.5,36.245,138.70666666666668,西野牧,注意
2023-08-24 05:00:00,8月24日 5時時点,42366,25.7,36.24,139.51333333333332,館林,警戒
2023-08-24 05:00:00,8月24日 5時時点,42396,22.4,36.108333333333334,138.89666666666668,神流,注意
2023-08-24 05:00:00,8月24日 5時時点,43051,24.3,36.105,139.18333333333334,寄居,注意
2023-08-24 05:00:00,8月24日 5時時点,43056,26.0,36.15,139.38,熊谷,警戒
2023-08-24 05:00:00,8月24日 5時時点,43126,25.4,36.086666666666666,139.635,久喜,警戒
2023-08-24 05:00:00,8月24日 5時時点,43156,23.8,35.99,139.07333333333332,秩父,注意
2023-08-24 05:00:00,8月24日 5時時点,43171,25.1,35.985,139.335,鳩山,警戒
2023-08-24 05:00:00,8月24日 5時時点,43241,26.1,35.875,139.58666666666667,さいたま,警戒
2023-08-24 05:00:00,8月24日 5時時点,43256,26.3,35.88333333333333,139.75666666666666,越谷,警戒
2023-08-24 05:00:00,8月24日 5時時点,43266,24.7,35.77333333333333,139.41333333333333,所沢,注意
2023-08-24 05:00:00,8月24日 5時時点,44046,22.0,35.791666666666664,139.05,小河内,注意
2023-08-24 05:00:00,8月24日 5時時点,44056,24.3,35.788333333333334,139.31166666666667,青梅,注意
2023-08-24 05:00:00,8月24日 5時時点,44071,25.0,35.73833333333333,139.59166666666667,練馬,警戒
2023-08-24 05:00:00,8月24日 5時時点,44112,24.6,35.666666666666664,139.31666666666666,八王子,注意
2023-08-24 05:00:00,8月24日 5時時点,44116,25.2,35.68333333333333,139.48333333333332,府中,警戒
2023-08-24 05:00:00,8月24日 5時時点,44132,26.3,35.69166666666667,139.75,東京,警戒
2023-08-24 05:00:00,8月24日 5時時点,44136,26.8,35.638333333333335,139.86333333333334,江戸川臨海,警戒
2023-08-24 05:00:00,8月24日 5時時点,44172,25.7,34.748333333333335,139.36166666666668,大島,警戒
2023-08-24 05:00:00,8月24日 5時時点,44226,24.6,34.123333333333335,139.52,三宅島,注意
2023-08-24 05:00:00,8月24日 5時時点,44263,25.6,33.12166666666667,139.77833333333334,八丈島,警戒
2023-08-24 05:00:00,8月24日 5時時点,44301,26.2,27.091666666666665,142.19,父島,警戒
2023-08-24 05:00:00,8月24日 5時時点,45061,24.9,35.86333333333333,140.11,我孫子,注意
2023-08-24 05:00:00,8月24日 5時時点,45081,25.0,35.858333333333334,140.50166666666667,香取,警戒
2023-08-24 05:00:00,8月24日 5時時点,45106,25.8,35.711666666666666,140.04333333333332,船橋,警戒
2023-08-24 05:00:00,8月24日 5時時点,45116,25.9,35.72833333333333,140.21166666666667,佐倉,警戒
2023-08-24 05:00:00,8月24日 5時時点,45147,26.3,35.73833333333333,140.85666666666665,銚子,警戒
2023-08-24 05:00:00,8月24日 5時時点,45181,25.6,35.655,140.505,横芝光,警戒
2023-08-24 05:00:00,8月24日 5時時点,45212,26.1,35.60166666666667,140.10333333333332,千葉,警戒
2023-08-24 05:00:00,8月24日 5時時点,45261,25.4,35.43666666666667,140.29333333333332,茂原,警戒
2023-08-24 05:00:00,8月24日 5時時点,45282,25.1,35.361666666666665,139.94,木更津,警戒
2023-08-24 05:00:00,8月24日 5時時点,45291,24.5,35.39666666666667,140.14833333333334,牛久,注意
2023-08-24 05:00:00,8月24日 5時時点,45326,25.1,35.235,140.09833333333333,坂畑,警戒
2023-08-24 05:00:00,8月24日 5時時点,45361,27.0,35.111666666666665,140.1,鴨川,警戒
2023-08-24 05:00:00,8月24日 5時時点,45371,26.9,35.15,140.31166666666667,勝浦,警戒
2023-08-24 05:00:00,8月24日 5時時点,45401,25.9,34.986666666666665,139.865,館山,警戒
2023-08-24 05:00:00,8月24日 5時時点,46091,25.4,35.43333333333333,139.38666666666666,海老名,警戒
2023-08-24 05:00:00,8月24日 5時時点,46106,26.3,35.43833333333333,139.65166666666667,横浜,警戒
2023-08-24 05:00:00,8月24日 5時時点,46141,27.3,35.32,139.45,辻堂,警戒
2023-08-24 05:00:00,8月24日 5時時点,46166,25.0,35.276666666666664,139.155,小田原,警戒
2023-08-24 05:00:00,8月24日 5時時点,46211,26.1,35.178333333333335,139.63,三浦,警戒
2023-08-24 05:00:00,8月24日 5時時点,48031,21.5,36.91166666666667,138.44166666666666,野沢温泉,注意
2023-08-24 05:00:00,8月24日 5時時点,48061,22.8,36.80833333333333,138.19666666666666,信濃町,注意
2023-08-24 05:00:00,8月24日 5時時点,48066,23.7,36.875,138.375,飯山,注意
2023-08-24 05:00:00,8月24日 5時時点,48141,20.7,36.69833333333333,137.86166666666668,白馬,ほぼ安全
2023-08-24 05:00:00,8月24日 5時時点,48156,23.6,36.66166666666667,138.19166666666666,長野,注意
2023-08-24 05:00:00,8月24日 5時時点,48191,19.7,36.52333333333333,137.83166666666668,大町,ほぼ安全
2023-08-24 05:00:00,8月24日 5時時点,48196,20.6,36.54833333333333,137.99666666666667,信州新町,ほぼ安全
2023-08-24 05:00:00,8月24日 5時時点,48216,18.2,36.531666666666666,138.325,菅平,ほぼ安全
2023-08-24 05:00:00,8月24日 5時時点,48256,22.8,36.4,138.265,上田,注意
2023-08-24 05:00:00,8月24日 5時時点,48296,21.2,36.343333333333334,137.88166666666666,穂高,注意
2023-08-24 05:00:00,8月24日 5時時点,48321,19.2,36.38333333333333,138.38333333333333,東御,ほぼ安全
2023-08-24 05:00:00,8月24日 5時時点,48331,20.8,36.34166666666667,138.54666666666665,軽井沢,ほぼ安全
2023-08-24 05:00:00,8月24日 5時時点,48361,22.0,36.24666666666667,137.97,松本,注意
2023-08-24 05:00:00,8月24日 5時時点,48381,19.9,36.27166666666667,138.31333333333333,立科,ほぼ安全
2023-08-24 05:00:00,8月24日 5時時点,48386,21.1,36.24666666666667,138.47666666666666,佐久,注意
2023-08-24 05:00:00,8月24日 5時時点,48466,17.3,36.08833333333333,137.68333333333334,奈川,ほぼ安全
2023-08-24 05:00:00,8月24日 5時時点,48491,21.9,36.045,138.10833333333332,諏訪,注意
2023-08-24 05:00:00,8月24日 5時時点,48531,17.3,35.93833333333333,137.60166666666666,開田高原,ほぼ安全
2023-08-24 05:00:00,8月24日 5時時点,48536,19.1,35.93666666666667,137.78666666666666,木祖薮原,ほぼ安全
2023-08-24 05:00:00,8月24日 5時時点,48546,20.7,35.983333333333334,137.98333333333332,辰野,ほぼ安全
2023-08-24 05:00:00,8月24日 5時時点,48561,19.5,35.97,138.22,原村,ほぼ安全
2023-08-24 05:00:00,8月24日 5時時点,48571,18.5,35.94833333333333,138.47166666666666,野辺山,ほぼ安全
2023-08-24 05:00:00,8月24日 5時時点,48606,20.5,35.84,137.68833333333333,木曽福島,ほぼ安全
2023-08-24 05:00:00,8月24日 5時時点,48621,21.4,35.825,137.955,伊那,注意
2023-08-24 05:00:00,8月24日 5時時点,48717,21.6,35.61,137.62,南木曽,注意
2023-08-24 05:00:00,8月24日 5時時点,48731,20.7,35.653333333333336,137.89833333333334,飯島,ほぼ安全
2023-08-24 05:00:00,8月24日 5時時点,48767,22.4,35.52333333333333,137.82166666666666,飯田,注意
2023-08-24 05:00:00,8月24日 5時時点,48826,20.3,35.373333333333335,137.69166666666666,浪合,ほぼ安全
2023-08-24 05:00:00,8月24日 5時時点,48841,22.5,35.321666666666665,137.93166666666667,南信濃,注意
2023-08-24 05:00:00,8月24日 5時時点,49036,21.6,35.861666666666665,138.38666666666666,大泉,注意
2023-08-24 05:00:00,8月24日 5時時点,49086,22.8,35.693333333333335,138.44833333333332,韮崎,注意
2023-08-24 05:00:00,8月24日 5時時点,49142,24.4,35.666666666666664,138.55333333333334,甲府,注意
2023-08-24 05:00:00,8月24日 5時時点,49151,22.9,35.663333333333334,138.725,勝沼,注意
2023-08-24 05:00:00,8月24日 5時時点,49161,23.5,35.608333333333334,138.93833333333333,大月,注意
2023-08-24 05:00:00,8月24日 5時時点,49196,22.1,35.528333333333336,138.615,古関,注意
2023-08-24 05:00:00,8月24日 5時時点,49236,23.4,35.46666666666667,138.44166666666666,切石,注意
2023-08-24 05:00:00,8月24日 5時時点,49251,21.3,35.5,138.76,河口湖,注意
2023-08-24 05:00:00,8月24日 5時時点,49256,21.0,35.43666666666667,138.83666666666667,山中,注意
2023-08-24 05:00:00,8月24日 5時時点,49316,24.4,35.288333333333334,138.445,南部,注意
2023-08-24 05:00:00,8月24日 5時時点,50106,21.0,35.21666666666667,138.22166666666666,井川,注意
2023-08-24 05:00:00,8月24日 5時時点,50136,22.9,35.305,138.92666666666668,御殿場,注意
2023-08-24 05:00:00,8月24日 5時時点,50196,25.0,35.185,138.66333333333333,富士,警戒
2023-08-24 05:00:00,8月24日 5時時点,50206,25.1,35.11333333333334,138.925,三島,警戒
2023-08-24 05:00:00,8月24日 5時時点,50226,24.2,35.056666666666665,137.76166666666666,佐久間,注意
2023-08-24 05:00:00,8月24日 5時時点,50241,23.2,35.10166666666667,138.12833333333333,川根本町,注意
2023-08-24 05:00:00,8月24日 5時時点,50261,25.3,35.053333333333335,138.52166666666668,清水,警戒
2023-08-24 05:00:00,8月24日 5時時点,50281,25.5,35.045,139.09166666666667,網代,警戒
2023-08-24 05:00:00,8月24日 5時時点,50331,25.4,34.975,138.40333333333334,静岡,警戒
2023-08-24 05:00:00,8月24日 5時時点,50386,24.7,34.89,137.81333333333333,天竜,注意
2023-08-24 05:00:00,8月24日 5時時点,50456,25.4,34.75333333333333,137.71166666666667,浜松,警戒
2023-08-24 05:00:00,8月24日 5時時点,50476,24.9,34.785,138.13833333333332,菊川牧之原,注意
2023-08-24 05:00:00,8月24日 5時時点,50491,25.5,34.755,138.78333333333333,松崎,警戒
2023-08-24 05:00:00,8月24日 5時時点,50506,25.3,34.781666666666666,139.04833333333335,稲取,警戒
2023-08-24 05:00:00,8月24日 5時時点,50536,25.8,34.69166666666667,137.88,磐田,警戒
2023-08-24 05:00:00,8月24日 5時時点,50551,26.5,34.60333333333333,138.21333333333334,御前崎,警戒
2023-08-24 05:00:00,8月24日 5時時点,50561,26.2,34.60333333333333,138.84166666666667,石廊崎,警戒
2023-08-24 05:00:00,8月24日 5時時点,51031,25.4,35.21666666666667,136.69833333333332,愛西,警戒
2023-08-24 05:00:00,8月24日 5時時点,51071,22.5,35.211666666666666,137.50666666666666,稲武,注意
2023-08-24 05:00:00,8月24日 5時時点,51106,25.1,35.166666666666664,136.965,名古屋,警戒
2023-08-24 05:00:00,8月24日 5時時点,51116,24.8,35.13166666666667,137.17666666666668,豊田,注意
2023-08-24 05:00:00,8月24日 5時時点,51216,25.3,34.995,136.94333333333333,大府,警戒
2023-08-24 05:00:00,8月24日 5時時点,51226,25.4,34.91833333333334,137.19333333333333,岡崎,警戒
2023-08-24 05:00:00,8月24日 5時時点,51247,24.8,34.906666666666666,137.51833333333335,新城,注意
2023-08-24 05:00:00,8月24日 5時時点,51281,25.2,34.845,137.21666666666667,蒲郡,警戒
2023-08-24 05:00:00,8月24日 5時時点,51311,26.1,34.74,136.93833333333333,南知多,警戒
2023-08-24 05:00:00,8月24日 5時時点,51331,26.7,34.75,137.34166666666667,豊橋,警戒
2023-08-24 05:00:00,8月24日 5時時点,51346,25.9,34.62833333333333,137.09333333333333,伊良湖,警戒
2023-08-24 05:00:00,8月24日 5時時点,52041,20.6,36.305,137.1,河合,ほぼ安全
2023-08-24 05:00:00,8月24日 5時時点,52051,21.7,36.321666666666665,137.30833333333334,神岡,注意
2023-08-24 05:00:00,8月24日 5時時点,52081,22.5,36.27333333333333,136.89666666666668,白川,注意
2023-08-24 05:00:00,8月24日 5時時点,52111,19.6,36.248333333333335,137.50333333333333,栃尾,ほぼ安全
2023-08-24 05:00:00,8月24日 5時時点,52146,21.5,36.155,137.25333333333333,高山,注意
2023-08-24 05:00:00,8月24日 5時時点,52181,19.4,36.06,137.035,六厩,ほぼ安全
2023-08-24 05:00:00,8月24日 5時時点,52196,18.4,36.015,137.38833333333332,宮之前,ほぼ安全
2023-08-24 05:00:00,8月24日 5時時点,52221,22.8,35.92333333333333,136.83166666666668,長滝,注意
2023-08-24 05:00:00,8月24日 5時時点,52286,22.6,35.888333333333335,137.20666666666668,萩原,注意
2023-08-24 05:00:00,8月24日 5時時点,52331,23.3,35.75666666666667,136.97833333333332,八幡,注意
2023-08-24 05:00:00,8月24日 5時時点,52346,23.1,35.763333333333335,137.28833333333333,宮地,注意
2023-08-24 05:00:00,8月24日 5時時点,52381,24.0,35.638333333333335,136.60166666666666,樽見,注意
2023-08-24 05:00:00,8月24日 5時時点,52406,23.0,35.66166666666667,137.16,金山,注意
2023-08-24 05:00:00,8月24日 5時時点,52461,24.6,35.555,136.91,美濃,注意
2023-08-24 05:00:00,8月24日 5時時点,52482,22.1,35.598333333333336,137.31833333333333,黒川,注意
2023-08-24 05:00:00,8月24日 5時時点,52511,25.1,35.485,136.56666666666666,揖斐川,警戒
2023-08-24 05:00:00,8月24日 5時時点,52536,24.8,35.445,137.005,美濃加茂,注意
2023-08-24 05:00:00,8月24日 5時時点,52556,22.9,35.446666666666665,137.40333333333334,恵那,注意
2023-08-24 05:00:00,8月24日 5時時点,52557,23.4,35.47666666666667,137.48666666666668,中津川,注意
2023-08-24 05:00:00,8月24日 5時時点,52571,25.1,35.36333333333334,136.46666666666667,関ケ原,警戒
2023-08-24 05:00:00,8月24日 5時時点,52581,25.9,35.346666666666664,136.62,大垣,警戒
2023-08-24 05:00:00,8月24日 5時時点,52586,25.3,35.4,136.76166666666666,岐阜,警戒
2023-08-24 05:00:00,8月24日 5時時点,52606,24.5,35.346666666666664,137.10833333333332,多治見,注意
2023-08-24 05:00:00,8月24日 5時時点,53041,26.0,35.05,136.69333333333333,桑名,警戒
2023-08-24 05:00:00,8月24日 5時時点,53061,24.3,34.94,136.58,四日市,注意
2023-08-24 05:00:00,8月24日 5時時点,53091,24.2,34.87,136.45333333333335,亀山,注意
2023-08-24 05:00:00,8月24日 5時時点,53112,24.9,34.76166666666667,136.14166666666668,上野,注意
2023-08-24 05:00:00,8月24日 5時時点,53133,25.3,34.733333333333334,136.51833333333335,津,警戒
2023-08-24 05:00:00,8月24日 5時時点,53196,24.9,34.528333333333336,136.665,小俣,注意
2023-08-24 05:00:00,8月24日 5時時点,53231,24.6,34.44833333333333,136.39,粥見,注意
2023-08-24 05:00:00,8月24日 5時時点,53257,25.7,34.48166666666667,136.825,鳥羽,警戒
2023-08-24 05:00:00,8月24日 5時時点,53296,25.7,34.345,136.68166666666667,南伊勢,警戒
2023-08-24 05:00:00,8月24日 5時時点,53326,24.8,34.208333333333336,136.32666666666665,紀伊長島,注意
2023-08-24 05:00:00,8月24日 5時時点,53378,25.0,34.068333333333335,136.19333333333333,尾鷲,警戒
2023-08-24 05:00:00,8月24日 5時時点,53401,24.8,33.931666666666665,136.13833333333332,熊野新鹿,注意
2023-08-24 05:00:00,8月24日 5時時点,54012,26.9,38.465,139.25333333333333,粟島,警戒
2023-08-24 05:00:00,8月24日 5時時点,54041,25.0,38.33,138.51166666666666,弾崎,警戒
2023-08-24 05:00:00,8月24日 5時時点,54086,25.5,38.22666666666667,139.47833333333332,村上,警戒
2023-08-24 05:00:00,8月24日 5時時点,54157,26.2,38.028333333333336,138.24,相川,警戒
2023-08-24 05:00:00,8月24日 5時時点,54166,25.0,38.07333333333333,138.44,両津,警戒
2023-08-24 05:00:00,8月24日 5時時点,54181,24.5,38.07666666666667,139.38833333333332,中条,注意
2023-08-24 05:00:00,8月24日 5時時点,54191,25.5,38.09166666666667,139.56333333333333,下関,警戒
2023-08-24 05:00:00,8月24日 5時時点,54232,25.4,37.89333333333333,139.01833333333335,新潟,警戒
2023-08-24 05:00:00,8月24日 5時時点,54271,24.4,37.84166666666667,138.31333333333333,羽茂,注意
2023-08-24 05:00:00,8月24日 5時時点,54296,25.2,37.791666666666664,139.08666666666667,新津,警戒
2023-08-24 05:00:00,8月24日 5時時点,54341,25.1,37.76833333333333,138.91333333333333,巻,警戒
2023-08-24 05:00:00,8月24日 5時時点,54387,24.5,37.64,138.76666666666668,寺泊,注意
2023-08-24 05:00:00,8月24日 5時時点,54396,25.7,37.64,138.955,三条,警戒
2023-08-24 05:00:00,8月24日 5時時点,54421,23.2,37.67166666666667,139.44666666666666,津川,注意
2023-08-24 05:00:00,8月24日 5時時点,54501,25.2,37.45,138.82333333333332,長岡,警戒
2023-08-24 05:00:00,8月24日 5時時点,54541,24.3,37.35166666666667,138.55333333333334,柏崎,注意
2023-08-24 05:00:00,8月24日 5時時点,54566,20.4,37.346666666666664,139.04333333333332,守門,ほぼ安全
2023-08-24 05:00:00,8月24日 5時時点,54586,25.1,37.225,138.325,大潟,警戒
2023-08-24 05:00:00,8月24日 5時時点,54616,23.2,37.22666666666667,138.96333333333334,小出,注意
2023-08-24 05:00:00,8月24日 5時時点,54651,25.4,37.10666666666667,138.24666666666667,高田,警戒
2023-08-24 05:00:00,8月24日 5時時点,54661,22.1,37.10666666666667,138.45666666666668,安塚,注意
2023-08-24 05:00:00,8月24日 5時時点,54676,25.6,37.14333333333333,138.72666666666666,十日町,警戒
2023-08-24 05:00:00,8月24日 5時時点,54711,24.9,37.04333333333334,137.875,糸魚川,注意
2023-08-24 05:00:00,8月24日 5時時点,54721,22.5,37.083333333333336,138.02333333333334,能生,注意
2023-08-24 05:00:00,8月24日 5時時点,54816,25.5,36.93333333333333,138.22166666666666,関山,警戒
2023-08-24 05:00:00,8月24日 5時時点,54836,23.4,36.99666666666667,138.68333333333334,津南,注意
2023-08-24 05:00:00,8月24日 5時時点,54841,26.7,36.94166666666667,138.81,湯沢,警戒
2023-08-24 05:00:00,8月24日 5時時点,55022,24.6,36.93666666666667,137.56333333333333,朝日,注意
2023-08-24 05:00:00,8月24日 5時時点,55041,22.4,36.86333333333333,136.96,氷見,注意
2023-08-24 05:00:00,8月24日 5時時点,55056,24.6,36.821666666666665,137.42833333333334,魚津,注意
2023-08-24 05:00:00,8月24日 5時時点,55091,24.9,36.791666666666664,137.055,伏木,注意
2023-08-24 05:00:00,8月24日 5時時点,55102,25.1,36.708333333333336,137.20166666666665,富山,警戒
2023-08-24 05:00:00,8月24日 5時時点,55141,25.4,36.61,136.955,砺波,警戒
2023-08-24 05:00:00,8月24日 5時時点,55166,20.9,36.67,137.42333333333335,上市,ほぼ安全
2023-08-24 05:00:00,8月24日 5時時点,55191,22.1,36.545,136.87166666666667,南砺高宮,注意
2023-08-24 05:00:00,8月24日 5時時点,55206,23.9,36.57,137.15833333333333,八尾,注意
2023-08-24 05:00:00,8月24日 5時時点,56036,24.9,37.446666666666665,137.28666666666666,珠洲,注意
2023-08-24 05:00:00,8月24日 5時時点,56052,25.4,37.39,136.895,輪島,警戒
2023-08-24 05:00:00,8月24日 5時時点,56116,25.8,37.14333333333333,136.725,志賀,警戒
2023-08-24 05:00:00,8月24日 5時時点,56146,24.6,37.03,136.99166666666667,七尾,注意
2023-08-24 05:00:00,8月24日 5時時点,56176,25.8,36.89333333333333,136.77666666666667,羽咋,警戒
2023-08-24 05:00:00,8月24日 5時時点,56186,24.1,36.711666666666666,136.69166666666666,かほく,注意
2023-08-24 05:00:00,8月24日 5時時点,56227,25.2,36.58833333333333,136.63333333333333,金沢,警戒
2023-08-24 05:00:00,8月24日 5時時点,56276,24.9,36.38166666666667,136.435,小松,注意
2023-08-24 05:00:00,8月24日 5時時点,56286,22.4,36.39666666666667,136.62,白山河内,注意
2023-08-24 05:00:00,8月24日 5時時点,56301,22.9,36.26166666666666,136.39666666666668,加賀中津原,注意
2023-08-24 05:00:00,8月24日 5時時点,57001,25.0,36.24333333333333,136.17333333333335,三国,警戒
2023-08-24 05:00:00,8月24日 5時時点,57051,25.3,36.01166666666666,135.99,越廼,警戒
2023-08-24 05:00:00,8月24日 5時時点,57066,25.2,36.055,136.22166666666666,福井,警戒
2023-08-24 05:00:00,8月24日 5時時点,57082,26.6,36.038333333333334,136.52166666666668,勝山,警戒
2023-08-24 05:00:00,8月24日 5時時点,57121,26.1,35.971666666666664,136.49666666666667,大野,警戒
2023-08-24 05:00:00,8月24日 5時時点,57206,22.8,35.766666666666666,136.2,今庄,注意
2023-08-24 05:00:00,8月24日 5時時点,57248,25.7,35.653333333333336,136.06166666666667,敦賀,警戒
2023-08-24 05:00:00,8月24日 5時時点,57286,27.0,35.6,135.91666666666666,美浜,警戒
2023-08-24 05:00:00,8月24日 5時時点,57317,25.6,35.483333333333334,135.78166666666667,小浜,警戒
2023-08-24 05:00:00,8月24日 5時時点,60051,25.3,35.41166666666667,136.02833333333334,今津,警戒
2023-08-24 05:00:00,8月24日 5時時点,60061,24.8,35.42333333333333,136.24166666666667,長浜,注意
2023-08-24 05:00:00,8月24日 5時時点,60102,24.4,35.38333333333333,136.34333333333333,米原,注意
2023-08-24 05:00:00,8月24日 5時時点,60116,25.8,35.235,135.95666666666668,南小松,警戒
2023-08-24 05:00:00,8月24日 5時時点,60131,25.1,35.275,136.24333333333334,彦根,警戒
2023-08-24 05:00:00,8月24日 5時時点,60196,24.6,35.06166666666667,136.19,東近江,注意
2023-08-24 05:00:00,8月24日 5時時点,60216,25.6,34.99166666666667,135.91166666666666,大津,警戒
2023-08-24 05:00:00,8月24日 5時時点,60226,23.9,34.913333333333334,136.08,信楽,注意
2023-08-24 05:00:00,8月24日 5時時点,60236,24.0,34.93833333333333,136.27833333333334,土山,注意
2023-08-24 05:00:00,8月24日 5時時点,61001,25.3,35.736666666666665,135.08666666666667,間人,警戒
2023-08-24 05:00:00,8月24日 5時時点,61076,25.2,35.55,135.235,宮津,警戒
2023-08-24 05:00:00,8月24日 5時時点,61111,25.0,35.45,135.31666666666666,舞鶴,警戒
2023-08-24 05:00:00,8月24日 5時時点,61187,25.7,35.31166666666667,135.11333333333334,福知山,警戒
2023-08-24 05:00:00,8月24日 5時時点,61206,24.3,35.275,135.55,美山,注意
2023-08-24 05:00:00,8月24日 5時時点,61242,24.5,35.108333333333334,135.455,園部,注意
2023-08-24 05:00:00,8月24日 5時時点,61286,25.7,35.013333333333335,135.73166666666665,京都,警戒
2023-08-24 05:00:00,8月24日 5時時点,61326,25.6,34.83,135.76,京田辺,警戒
2023-08-24 05:00:00,8月24日 5時時点,62016,24.7,34.94833333333333,135.455,能勢,注意
2023-08-24 05:00:00,8月24日 5時時点,62046,25.9,34.80833333333333,135.67166666666665,枚方,警戒
2023-08-24 05:00:00,8月24日 5時時点,62078,25.8,34.681666666666665,135.51833333333335,大阪,警戒
2023-08-24 05:00:00,8月24日 5時時点,62081,22.1,34.675,135.67666666666668,生駒山,注意
2023-08-24 05:00:00,8月24日 5時時点,62091,26.0,34.555,135.485,堺,警戒
2023-08-24 05:00:00,8月24日 5時時点,62131,24.3,34.385,135.35,熊取,注意
2023-08-24 05:00:00,8月24日 5時時点,63016,25.3,35.625,134.62666666666667,香住,警戒
2023-08-24 05:00:00,8月24日 5時時点,63051,25.3,35.535,134.82166666666666,豊岡,警戒
2023-08-24 05:00:00,8月24日 5時時点,63071,22.4,35.431666666666665,134.58333333333334,兎和野高原,注意
2023-08-24 05:00:00,8月24日 5時時点,63121,24.7,35.32333333333333,134.84833333333333,和田山,注意
2023-08-24 05:00:00,8月24日 5時時点,63201,24.0,35.166666666666664,134.79166666666666,生野,注意
2023-08-24 05:00:00,8月24日 5時時点,63216,24.6,35.13666666666666,135.065,柏原,注意
2023-08-24 05:00:00,8月24日 5時時点,63251,23.3,35.096666666666664,134.585,一宮,注意
2023-08-24 05:00:00,8月24日 5時時点,63321,25.5,34.95,134.74833333333333,福崎,警戒
2023-08-24 05:00:00,8月24日 5時時点,63331,24.7,34.998333333333335,134.99666666666667,西脇,注意
2023-08-24 05:00:00,8月24日 5時時点,63366,25.4,34.858333333333334,134.37333333333333,上郡,警戒
2023-08-24 05:00:00,8月24日 5時時点,63383,24.9,34.83833333333333,134.67,姫路,注意
2023-08-24 05:00:00,8月24日 5時時点,63411,24.2,34.895,135.21166666666667,三田,注意
2023-08-24 05:00:00,8月24日 5時時点,63461,24.4,34.776666666666664,135.01333333333332,三木,注意
2023-08-24 05:00:00,8月24日 5時時点,63491,25.1,34.67166666666667,134.52666666666667,家島,警戒
2023-08-24 05:00:00,8月24日 5時時点,63496,24.6,34.68666666666667,134.87666666666667,明石,注意
2023-08-24 05:00:00,8月24日 5時時点,63518,26.0,34.696666666666665,135.21166666666667,神戸,警戒
2023-08-24 05:00:00,8月24日 5時時点,63551,24.6,34.46666666666667,134.84833333333333,郡家,注意
2023-08-24 05:00:00,8月24日 5時時点,63571,25.3,34.31,134.84833333333333,洲本,警戒
2023-08-24 05:00:00,8月24日 5時時点,63588,25.6,34.218333333333334,134.72,南淡,警戒
2023-08-24 05:00:00,8月24日 5時時点,64036,25.0,34.67333333333333,135.83666666666667,奈良,警戒
2023-08-24 05:00:00,8月24日 5時時点,64041,23.0,34.605,135.95166666666665,針,注意
2023-08-24 05:00:00,8月24日 5時時点,64101,22.9,34.48833333333334,135.93166666666667,大宇陀,注意
2023-08-24 05:00:00,8月24日 5時時点,64127,23.9,34.38,135.73,五條,注意
2023-08-24 05:00:00,8月24日 5時時点,64206,22.4,34.13666666666666,136.005,上北山,注意
2023-08-24 05:00:00,8月24日 5時時点,64227,22.6,34.045,135.78666666666666,風屋,注意
2023-08-24 05:00:00,8月24日 5時時点,65026,23.7,34.31,135.52833333333334,かつらぎ,注意
2023-08-24 05:00:00,8月24日 5時時点,65036,25.0,34.28,134.99833333333333,友ケ島,警戒
2023-08-24 05:00:00,8月24日 5時時点,65042,25.2,34.22833333333333,135.16333333333333,和歌山,警戒
2023-08-24 05:00:00,8月24日 5時時点,65061,21.1,34.221666666666664,135.59,高野山,注意
2023-08-24 05:00:00,8月24日 5時時点,65121,23.1,34.086666666666666,135.425,清水,注意
2023-08-24 05:00:00,8月24日 5時時点,65162,22.9,33.945,135.55666666666667,龍神,注意
2023-08-24 05:00:00,8月24日 5時時点,65201,24.3,33.89333333333333,135.21666666666667,川辺,注意
2023-08-24 05:00:00,8月24日 5時時点,65256,24.0,33.791666666666664,135.51333333333332,栗栖川,注意
2023-08-24 05:00:00,8月24日 5時時点,65276,25.1,33.68666666666667,135.97,新宮,警戒
2023-08-24 05:00:00,8月24日 5時時点,65306,23.9,33.638333333333335,135.71,西川,注意
2023-08-24 05:00:00,8月24日 5時時点,65356,26.3,33.45,135.75666666666666,潮岬,警戒
2023-08-24 05:00:00,8月24日 5時時点,66046,22.5,35.29666666666667,133.725,上長田,注意
2023-08-24 05:00:00,8月24日 5時時点,66091,20.1,35.10333333333333,133.435,千屋,ほぼ安全
2023-08-24 05:00:00,8月24日 5時時点,66127,24.8,35.111666666666665,134.17,奈義,注意
2023-08-24 05:00:00,8月24日 5時時点,66136,23.9,35.098333333333336,134.325,今岡,注意
2023-08-24 05:00:00,8月24日 5時時点,66171,23.5,35.068333333333335,133.75333333333333,久世,注意
2023-08-24 05:00:00,8月24日 5時時点,66186,24.5,35.06333333333333,134.00833333333333,津山,注意
2023-08-24 05:00:00,8月24日 5時時点,66221,21.1,34.943333333333335,133.51833333333335,新見,注意
2023-08-24 05:00:00,8月24日 5時時点,66296,24.2,34.86666666666667,133.90333333333334,福渡,注意
2023-08-24 05:00:00,8月24日 5時時点,66306,24.8,34.815,134.18333333333334,和気,注意
2023-08-24 05:00:00,8月24日 5時時点,66336,23.7,34.791666666666664,133.61,高梁,注意
2023-08-24 05:00:00,8月24日 5時時点,66408,24.7,34.685,133.925,岡山,注意
2023-08-24 05:00:00,8月24日 5時時点,66421,24.6,34.681666666666665,134.20666666666668,虫明,注意
2023-08-24 05:00:00,8月24日 5時時点,66446,23.9,34.59,133.76833333333335,倉敷,注意
2023-08-24 05:00:00,8月24日 5時時点,66481,23.0,34.501666666666665,133.495,笠岡,注意
2023-08-24 05:00:00,8月24日 5時時点,66501,24.5,34.486666666666665,133.95,玉野,注意
2023-08-24 05:00:00,8月24日 5時時点,67016,21.3,35.03333333333333,132.90166666666667,高野,注意
2023-08-24 05:00:00,8月24日 5時時点,67106,23.0,34.81166666666667,132.85,三次,注意
2023-08-24 05:00:00,8月24日 5時時点,67116,21.9,34.86,133.02333333333334,庄原,注意
2023-08-24 05:00:00,8月24日 5時時点,67151,22.5,34.76833333333333,132.46333333333334,大朝,注意
2023-08-24 05:00:00,8月24日 5時時点,67191,20.3,34.763333333333335,133.27833333333334,油木,ほぼ安全
2023-08-24 05:00:00,8月24日 5時時点,67212,23.3,34.61,132.32,加計,注意
2023-08-24 05:00:00,8月24日 5時時点,67292,24.5,34.545,132.53,三入,注意
2023-08-24 05:00:00,8月24日 5時時点,67316,21.1,34.583333333333336,133.05,世羅,注意
2023-08-24 05:00:00,8月24日 5時時点,67326,22.7,34.56166666666667,133.23166666666665,府中,注意
2023-08-24 05:00:00,8月24日 5時時点,67376,23.1,34.416666666666664,132.7,東広島,注意
2023-08-24 05:00:00,8月24日 5時時点,67401,23.1,34.446666666666665,133.24666666666667,福山,注意
2023-08-24 05:00:00,8月24日 5時時点,67421,22.8,34.365,132.19,廿日市津田,注意
2023-08-24 05:00:00,8月24日 5時時点,67437,24.6,34.39833333333333,132.46166666666667,広島,注意
2023-08-24 05:00:00,8月24日 5時時点,67461,23.4,34.33,132.98166666666665,竹原,注意
2023-08-24 05:00:00,8月24日 5時時点,67471,23.7,34.278333333333336,133.12333333333333,生口島,注意
2023-08-24 05:00:00,8月24日 5時時点,67496,25.0,34.221666666666664,132.22,大竹,警戒
2023-08-24 05:00:00,8月24日 5時時点,67511,24.4,34.24,132.55,呉,注意
2023-08-24 05:00:00,8月24日 5時時点,67576,24.2,34.165,132.74833333333333,呉市蒲刈,注意
2023-08-24 05:00:00,8月24日 5時時点,68022,24.7,36.20333333333333,133.33333333333334,西郷,注意
2023-08-24 05:00:00,8月24日 5時時点,68056,24.6,36.096666666666664,133.09666666666666,海士,注意
2023-08-24 05:00:00,8月24日 5時時点,68091,23.6,35.52,132.98333333333332,鹿島,注意
2023-08-24 05:00:00,8月24日 5時時点,68132,23.5,35.45666666666666,133.065,松江,注意
2023-08-24 05:00:00,8月24日 5時時点,68156,22.9,35.33166666666666,132.73,出雲,注意
2023-08-24 05:00:00,8月24日 5時時点,68246,23.8,35.19,132.49666666666667,大田,注意
2023-08-24 05:00:00,8月24日 5時時点,68261,21.7,35.196666666666665,132.815,掛合,注意
2023-08-24 05:00:00,8月24日 5時時点,68276,20.2,35.17333333333333,133.10333333333332,横田,ほぼ安全
2023-08-24 05:00:00,8月24日 5時時点,68306,21.1,35.001666666666665,132.71166666666667,赤名,注意
2023-08-24 05:00:00,8月24日 5時時点,68351,22.1,34.97666666666667,132.49166666666667,川本,注意
2023-08-24 05:00:00,8月24日 5時時点,68376,23.4,34.89666666666667,132.07,浜田,注意
2023-08-24 05:00:00,8月24日 5時時点,68401,21.5,34.85333333333333,132.53,瑞穂,注意
2023-08-24 05:00:00,8月24日 5時時点,68431,20.7,34.776666666666664,132.10833333333332,弥栄,ほぼ安全
2023-08-24 05:00:00,8月24日 5時時点,68462,24.2,34.67666666666667,131.84333333333333,益田,注意
2023-08-24 05:00:00,8月24日 5時時点,68516,22.6,34.461666666666666,131.77,津和野,注意
2023-08-24 05:00:00,8月24日 5時時点,68541,22.4,34.391666666666666,131.89333333333335,吉賀,注意
2023-08-24 05:00:00,8月24日 5時時点,69006,24.2,35.54333333333334,133.235,境,注意
2023-08-24 05:00:00,8月24日 5時時点,69021,23.9,35.52333333333333,133.56666666666666,塩津,注意
2023-08-24 05:00:00,8月24日 5時時点,69041,25.6,35.52,133.99666666666667,青谷,警戒
2023-08-24 05:00:00,8月24日 5時時点,69061,24.9,35.55833333333333,134.36,岩井,注意
2023-08-24 05:00:00,8月24日 5時時点,69076,23.4,35.43333333333333,133.33833333333334,米子,注意
2023-08-24 05:00:00,8月24日 5時時点,69101,24.5,35.473333333333336,133.83833333333334,倉吉,注意
2023-08-24 05:00:00,8月24日 5時時点,69122,25.1,35.486666666666665,134.23833333333334,鳥取,警戒
2023-08-24 05:00:00,8月24日 5時時点,69246,23.7,35.263333333333335,134.24,智頭,注意
2023-08-24 05:00:00,8月24日 5時時点,69271,19.7,35.18666666666667,133.23,茶屋,ほぼ安全
2023-08-24 05:00:00,8月24日 5時時点,81011,23.1,34.615,131.62333333333333,須佐,注意
2023-08-24 05:00:00,8月24日 5時時点,81071,25.5,34.41,131.405,萩,警戒
2023-08-24 05:00:00,8月24日 5時時点,81116,25.0,34.37,131.055,油谷,警戒
2023-08-24 05:00:00,8月24日 5時時点,81151,22.1,34.39833333333333,131.725,徳佐,注意
2023-08-24 05:00:00,8月24日 5時時点,81196,23.5,34.235,131.30666666666667,秋吉台,注意
2023-08-24 05:00:00,8月24日 5時時点,81231,24.7,34.26166666666666,131.95166666666665,広瀬,注意
2023-08-24 05:00:00,8月24日 5時時点,81266,23.9,34.18666666666667,131.07666666666665,豊田,注意
2023-08-24 05:00:00,8月24日 5時時点,81286,24.8,34.16166666666667,131.46166666666667,山口,注意
2023-08-24 05:00:00,8月24日 5時時点,81321,24.7,34.155,132.17833333333334,岩国,注意
2023-08-24 05:00:00,8月24日 5時時点,81371,25.1,34.04,131.53333333333333,防府,警戒
2023-08-24 05:00:00,8月24日 5時時点,81386,24.7,34.01,131.87166666666667,下松,注意
2023-08-24 05:00:00,8月24日 5時時点,81397,24.6,34.095,132.075,玖珂,注意
2023-08-24 05:00:00,8月24日 5時時点,81428,26.1,33.94833333333333,130.925,下関,警戒
2023-08-24 05:00:00,8月24日 5時時点,81481,24.7,33.958333333333336,132.11333333333334,柳井,注意
2023-08-24 05:00:00,8月24日 5時時点,81486,24.8,33.903333333333336,132.29333333333332,安下庄,注意
2023-08-24 05:00:00,8月24日 5時時点,71066,21.7,34.02333333333333,133.795,池田,注意
2023-08-24 05:00:00,8月24日 5時時点,71087,22.1,34.04,134.15666666666667,穴吹,注意
2023-08-24 05:00:00,8月24日 5時時点,71106,23.7,34.06666666666667,134.57333333333332,徳島,注意
2023-08-24 05:00:00,8月24日 5時時点,71191,19.8,33.86666666666667,133.90333333333334,京上,ほぼ安全
2023-08-24 05:00:00,8月24日 5時時点,71231,25.5,33.836666666666666,134.74166666666667,蒲生田,警戒
2023-08-24 05:00:00,8月24日 5時時点,71251,21.3,33.77166666666667,134.19833333333332,木頭,注意
2023-08-24 05:00:00,8月24日 5時時点,71266,25.2,33.73166666666667,134.53833333333333,日和佐,警戒
2023-08-24 05:00:00,8月24日 5時時点,71291,24.0,33.611666666666665,134.355,海陽,注意
2023-08-24 05:00:00,8月24日 5時時点,72061,24.3,34.471666666666664,134.27333333333334,内海,注意
2023-08-24 05:00:00,8月24日 5時時点,72086,23.7,34.318333333333335,134.05333333333334,高松,注意
2023-08-24 05:00:00,8月24日 5時時点,72111,23.1,34.275,133.75166666666667,多度津,注意
2023-08-24 05:00:00,8月24日 5時時点,72121,22.4,34.236666666666665,133.92333333333335,滝宮,注意
2023-08-24 05:00:00,8月24日 5時時点,72146,24.4,34.21333333333333,134.40666666666667,引田,注意
2023-08-24 05:00:00,8月24日 5時時点,72161,22.2,34.12,133.77166666666668,財田,注意
2023-08-24 05:00:00,8月24日 5時時点,73001,23.6,34.25,133.00666666666666,大三島,注意
2023-08-24 05:00:00,8月24日 5時時点,73076,22.5,34.053333333333335,132.975,今治,注意
2023-08-24 05:00:00,8月24日 5時時点,73126,22.3,33.915,133.08,西条,注意
2023-08-24 05:00:00,8月24日 5時時点,73141,21.8,33.93666666666667,133.33833333333334,新居浜,注意
2023-08-24 05:00:00,8月24日 5時時点,73151,22.7,33.98166666666667,133.58166666666668,四国中央,注意
2023-08-24 05:00:00,8月24日 5時時点,73166,23.8,33.843333333333334,132.77666666666667,松山,注意
2023-08-24 05:00:00,8月24日 5時時点,73256,24.4,33.61666666666667,132.48,長浜,注意
2023-08-24 05:00:00,8月24日 5時時点,73276,20.1,33.663333333333334,132.895,久万,ほぼ安全
2023-08-24 05:00:00,8月24日 5時時点,73306,23.4,33.50833333333333,132.535,大洲,注意
2023-08-24 05:00:00,8月24日 5時時点,73341,24.3,33.446666666666665,132.25666666666666,瀬戸,注意
2023-08-24 05:00:00,8月24日 5時時点,73406,23.1,33.36666666666667,132.50333333333333,宇和,注意
2023-08-24 05:00:00,8月24日 5時時点,73442,24.7,33.22666666666667,132.55166666666668,宇和島,注意
2023-08-24 05:00:00,8月24日 5時時点,73446,23.5,33.25333333333333,132.675,近永,注意
2023-08-24 05:00:00,8月24日 5時時点,73516,23.9,32.96333333333333,132.57,御荘,注意
2023-08-24 05:00:00,8月24日 5時時点,74056,19.9,33.765,133.33833333333334,本川,ほぼ安全
2023-08-24 05:00:00,8月24日 5時時点,74071,21.6,33.75333333333333,133.575,本山,注意
2023-08-24 05:00:00,8月24日 5時時点,74136,21.5,33.69833333333333,133.875,大栃,注意
2023-08-24 05:00:00,8月24日 5時時点,74182,22.9,33.56666666666667,133.54833333333335,高知,注意
2023-08-24 05:00:00,8月24日 5時時点,74187,22.9,33.59,133.64333333333335,後免,注意
2023-08-24 05:00:00,8月24日 5時時点,74271,24.7,33.48833333333334,133.93333333333334,安芸,注意
2023-08-24 05:00:00,8月24日 5時時点,74296,21.7,33.39,132.92166666666665,梼原,注意
2023-08-24 05:00:00,8月24日 5時時点,74311,23.0,33.385,133.27666666666667,須崎,注意
2023-08-24 05:00:00,8月24日 5時時点,74361,22.3,33.20666666666666,133.12833333333333,窪川,注意
2023-08-24 05:00:00,8月24日 5時時点,74372,24.9,33.251666666666665,134.17666666666668,室戸岬,注意
2023-08-24 05:00:00,8月24日 5時時点,74381,23.8,33.17,132.79166666666666,江川崎,注意
2023-08-24 05:00:00,8月24日 5時時点,74436,23.4,33.07833333333333,133.10166666666666,佐賀,注意
2023-08-24 05:00:00,8月24日 5時時点,74447,25.0,32.92,132.695,宿毛,警戒
2023-08-24 05:00:00,8月24日 5時時点,74456,24.0,32.99,132.92,中村,注意
2023-08-24 05:00:00,8月24日 5時時点,74516,25.7,32.721666666666664,133.01,清水,警戒
2023-08-24 05:00:00,8月24日 5時時点,82046,25.2,33.80833333333333,130.53833333333333,宗像,警戒
2023-08-24 05:00:00,8月24日 5時時点,82056,25.8,33.85166666666667,130.74333333333334,八幡,警戒
2023-08-24 05:00:00,8月24日 5時時点,82101,25.2,33.71333333333333,130.975,行橋,警戒
2023-08-24 05:00:00,8月24日 5時時点,82136,25.0,33.651666666666664,130.69333333333333,飯塚,警戒
2023-08-24 05:00:00,8月24日 5時時点,82171,26.4,33.56,130.19,前原,警戒
2023-08-24 05:00:00,8月24日 5時時点,82182,25.8,33.58166666666666,130.375,福岡,警戒
2023-08-24 05:00:00,8月24日 5時時点,82191,25.4,33.49666666666667,130.49,太宰府,警戒
2023-08-24 05:00:00,8月24日 5時時点,82206,23.9,33.55833333333333,130.855,添田,注意
2023-08-24 05:00:00,8月24日 5時時点,82261,24.7,33.406666666666666,130.695,朝倉,注意
2023-08-24 05:00:00,8月24日 5時時点,82306,26.2,33.303333333333335,130.49333333333334,久留米,警戒
2023-08-24 05:00:00,8月24日 5時時点,82317,24.2,33.225,130.645,黒木,注意
2023-08-24 05:00:00,8月24日 5時時点,82361,25.4,33.00666666666667,130.46666666666667,大牟田,警戒
2023-08-24 05:00:00,8月24日 5時時点,83021,24.2,33.678333333333335,131.575,国見,注意
2023-08-24 05:00:00,8月24日 5時時点,83051,24.7,33.586666666666666,131.245,中津,注意
2023-08-24 05:00:00,8月24日 5時時点,83061,24.8,33.57,131.43333333333334,豊後高田,注意
2023-08-24 05:00:00,8月24日 5時時点,83106,23.9,33.42,131.31666666666666,院内,注意
2023-08-24 05:00:00,8月24日 5時時点,83121,24.4,33.416666666666664,131.59666666666666,杵築,注意
2023-08-24 05:00:00,8月24日 5時時点,83137,24.6,33.321666666666665,130.92833333333334,日田,注意
2023-08-24 05:00:00,8月24日 5時時点,83191,22.0,33.291666666666664,131.155,玖珠,注意
2023-08-24 05:00:00,8月24日 5時時点,83201,21.3,33.25333333333333,131.34666666666666,湯布院,注意
2023-08-24 05:00:00,8月24日 5時時点,83216,25.2,33.235,131.61833333333334,大分,警戒
2023-08-24 05:00:00,8月24日 5時時点,83341,24.2,33.065,131.63166666666666,犬飼,注意
2023-08-24 05:00:00,8月24日 5時時点,83371,23.7,32.973333333333336,131.39833333333334,竹田,注意
2023-08-24 05:00:00,8月24日 5時時点,83401,24.3,32.95,131.90166666666667,佐伯,注意
2023-08-24 05:00:00,8月24日 5時時点,83431,23.1,32.845,131.675,宇目,注意
2023-08-24 05:00:00,8月24日 5時時点,83476,25.1,32.795,131.92333333333335,蒲江,警戒
2023-08-24 05:00:00,8月24日 5時時点,84012,24.7,34.69833333333333,129.445,鰐浦,注意
2023-08-24 05:00:00,8月24日 5時時点,84072,26.1,34.196666666666665,129.29166666666666,厳原,警戒
2023-08-24 05:00:00,8月24日 5時時点,84121,25.3,33.8,129.72166666666666,芦辺,警戒
2023-08-24 05:00:00,8月24日 5時時点,84171,25.3,33.36,129.55,平戸,警戒
2023-08-24 05:00:00,8月24日 5時時点,84183,25.5,33.34166666666667,129.71166666666667,松浦,警戒
2023-08-24 05:00:00,8月24日 5時時点,84266,26.5,33.15833333333333,129.72666666666666,佐世保,警戒
2023-08-24 05:00:00,8月24日 5時時点,84306,25.9,33.013333333333335,129.65166666666667,西海,警戒
2023-08-24 05:00:00,8月24日 5時時点,84341,26.9,32.98166666666667,129.11833333333334,有川,警戒
2023-08-24 05:00:00,8月24日 5時時点,84496,25.3,32.733333333333334,129.86666666666667,長崎,警戒
2023-08-24 05:00:00,8月24日 5時時点,84519,22.5,32.736666666666665,130.26166666666666,雲仙岳,注意
2023-08-24 05:00:00,8月24日 5時時点,84523,27.0,32.76,130.36166666666668,島原,警戒
2023-08-24 05:00:00,8月24日 5時時点,84536,26.3,32.693333333333335,128.82666666666665,福江,警戒
2023-08-24 05:00:00,8月24日 5時時点,84561,25.7,32.611666666666665,130.19333333333333,口之津,警戒
2023-08-24 05:00:00,8月24日 5時時点,84597,27.1,32.58166666666666,129.77666666666667,脇岬,警戒
2023-08-24 05:00:00,8月24日 5時時点,85033,26.0,33.458333333333336,129.955,唐津,警戒
2023-08-24 05:00:00,8月24日 5時時点,85116,25.1,33.266666666666666,129.87833333333333,伊万里,警戒
2023-08-24 05:00:00,8月24日 5時時点,85142,26.2,33.265,130.305,佐賀,警戒
2023-08-24 05:00:00,8月24日 5時時点,85161,23.6,33.11666666666667,129.995,嬉野,注意
2023-08-24 05:00:00,8月24日 5時時点,85166,25.3,33.18333333333333,130.14833333333334,白石,警戒
2023-08-24 05:00:00,8月24日 5時時点,86006,23.8,33.115,130.69166666666666,鹿北,注意
2023-08-24 05:00:00,8月24日 5時時点,86066,21.2,33.10333333333333,131.06666666666666,南小国,注意
2023-08-24 05:00:00,8月24日 5時時点,86086,25.4,32.915,130.51166666666666,岱明,警戒
2023-08-24 05:00:00,8月24日 5時時点,86101,25.2,32.945,130.78166666666667,菊池,警戒
2023-08-24 05:00:00,8月24日 5時時点,86111,22.4,32.946666666666665,131.04,阿蘇乙姫,注意
2023-08-24 05:00:00,8月24日 5時時点,86141,25.4,32.81333333333333,130.70666666666668,熊本,警戒
2023-08-24 05:00:00,8月24日 5時時点,86157,21.8,32.83166666666666,131.01333333333332,南阿蘇,注意
2023-08-24 05:00:00,8月24日 5時時点,86161,21.4,32.821666666666665,131.125,高森,注意
2023-08-24 05:00:00,8月24日 5時時点,86216,25.1,32.611666666666665,130.47833333333332,三角,警戒
2023-08-24 05:00:00,8月24日 5時時点,86236,25.0,32.67166666666667,130.81666666666666,甲佐,警戒
2023-08-24 05:00:00,8月24日 5時時点,86271,24.8,32.515,130.44666666666666,松島,注意
2023-08-24 05:00:00,8月24日 5時時点,86316,24.6,32.468333333333334,130.18,本渡,注意
2023-08-24 05:00:00,8月24日 5時時点,86336,24.8,32.473333333333336,130.60666666666665,八代,注意
2023-08-24 05:00:00,8月24日 5時時点,86451,24.9,32.205,130.40666666666667,水俣,注意
2023-08-24 05:00:00,8月24日 5時時点,86467,24.4,32.21666666666667,130.755,人吉,注意
2023-08-24 05:00:00,8月24日 5時時点,86477,23.7,32.225,130.905,上,注意
2023-08-24 05:00:00,8月24日 5時時点,86491,26.3,32.196666666666665,130.02666666666667,牛深,警戒
2023-08-24 05:00:00,8月24日 5時時点,87041,23.1,32.711666666666666,131.29,高千穂,注意
2023-08-24 05:00:00,8月24日 5時時点,87066,24.5,32.711666666666666,131.82,古江,注意
2023-08-24 05:00:00,8月24日 5時時点,87071,19.8,32.64333333333333,131.15666666666667,鞍岡,ほぼ安全
2023-08-24 05:00:00,8月24日 5時時点,87141,24.5,32.58166666666666,131.65666666666667,延岡,注意
2023-08-24 05:00:00,8月24日 5時時点,87181,24.2,32.40833333333333,131.6,日向,注意
2023-08-24 05:00:00,8月24日 5時時点,87206,22.5,32.385,131.33166666666668,神門,注意
2023-08-24 05:00:00,8月24日 5時時点,87231,22.4,32.24,131.15166666666667,西米良,注意
2023-08-24 05:00:00,8月24日 5時時点,87293,23.9,32.123333333333335,131.475,高鍋,注意
2023-08-24 05:00:00,8月24日 5時時点,87301,23.7,32.04666666666667,130.81,加久藤,注意
2023-08-24 05:00:00,8月24日 5時時点,87331,23.9,32.06333333333333,131.41333333333333,西都,注意
2023-08-24 05:00:00,8月24日 5時時点,87352,24.0,32.0,130.95333333333335,小林,注意
2023-08-24 05:00:00,8月24日 5時時点,87376,24.5,31.938333333333333,131.41333333333333,宮崎,注意
2023-08-24 05:00:00,8月24日 5時時点,87406,23.9,31.843333333333334,131.30833333333334,田野,注意
2023-08-24 05:00:00,8月24日 5時時点,87426,23.7,31.73,131.08166666666668,都城,注意
2023-08-24 05:00:00,8月24日 5時時点,87492,25.2,31.578333333333333,131.40666666666667,油津,警戒
2023-08-24 05:00:00,8月24日 5時時点,87501,24.8,31.465,131.22,串間,注意
2023-08-24 05:00:00,8月24日 5時時点,88061,25.5,32.026666666666664,130.2,阿久根,警戒
2023-08-24 05:00:00,8月24日 5時時点,88081,23.8,32.04666666666667,130.62666666666667,大口,注意
2023-08-24 05:00:00,8月24日 5時時点,88107,24.9,31.916666666666668,130.455,さつま柏原,注意
2023-08-24 05:00:00,8月24日 5時時点,88131,25.6,31.835,129.86666666666667,中甑,警戒
2023-08-24 05:00:00,8月24日 5時時点,88151,25.4,31.833333333333332,130.315,川内,警戒
2023-08-24 05:00:00,8月24日 5時時点,88261,25.7,31.668333333333333,130.32833333333335,東市来,警戒
2023-08-24 05:00:00,8月24日 5時時点,88286,23.6,31.661666666666665,130.84333333333333,牧之原,注意
2023-08-24 05:00:00,8月24日 5時時点,88317,26.3,31.555,130.54666666666665,鹿児島,警戒
2023-08-24 05:00:00,8月24日 5時時点,88331,23.8,31.588333333333335,130.855,輝北,注意
2023-08-24 05:00:00,8月24日 5時時点,88371,25.3,31.415,130.325,加世田,警戒
2023-08-24 05:00:00,8月24日 5時時点,88406,24.8,31.47833333333333,131.095,志布志,注意
2023-08-24 05:00:00,8月24日 5時時点,88432,25.1,31.386666666666667,130.54,喜入,警戒
2023-08-24 05:00:00,8月24日 5時時点,88442,25.0,31.391666666666666,130.86333333333334,鹿屋,警戒
2023-08-24 05:00:00,8月24日 5時時点,88447,24.8,31.34,130.93833333333333,肝付前田,注意
2023-08-24 05:00:00,8月24日 5時時点,88466,25.4,31.27166666666667,130.29166666666666,枕崎,警戒
2023-08-24 05:00:00,8月24日 5時時点,88486,25.8,31.25,130.63666666666666,指宿,警戒
2023-08-24 05:00:00,8月24日 5時時点,88506,23.9,31.276666666666667,131.055,内之浦,注意
2023-08-24 05:00:00,8月24日 5時時点,88536,23.3,31.198333333333334,130.84333333333333,田代,注意
2023-08-24 05:00:00,8月24日 5時時点,88612,25.7,30.72,130.98166666666665,種子島,警戒
2023-08-24 05:00:00,8月24日 5時時点,88666,26.1,30.406666666666666,130.90166666666667,上中,警戒
2023-08-24 05:00:00,8月24日 5時時点,88686,24.9,30.385,130.65833333333333,屋久島,注意
2023-08-24 05:00:00,8月24日 5時時点,88706,25.3,30.235,130.555,尾之間,警戒
2023-08-24 05:00:00,8月24日 5時時点,88736,24.4,29.84,129.86666666666667,中之島,注意
2023-08-24 05:00:00,8月24日 5時時点,88836,24.6,28.378333333333334,129.495,名瀬,注意
2023-08-24 05:00:00,8月24日 5時時点,88901,26.0,28.143333333333334,129.315,古仁屋,警戒
2023-08-24 05:00:00,8月24日 5時時点,88956,25.3,27.676666666666666,128.97333333333333,伊仙,警戒
2023-08-24 05:00:00,8月24日 5時時点,88971,26.3,27.431666666666665,128.705,沖永良部,警戒
2023-08-24 05:00:00,8月24日 5時時点,91011,25.2,26.948333333333334,127.94,伊是名,警戒
2023-08-24 05:00:00,8月24日 5時時点,91021,24.4,26.835,128.27166666666668,奥,注意
2023-08-24 05:00:00,8月24日 5時時点,91107,26.7,26.593333333333334,127.965,名護,警戒
2023-08-24 05:00:00,8月24日 5時時点,91146,25.7,26.336666666666666,126.80333333333333,久米島,警戒
2023-08-24 05:00:00,8月24日 5時時点,91166,26.2,26.363333333333333,127.97166666666666,宮城島,警戒
2023-08-24 05:00:00,8月24日 5時時点,91181,25.2,26.21,127.36333333333333,渡嘉敷,警戒
2023-08-24 05:00:00,8月24日 5時時点,91197,26.7,26.206666666666667,127.68666666666667,那覇,警戒
2023-08-24 05:00:00,8月24日 5時時点,91241,25.7,26.153333333333332,127.765,糸数,警戒
2023-08-24 05:00:00,8月24日 5時時点,92011,26.7,25.828333333333333,131.22833333333332,南大東,警戒
2023-08-24 05:00:00,8月24日 5時時点,93041,26.7,24.793333333333333,125.27833333333334,宮古島,警戒
2023-08-24 05:00:00,8月24日 5時時点,94001,26.8,24.506666666666668,124.28,伊原間,警戒
2023-08-24 05:00:00,8月24日 5時時点,94017,25.7,24.466666666666665,123.01,与那国島,警戒
2023-08-24 05:00:00,8月24日 5時時点,94062,26.3,24.426666666666666,123.765,西表島,警戒
2023-08-24 05:00:00,8月24日 5時時点,94081,26.9,24.336666666666666,124.16333333333333,石垣島,警戒
2023-08-24 05:00:00,8月24日 5時時点,94101,26.0,24.265,123.87166666666667,大原,警戒
2023-08-24 05:00:00,8月24日 5時時点,94116,25.7,24.055,123.76666666666667,波照間,警戒
