date_dt,date_popup,amdno,wbgt,lat,lon,kjName,guideline
2023-08-10 19:00:00,8月10日 19時時点,11001,16.3,45.52,141.935,宗谷岬,ほぼ安全
2023-08-10 19:00:00,8月10日 19時時点,11016,16.9,45.415,141.67833333333334,稚内,ほぼ安全
2023-08-10 19:00:00,8月10日 19時時点,11046,17.3,45.305,141.045,礼文,ほぼ安全
2023-08-10 19:00:00,8月10日 19時時点,11076,16.6,45.335,142.17,浜鬼志別,ほぼ安全
2023-08-10 19:00:00,8月10日 19時時点,11121,16.3,45.248333333333335,141.85166666666666,沼川,ほぼ安全
2023-08-10 19:00:00,8月10日 19時時点,11151,21.4,45.178333333333335,141.13833333333332,沓形,注意
2023-08-10 19:00:00,8月10日 19時時点,11176,16.5,45.10166666666667,141.78,豊富,ほぼ安全
2023-08-10 19:00:00,8月10日 19時時点,11206,17.0,45.125,142.35,浜頓別,ほぼ安全
2023-08-10 19:00:00,8月10日 19時時点,11276,18.3,44.965,142.28,中頓別,ほぼ安全
2023-08-10 19:00:00,8月10日 19時時点,11291,17.8,44.94,142.585,北見枝幸,ほぼ安全
2023-08-10 19:00:00,8月10日 19時時点,11316,17.6,44.84166666666667,142.48,歌登,ほぼ安全
2023-08-10 19:00:00,8月10日 19時時点,12011,19.2,44.82833333333333,142.07666666666665,中川,ほぼ安全
2023-08-10 19:00:00,8月10日 19時時点,12041,18.4,44.72666666666667,142.265,音威子府,ほぼ安全
2023-08-10 19:00:00,8月10日 19時時点,12141,19.8,44.48,142.34166666666667,美深,ほぼ安全
2023-08-10 19:00:00,8月10日 19時時点,12181,20.7,44.37,142.45666666666668,名寄,ほぼ安全
2023-08-10 19:00:00,8月10日 19時時点,12231,20.3,44.295,142.63666666666666,下川,ほぼ安全
2023-08-10 19:00:00,8月10日 19時時点,12261,22.0,44.18666666666667,142.41666666666666,士別,注意
2023-08-10 19:00:00,8月10日 19時時点,12266,25.6,44.11833333333333,142.595,朝日,警戒
2023-08-10 19:00:00,8月10日 19時時点,12301,25.7,44.028333333333336,142.41,和寒,警戒
2023-08-10 19:00:00,8月10日 19時時点,12386,24.9,43.87,142.26,江丹別,注意
2023-08-10 19:00:00,8月10日 19時時点,12396,24.2,43.87,142.47,比布,注意
2023-08-10 19:00:00,8月10日 19時時点,12411,24.4,43.846666666666664,142.75333333333333,上川,注意
2023-08-10 19:00:00,8月10日 19時時点,12442,25.2,43.75666666666667,142.37166666666667,旭川,警戒
2023-08-10 19:00:00,8月10日 19時時点,12451,26.1,43.70166666666667,142.50833333333333,東川,警戒
2023-08-10 19:00:00,8月10日 19時時点,12512,25.0,43.64333333333333,142.58166666666668,志比内,警戒
2023-08-10 19:00:00,8月10日 19時時点,12551,24.8,43.58833333333333,142.49333333333334,美瑛,注意
2023-08-10 19:00:00,8月10日 19時時点,12596,25.2,43.455,142.465,上富良野,警戒
2023-08-10 19:00:00,8月10日 19時時点,12626,25.1,43.333333333333336,142.4,富良野,警戒
2023-08-10 19:00:00,8月10日 19時時点,12632,24.7,43.30166666666667,142.52166666666668,麓郷,注意
2023-08-10 19:00:00,8月10日 19時時点,12691,24.7,43.16833333333334,142.56833333333333,幾寅,注意
2023-08-10 19:00:00,8月10日 19時時点,12746,20.6,42.97833333333333,142.395,占冠,ほぼ安全
2023-08-10 19:00:00,8月10日 19時時点,15041,23.5,44.281666666666666,142.16166666666666,朱鞠内,注意
2023-08-10 19:00:00,8月10日 19時時点,15076,24.6,44.01,142.16,幌加内,注意
2023-08-10 19:00:00,8月10日 19時時点,13061,17.2,44.89333333333333,141.76166666666666,天塩,ほぼ安全
2023-08-10 19:00:00,8月10日 19時時点,13086,19.8,44.718333333333334,141.80666666666667,遠別,ほぼ安全
2023-08-10 19:00:00,8月10日 19時時点,13121,20.7,44.52333333333333,141.77,初山別,ほぼ安全
2023-08-10 19:00:00,8月10日 19時時点,13146,17.9,44.428333333333335,141.42166666666665,焼尻,ほぼ安全
2023-08-10 19:00:00,8月10日 19時時点,13181,23.0,44.36333333333334,141.7,羽幌,注意
2023-08-10 19:00:00,8月10日 19時時点,13261,26.0,44.04833333333333,141.85666666666665,達布,警戒
2023-08-10 19:00:00,8月10日 19時時点,13277,24.8,43.945,141.63166666666666,留萌,注意
2023-08-10 19:00:00,8月10日 19時時点,13311,24.4,43.848333333333336,141.51,増毛,注意
2023-08-10 19:00:00,8月10日 19時時点,13321,24.4,43.85333333333333,141.76,幌糠,注意
2023-08-10 19:00:00,8月10日 19時時点,14026,24.7,43.58166666666666,141.38666666666666,浜益,注意
2023-08-10 19:00:00,8月10日 19時時点,14071,24.7,43.39666666666667,141.43666666666667,厚田,注意
2023-08-10 19:00:00,8月10日 19時時点,14101,24.3,43.22,141.645,新篠津,注意
2023-08-10 19:00:00,8月10日 19時時点,14116,25.1,43.14833333333333,141.22166666666666,山口,警戒
2023-08-10 19:00:00,8月10日 19時時点,14121,24.3,43.193333333333335,141.37,石狩,注意
2023-08-10 19:00:00,8月10日 19時時点,14136,24.4,43.11,141.60166666666666,江別,注意
2023-08-10 19:00:00,8月10日 19時時点,14163,24.6,43.06,141.32833333333335,札幌,注意
2023-08-10 19:00:00,8月10日 19時時点,14206,24.1,42.92666666666667,141.565,恵庭島松,注意
2023-08-10 19:00:00,8月10日 19時時点,14286,21.7,42.77166666666667,141.40666666666667,支笏湖畔,注意
2023-08-10 19:00:00,8月10日 19時時点,15116,24.8,43.815,141.92666666666668,石狩沼田,注意
2023-08-10 19:00:00,8月10日 19時時点,15156,24.8,43.78,141.96166666666667,秩父別,注意
2023-08-10 19:00:00,8月10日 19時時点,15161,24.0,43.718333333333334,142.07333333333332,深川,注意
2023-08-10 19:00:00,8月10日 19時時点,15231,23.7,43.595,141.73166666666665,空知吉野,注意
2023-08-10 19:00:00,8月10日 19時時点,15241,24.9,43.57,141.93833333333333,滝川,注意
2023-08-10 19:00:00,8月10日 19時時点,15251,24.9,43.52,142.19,芦別,注意
2023-08-10 19:00:00,8月10日 19時時点,15311,24.7,43.33,141.61666666666667,月形,注意
2023-08-10 19:00:00,8月10日 19時時点,15321,24.8,43.36333333333334,141.82666666666665,美唄,注意
2023-08-10 19:00:00,8月10日 19時時点,15356,24.8,43.211666666666666,141.785,岩見沢,注意
2023-08-10 19:00:00,8月10日 19時時点,15431,25.1,43.01166666666666,141.69333333333333,長沼,警戒
2023-08-10 19:00:00,8月10日 19時時点,15442,23.1,43.038333333333334,141.95666666666668,夕張,注意
2023-08-10 19:00:00,8月10日 19時時点,16026,24.3,43.27166666666667,140.56333333333333,美国,注意
2023-08-10 19:00:00,8月10日 19時時点,16061,26.3,43.145,140.42333333333335,神恵内,警戒
2023-08-10 19:00:00,8月10日 19時時点,16076,24.7,43.181666666666665,140.75833333333333,余市,注意
2023-08-10 19:00:00,8月10日 19時時点,16091,25.9,43.181666666666665,141.015,小樽,警戒
2023-08-10 19:00:00,8月10日 19時時点,16156,26.8,42.98,140.60333333333332,共和,警戒
2023-08-10 19:00:00,8月10日 19時時点,16206,25.3,42.81,140.54166666666666,蘭越,警戒
2023-08-10 19:00:00,8月10日 19時時点,16217,24.2,42.9,140.75666666666666,倶知安,注意
2023-08-10 19:00:00,8月10日 19時時点,16252,24.6,42.795,140.22333333333333,寿都,注意
2023-08-10 19:00:00,8月10日 19時時点,16281,22.3,42.775,140.88,真狩,注意
2023-08-10 19:00:00,8月10日 19時時点,16286,22.8,42.79333333333334,140.94833333333332,喜茂別,注意
2023-08-10 19:00:00,8月10日 19時時点,16321,24.2,42.663333333333334,140.31,黒松内,注意
2023-08-10 19:00:00,8月10日 19時時点,17036,18.6,44.58,142.96333333333334,雄武,ほぼ安全
2023-08-10 19:00:00,8月10日 19時時点,17076,19.1,44.47,143.10833333333332,興部,ほぼ安全
2023-08-10 19:00:00,8月10日 19時時点,17091,18.9,44.33166666666666,142.935,西興部,ほぼ安全
2023-08-10 19:00:00,8月10日 19時時点,17112,18.9,44.345,143.355,紋別,ほぼ安全
2023-08-10 19:00:00,8月10日 19時時点,17166,19.4,44.21333333333333,143.61833333333334,湧別,ほぼ安全
2023-08-10 19:00:00,8月10日 19時時点,17196,19.8,44.17666666666667,143.06166666666667,滝上,ほぼ安全
2023-08-10 19:00:00,8月10日 19時時点,17246,19.4,44.115,144.03666666666666,常呂,ほぼ安全
2023-08-10 19:00:00,8月10日 19時時点,17306,19.4,44.053333333333335,143.54,遠軽,ほぼ安全
2023-08-10 19:00:00,8月10日 19時時点,17316,19.2,44.01833333333333,143.76,佐呂間,ほぼ安全
2023-08-10 19:00:00,8月10日 19時時点,17341,20.9,44.016666666666666,144.27833333333334,網走,ほぼ安全
2023-08-10 19:00:00,8月10日 19時時点,17351,22.3,44.05166666666667,144.98166666666665,宇登呂,注意
2023-08-10 19:00:00,8月10日 19時時点,17482,20.8,43.865,143.15333333333334,白滝,ほぼ安全
2023-08-10 19:00:00,8月10日 19時時点,17501,19.6,43.916666666666664,143.53166666666667,生田原,ほぼ安全
2023-08-10 19:00:00,8月10日 19時時点,17521,24.8,43.776666666666664,143.84166666666667,北見,注意
2023-08-10 19:00:00,8月10日 19時時点,17546,24.1,43.84166666666667,144.485,小清水,注意
2023-08-10 19:00:00,8月10日 19時時点,17561,24.1,43.885,144.7,斜里,注意
2023-08-10 19:00:00,8月10日 19時時点,17596,23.8,43.74166666666667,143.45,留辺蘂,注意
2023-08-10 19:00:00,8月10日 19時時点,17607,24.5,43.70666666666666,143.64333333333335,境野,注意
2023-08-10 19:00:00,8月10日 19時時点,17631,24.0,43.77,144.17166666666665,美幌,注意
2023-08-10 19:00:00,8月10日 19時時点,17717,24.7,43.70166666666667,144.03333333333333,津別,注意
2023-08-10 19:00:00,8月10日 19時時点,18038,24.3,44.02333333333333,145.18666666666667,羅臼,注意
2023-08-10 19:00:00,8月10日 19時時点,18136,25.0,43.66166666666667,145.13166666666666,標津,警戒
2023-08-10 19:00:00,8月10日 19時時点,18161,23.7,43.52,144.74666666666667,上標津,注意
2023-08-10 19:00:00,8月10日 19時時点,18171,24.4,43.54333333333334,144.97833333333332,中標津,注意
2023-08-10 19:00:00,8月10日 19時時点,18256,24.3,43.38166666666667,145.11833333333334,別海,注意
2023-08-10 19:00:00,8月10日 19時時点,18273,23.9,43.33,145.585,根室,注意
2023-08-10 19:00:00,8月10日 19時時点,18281,22.5,43.39333333333333,145.75833333333333,納沙布,注意
2023-08-10 19:00:00,8月10日 19時時点,18311,22.7,43.221666666666664,145.22666666666666,厚床,注意
2023-08-10 19:00:00,8月10日 19時時点,19021,22.9,43.61666666666667,144.45666666666668,川湯,注意
2023-08-10 19:00:00,8月10日 19時時点,19051,22.9,43.51,144.46666666666667,弟子屈,注意
2023-08-10 19:00:00,8月10日 19時時点,19076,22.9,43.43666666666667,144.08333333333334,阿寒湖畔,注意
2023-08-10 19:00:00,8月10日 19時時点,19151,24.1,43.291666666666664,144.58666666666667,標茶,注意
2023-08-10 19:00:00,8月10日 19時時点,19191,23.4,43.23166666666667,144.325,鶴居,注意
2023-08-10 19:00:00,8月10日 19時時点,19261,23.6,43.19833333333333,144.14166666666668,中徹別,注意
2023-08-10 19:00:00,8月10日 19時時点,19311,23.0,43.12,145.11,榊町,注意
2023-08-10 19:00:00,8月10日 19時時点,19376,23.2,43.09,144.77833333333334,太田,注意
2023-08-10 19:00:00,8月10日 19時時点,19416,21.0,42.97,144.06166666666667,白糠,注意
2023-08-10 19:00:00,8月10日 19時時点,19432,22.5,42.985,144.37666666666667,釧路,注意
2023-08-10 19:00:00,8月10日 19時時点,19451,22.3,42.93833333333333,144.735,知方学,注意
2023-08-10 19:00:00,8月10日 19時時点,20146,23.9,43.471666666666664,143.75333333333333,陸別,注意
2023-08-10 19:00:00,8月10日 19時時点,20186,22.7,43.36666666666667,143.19166666666666,ぬかびら源泉郷,注意
2023-08-10 19:00:00,8月10日 19時時点,20266,22.9,43.24166666666667,143.295,上士幌,注意
2023-08-10 19:00:00,8月10日 19時時点,20276,24.2,43.24333333333333,143.55333333333334,足寄,注意
2023-08-10 19:00:00,8月10日 19時時点,20341,23.8,43.13166666666667,143.6,本別,注意
2023-08-10 19:00:00,8月10日 19時時点,20356,24.9,43.07666666666667,142.84,新得,注意
2023-08-10 19:00:00,8月10日 19時時点,20361,24.3,43.10333333333333,142.995,鹿追,注意
2023-08-10 19:00:00,8月10日 19時時点,20371,23.2,43.05,143.18333333333334,駒場,注意
2023-08-10 19:00:00,8月10日 19時時点,20421,24.5,42.9,143.04333333333332,芽室,注意
2023-08-10 19:00:00,8月10日 19時時点,20432,23.8,42.92166666666667,143.21166666666667,帯広,注意
2023-08-10 19:00:00,8月10日 19時時点,20441,22.5,42.92,143.45833333333334,池田,注意
2023-08-10 19:00:00,8月10日 19時時点,20506,22.6,42.80833333333333,143.65666666666667,浦幌,注意
2023-08-10 19:00:00,8月10日 19時時点,20556,23.7,42.78666666666667,143.32833333333335,糠内,注意
2023-08-10 19:00:00,8月10日 19時時点,20601,21.5,42.641666666666666,143.09666666666666,上札内,注意
2023-08-10 19:00:00,8月10日 19時時点,20606,21.9,42.651666666666664,143.195,更別,注意
2023-08-10 19:00:00,8月10日 19時時点,20631,20.7,42.68666666666667,143.64666666666668,大津,ほぼ安全
2023-08-10 19:00:00,8月10日 19時時点,20696,22.6,42.5,143.27333333333334,大樹,注意
2023-08-10 19:00:00,8月10日 19時時点,20751,22.2,42.29333333333334,143.31666666666666,広尾,注意
2023-08-10 19:00:00,8月10日 19時時点,21111,23.9,42.73,141.88833333333332,厚真,注意
2023-08-10 19:00:00,8月10日 19時時点,21126,23.3,42.76166666666667,142.14333333333335,穂別,注意
2023-08-10 19:00:00,8月10日 19時時点,21161,22.0,42.67,141.07833333333335,大滝,注意
2023-08-10 19:00:00,8月10日 19時時点,21171,22.1,42.63,141.24666666666667,森野,注意
2023-08-10 19:00:00,8月10日 19時時点,21187,23.4,42.623333333333335,141.54666666666665,苫小牧,注意
2023-08-10 19:00:00,8月10日 19時時点,21226,25.4,42.59,140.64333333333335,大岸,警戒
2023-08-10 19:00:00,8月10日 19時時点,21261,23.0,42.54333333333334,141.35166666666666,白老,注意
2023-08-10 19:00:00,8月10日 19時時点,21276,24.8,42.59,141.93333333333334,鵡川,注意
2023-08-10 19:00:00,8月10日 19時時点,21297,25.1,42.475,140.84833333333333,伊達,警戒
2023-08-10 19:00:00,8月10日 19時時点,21312,22.2,42.458333333333336,141.11833333333334,登別,注意
2023-08-10 19:00:00,8月10日 19時時点,21323,23.3,42.31166666666667,140.975,室蘭,注意
2023-08-10 19:00:00,8月10日 19時時点,22036,22.6,42.876666666666665,142.44166666666666,日高,注意
2023-08-10 19:00:00,8月10日 19時時点,22141,24.4,42.49666666666667,142.05333333333334,日高門別,注意
2023-08-10 19:00:00,8月10日 19時時点,22156,24.1,42.54333333333334,142.33333333333334,新和,注意
2023-08-10 19:00:00,8月10日 19時時点,22241,24.5,42.343333333333334,142.36166666666668,静内,注意
2023-08-10 19:00:00,8月10日 19時時点,22291,25.0,42.245,142.66166666666666,三石,警戒
2023-08-10 19:00:00,8月10日 19時時点,22306,21.7,42.223333333333336,142.94833333333332,中杵臼,注意
2023-08-10 19:00:00,8月10日 19時時点,22327,24.1,42.16166666666667,142.77666666666667,浦河,注意
2023-08-10 19:00:00,8月10日 19時時点,22391,22.3,41.925,143.24333333333334,えりも岬,注意
2023-08-10 19:00:00,8月10日 19時時点,23031,22.9,42.52333333333333,140.38166666666666,長万部,注意
2023-08-10 19:00:00,8月10日 19時時点,23086,22.2,42.251666666666665,140.27166666666668,八雲,注意
2023-08-10 19:00:00,8月10日 19時時点,23166,23.0,42.06666666666667,140.58833333333334,森,注意
2023-08-10 19:00:00,8月10日 19時時点,23206,23.0,41.905,140.97,川汲,注意
2023-08-10 19:00:00,8月10日 19時時点,23226,23.3,41.88666666666667,140.65333333333334,北斗,注意
2023-08-10 19:00:00,8月10日 19時時点,23232,25.1,41.81666666666667,140.75333333333333,函館,警戒
2023-08-10 19:00:00,8月10日 19時時点,23326,26.3,41.68,140.43666666666667,木古内,警戒
2023-08-10 19:00:00,8月10日 19時時点,23376,27.9,41.42333333333333,140.08666666666667,松前,警戒
2023-08-10 19:00:00,8月10日 19時時点,24141,25.7,42.12833333333333,139.985,熊石,警戒
2023-08-10 19:00:00,8月10日 19時時点,24041,24.2,42.45,139.85166666666666,せたな,注意
2023-08-10 19:00:00,8月10日 19時時点,24051,24.6,42.428333333333335,140.00833333333333,今金,注意
2023-08-10 19:00:00,8月10日 19時時点,24101,26.8,42.248333333333335,139.55666666666667,奥尻,警戒
2023-08-10 19:00:00,8月10日 19時時点,24201,25.2,41.93,140.31166666666667,鶉,警戒
2023-08-10 19:00:00,8月10日 19時時点,24217,27.5,41.86666666666667,140.12333333333333,江差,警戒
2023-08-10 19:00:00,8月10日 19時時点,31001,25.1,41.526666666666664,140.91166666666666,大間,警戒
2023-08-10 19:00:00,8月10日 19時時点,31111,24.9,41.28333333333333,141.21,むつ,注意
2023-08-10 19:00:00,8月10日 19時時点,31121,22.1,41.235,141.39666666666668,小田野沢,注意
2023-08-10 19:00:00,8月10日 19時時点,31136,23.7,41.18,140.48166666666665,今別,注意
2023-08-10 19:00:00,8月10日 19時時点,31156,27.4,41.145,140.82166666666666,脇野沢,警戒
2023-08-10 19:00:00,8月10日 19時時点,31186,27.5,41.056666666666665,140.34666666666666,市浦,警戒
2023-08-10 19:00:00,8月10日 19時時点,31201,25.3,41.045,140.63333333333333,蟹田,警戒
2023-08-10 19:00:00,8月10日 19時時点,31296,27.6,40.80833333333333,140.45833333333334,五所川原,警戒
2023-08-10 19:00:00,8月10日 19時時点,31312,26.9,40.821666666666665,140.76833333333335,青森,警戒
2023-08-10 19:00:00,8月10日 19時時点,31332,25.2,40.885,141.16,野辺地,警戒
2023-08-10 19:00:00,8月10日 19時時点,31336,25.9,40.885,141.27166666666668,六ケ所,警戒
2023-08-10 19:00:00,8月10日 19時時点,31366,27.3,40.776666666666664,140.205,鰺ケ沢,警戒
2023-08-10 19:00:00,8月10日 19時時点,31436,26.4,40.645,139.93166666666667,深浦,警戒
2023-08-10 19:00:00,8月10日 19時時点,31461,27.0,40.611666666666665,140.455,弘前,警戒
2023-08-10 19:00:00,8月10日 19時時点,31466,26.4,40.666666666666664,140.585,黒石,警戒
2023-08-10 19:00:00,8月10日 19時時点,31482,20.5,40.64833333333333,140.84833333333333,酸ケ湯,ほぼ安全
2023-08-10 19:00:00,8月10日 19時時点,31506,26.0,40.675,141.375,三沢,警戒
2023-08-10 19:00:00,8月10日 19時時点,31586,24.7,40.60666666666667,141.23333333333332,十和田,注意
2023-08-10 19:00:00,8月10日 19時時点,31602,25.6,40.526666666666664,141.52166666666668,八戸,警戒
2023-08-10 19:00:00,8月10日 19時時点,31646,24.5,40.48166666666667,140.62,碇ケ関,注意
2023-08-10 19:00:00,8月10日 19時時点,31662,23.6,40.42666666666667,140.89833333333334,休屋,注意
2023-08-10 19:00:00,8月10日 19時時点,31721,24.7,40.38333333333333,141.25666666666666,三戸,注意
2023-08-10 19:00:00,8月10日 19時時点,32056,23.7,40.413333333333334,139.94833333333332,八森,注意
2023-08-10 19:00:00,8月10日 19時時点,32111,26.7,40.19833333333333,140.03166666666667,能代,警戒
2023-08-10 19:00:00,8月10日 19時時点,32126,25.0,40.22666666666667,140.37166666666667,鷹巣,警戒
2023-08-10 19:00:00,8月10日 19時時点,32136,23.1,40.251666666666665,140.505,大館,注意
2023-08-10 19:00:00,8月10日 19時時点,32146,24.3,40.215,140.78666666666666,鹿角,注意
2023-08-10 19:00:00,8月10日 19時時点,32206,21.2,40.12,140.84,湯瀬,注意
2023-08-10 19:00:00,8月10日 19時時点,32266,20.9,40.013333333333335,140.80166666666668,八幡平,ほぼ安全
2023-08-10 19:00:00,8月10日 19時時点,32286,24.2,39.91166666666667,139.9,男鹿,注意
2023-08-10 19:00:00,8月10日 19時時点,32287,24.5,40.0,139.95,大潟,注意
2023-08-10 19:00:00,8月10日 19時時点,32296,24.9,39.93833333333333,140.115,五城目,注意
2023-08-10 19:00:00,8月10日 19時時点,32311,23.0,39.99333333333333,140.40333333333334,阿仁合,注意
2023-08-10 19:00:00,8月10日 19時時点,32402,24.8,39.71666666666667,140.09833333333333,秋田,注意
2023-08-10 19:00:00,8月10日 19時時点,32407,24.6,39.70666666666666,140.28666666666666,岩見三内,注意
2023-08-10 19:00:00,8月10日 19時時点,32466,25.2,39.60333333333333,140.55666666666667,角館,警戒
2023-08-10 19:00:00,8月10日 19時時点,32476,24.0,39.69833333333333,140.73166666666665,田沢湖,注意
2023-08-10 19:00:00,8月10日 19時時点,32496,23.9,39.526666666666664,140.23333333333332,大正寺,注意
2023-08-10 19:00:00,8月10日 19時時点,32551,24.2,39.49,140.495,大曲,注意
2023-08-10 19:00:00,8月10日 19時時点,32571,24.0,39.36,140.055,本荘,注意
2023-08-10 19:00:00,8月10日 19時時点,32581,23.5,39.305,140.28833333333333,東由利,注意
2023-08-10 19:00:00,8月10日 19時時点,32596,26.0,39.32,140.555,横手,警戒
2023-08-10 19:00:00,8月10日 19時時点,32616,25.2,39.255,139.91333333333333,にかほ,警戒
2023-08-10 19:00:00,8月10日 19時時点,32626,22.9,39.235,140.13666666666666,矢島,注意
2023-08-10 19:00:00,8月10日 19時時点,32691,23.5,39.18666666666667,140.46333333333334,湯沢,注意
2023-08-10 19:00:00,8月10日 19時時点,32771,22.8,38.96,140.52833333333334,湯の岱,注意
2023-08-10 19:00:00,8月10日 19時時点,33006,22.9,40.403333333333336,141.7,種市,注意
2023-08-10 19:00:00,8月10日 19時時点,33026,23.6,40.325,141.46666666666667,軽米,注意
2023-08-10 19:00:00,8月10日 19時時点,33071,24.7,40.29833333333333,141.29833333333335,二戸,注意
2023-08-10 19:00:00,8月10日 19時時点,33136,21.2,40.14833333333333,141.57166666666666,山形,注意
2023-08-10 19:00:00,8月10日 19時時点,33146,26.4,40.16833333333334,141.74833333333333,久慈,警戒
2023-08-10 19:00:00,8月10日 19時時点,33166,24.1,40.10333333333333,141.05,荒屋,注意
2023-08-10 19:00:00,8月10日 19時時点,33176,21.9,40.06,141.225,奥中山,注意
2023-08-10 19:00:00,8月10日 19時時点,33186,22.5,40.04,141.45666666666668,葛巻,注意
2023-08-10 19:00:00,8月10日 19時時点,33206,24.7,40.00333333333333,141.88333333333333,普代,注意
2023-08-10 19:00:00,8月10日 19時時点,33226,23.4,39.95166666666667,141.065,岩手松尾,注意
2023-08-10 19:00:00,8月10日 19時時点,33296,24.4,39.86833333333333,141.16666666666666,好摩,注意
2023-08-10 19:00:00,8月10日 19時時点,33326,24.8,39.846666666666664,141.795,岩泉,注意
2023-08-10 19:00:00,8月10日 19時時点,33336,25.1,39.846666666666664,141.96333333333334,小本,警戒
2023-08-10 19:00:00,8月10日 19時時点,33371,19.9,39.78333333333333,141.32833333333335,薮川,ほぼ安全
2023-08-10 19:00:00,8月10日 19時時点,33421,24.5,39.696666666666665,140.975,雫石,注意
2023-08-10 19:00:00,8月10日 19時時点,33431,24.6,39.69833333333333,141.165,盛岡,注意
2023-08-10 19:00:00,8月10日 19時時点,33441,20.2,39.65,141.35333333333332,区界,ほぼ安全
2023-08-10 19:00:00,8月10日 19時時点,33472,24.5,39.64666666666667,141.965,宮古,注意
2023-08-10 19:00:00,8月10日 19時時点,33486,22.6,39.54833333333333,140.84333333333333,沢内,注意
2023-08-10 19:00:00,8月10日 19時時点,33501,23.5,39.54666666666667,141.12666666666667,紫波,注意
2023-08-10 19:00:00,8月10日 19時時点,33526,24.4,39.598333333333336,141.68166666666667,川井,注意
2023-08-10 19:00:00,8月10日 19時時点,33581,25.2,39.47,141.27833333333334,大迫,警戒
2023-08-10 19:00:00,8月10日 19時時点,33616,25.3,39.45,141.95666666666668,山田,警戒
2023-08-10 19:00:00,8月10日 19時時点,33631,23.8,39.31,140.77666666666667,湯田,注意
2023-08-10 19:00:00,8月10日 19時時点,33671,24.2,39.33833333333333,141.54333333333332,遠野,注意
2023-08-10 19:00:00,8月10日 19時時点,33716,25.1,39.288333333333334,141.11,北上,警戒
2023-08-10 19:00:00,8月10日 19時時点,33751,26.6,39.27,141.87833333333333,釜石,警戒
2023-08-10 19:00:00,8月10日 19時時点,33776,24.6,39.14,141.06333333333333,若柳,注意
2023-08-10 19:00:00,8月10日 19時時点,33781,25.5,39.18333333333333,141.16166666666666,江刺,警戒
2023-08-10 19:00:00,8月10日 19時時点,33801,24.9,39.141666666666666,141.57333333333332,住田,注意
2023-08-10 19:00:00,8月10日 19時時点,33877,25.4,39.06333333333333,141.71333333333334,大船渡,警戒
2023-08-10 19:00:00,8月10日 19時時点,33911,25.8,38.93333333333333,141.125,一関,警戒
2023-08-10 19:00:00,8月10日 19時時点,33921,23.9,38.92166666666667,141.33,千厩,注意
2023-08-10 19:00:00,8月10日 19時時点,34012,21.0,38.913333333333334,140.82833333333335,駒ノ湯,注意
2023-08-10 19:00:00,8月10日 19時時点,34026,24.6,38.906666666666666,141.55666666666667,気仙沼,注意
2023-08-10 19:00:00,8月10日 19時時点,34096,24.3,38.74333333333333,140.76,川渡,注意
2023-08-10 19:00:00,8月10日 19時時点,34111,25.4,38.735,141.005,築館,警戒
2023-08-10 19:00:00,8月10日 19時時点,34171,25.5,38.626666666666665,141.18833333333333,米山,警戒
2023-08-10 19:00:00,8月10日 19時時点,34186,25.3,38.681666666666665,141.44833333333332,志津川,警戒
2023-08-10 19:00:00,8月10日 19時時点,34216,25.3,38.598333333333336,140.91166666666666,古川,警戒
2023-08-10 19:00:00,8月10日 19時時点,34266,25.8,38.473333333333336,140.88833333333332,大衡,警戒
2023-08-10 19:00:00,8月10日 19時時点,34276,25.3,38.46,141.09166666666667,鹿島台,警戒
2023-08-10 19:00:00,8月10日 19時時点,34292,25.4,38.42666666666667,141.29833333333335,石巻,警戒
2023-08-10 19:00:00,8月10日 19時時点,34296,25.4,38.446666666666665,141.45,女川,警戒
2023-08-10 19:00:00,8月10日 19時時点,34311,24.5,38.303333333333335,140.63666666666666,新川,注意
2023-08-10 19:00:00,8月10日 19時時点,34331,25.3,38.33833333333333,141.01333333333332,塩釜,警戒
2023-08-10 19:00:00,8月10日 19時時点,34392,25.6,38.26166666666666,140.89666666666668,仙台,警戒
2023-08-10 19:00:00,8月10日 19時時点,34461,26.4,38.015,140.61166666666668,白石,警戒
2023-08-10 19:00:00,8月10日 19時時点,34462,26.1,38.126666666666665,140.68,蔵王,警戒
2023-08-10 19:00:00,8月10日 19時時点,34471,23.3,38.025,140.85833333333332,亘理,注意
2023-08-10 19:00:00,8月10日 19時時点,34506,24.6,37.931666666666665,140.77833333333334,丸森,注意
2023-08-10 19:00:00,8月10日 19時時点,35002,26.3,39.18333333333333,139.54333333333332,飛島,警戒
2023-08-10 19:00:00,8月10日 19時時点,35052,24.3,38.90833333333333,139.84333333333333,酒田,注意
2023-08-10 19:00:00,8月10日 19時時点,35071,23.4,38.91833333333334,140.2,差首鍋,注意
2023-08-10 19:00:00,8月10日 19時時点,35116,25.0,38.87833333333333,140.33166666666668,金山,警戒
2023-08-10 19:00:00,8月10日 19時時点,35141,25.8,38.735,139.82833333333335,鶴岡,警戒
2023-08-10 19:00:00,8月10日 19時時点,35146,23.7,38.8,139.97333333333333,狩川,注意
2023-08-10 19:00:00,8月10日 19時時点,35162,24.3,38.75666666666667,140.31166666666667,新庄,注意
2023-08-10 19:00:00,8月10日 19時時点,35176,24.0,38.75833333333333,140.51666666666668,向町,注意
2023-08-10 19:00:00,8月10日 19時時点,35216,23.5,38.60666666666667,140.16333333333333,肘折,注意
2023-08-10 19:00:00,8月10日 19時時点,35231,25.2,38.608333333333334,140.41166666666666,尾花沢,警戒
2023-08-10 19:00:00,8月10日 19時時点,35246,25.8,38.56666666666667,139.55166666666668,鼠ケ関,警戒
2023-08-10 19:00:00,8月10日 19時時点,35332,25.2,38.46,140.34833333333333,村山,警戒
2023-08-10 19:00:00,8月10日 19時時点,35361,21.2,38.39,139.99333333333334,大井沢,注意
2023-08-10 19:00:00,8月10日 19時時点,35376,24.4,38.37,140.19166666666666,左沢,注意
2023-08-10 19:00:00,8月10日 19時時点,35426,24.8,38.255,140.345,山形,注意
2023-08-10 19:00:00,8月10日 19時時点,35456,24.1,38.105,140.015,長井,注意
2023-08-10 19:00:00,8月10日 19時時点,35486,24.7,38.07833333333333,139.735,小国,注意
2023-08-10 19:00:00,8月10日 19時時点,35511,25.0,38.00333333333333,140.20666666666668,高畠,警戒
2023-08-10 19:00:00,8月10日 19時時点,35541,24.4,37.99,139.95333333333335,高峰,注意
2023-08-10 19:00:00,8月10日 19時時点,35552,24.7,37.91166666666667,140.14333333333335,米沢,注意
2023-08-10 19:00:00,8月10日 19時時点,36056,23.4,37.891666666666666,140.43666666666667,茂庭,注意
2023-08-10 19:00:00,8月10日 19時時点,36066,26.0,37.85166666666667,140.58833333333334,梁川,警戒
2023-08-10 19:00:00,8月10日 19時時点,36106,20.4,37.721666666666664,140.05833333333334,桧原,ほぼ安全
2023-08-10 19:00:00,8月10日 19時時点,36127,24.9,37.75833333333333,140.47,福島,注意
2023-08-10 19:00:00,8月10日 19時時点,36151,26.0,37.78333333333333,140.925,相馬,警戒
2023-08-10 19:00:00,8月10日 19時時点,36176,25.6,37.65833333333333,139.86333333333334,喜多方,警戒
2023-08-10 19:00:00,8月10日 19時時点,36196,17.1,37.66833333333334,140.26,鷲倉,ほぼ安全
2023-08-10 19:00:00,8月10日 19時時点,36221,22.1,37.665,140.72666666666666,飯舘,注意
2023-08-10 19:00:00,8月10日 19時時点,36251,24.7,37.58833333333333,139.65666666666667,西会津,注意
2023-08-10 19:00:00,8月10日 19時時点,36276,22.9,37.55166666666667,140.10833333333332,猪苗代,注意
2023-08-10 19:00:00,8月10日 19時時点,36291,24.6,37.583333333333336,140.43,二本松,注意
2023-08-10 19:00:00,8月10日 19時時点,36342,21.7,37.473333333333336,139.52833333333334,金山,注意
2023-08-10 19:00:00,8月10日 19時時点,36361,24.6,37.48833333333334,139.91,若松,注意
2023-08-10 19:00:00,8月10日 19時時点,36391,24.1,37.435,140.57666666666665,船引,注意
2023-08-10 19:00:00,8月10日 19時時点,36411,25.2,37.49166666666667,140.965,浪江,警戒
2023-08-10 19:00:00,8月10日 19時時点,36426,24.7,37.343333333333334,139.31333333333333,只見,注意
2023-08-10 19:00:00,8月10日 19時時点,36476,24.5,37.36833333333333,140.33,郡山,注意
2023-08-10 19:00:00,8月10日 19時時点,36501,22.7,37.336666666666666,140.80833333333334,川内,注意
2023-08-10 19:00:00,8月10日 19時時点,36536,22.6,37.265,139.53666666666666,南郷,注意
2023-08-10 19:00:00,8月10日 19時時点,36562,21.7,37.276666666666664,140.06333333333333,湯本,注意
2023-08-10 19:00:00,8月10日 19時時点,36591,23.1,37.28666666666667,140.625,小野新町,注意
2023-08-10 19:00:00,8月10日 19時時点,36611,25.7,37.233333333333334,141.0,広野,警戒
2023-08-10 19:00:00,8月10日 19時時点,36641,23.5,37.20666666666666,139.795,田島,注意
2023-08-10 19:00:00,8月10日 19時時点,36667,23.3,37.13166666666667,140.215,白河,注意
2023-08-10 19:00:00,8月10日 19時時点,36676,24.5,37.14666666666667,140.46,石川,注意
2023-08-10 19:00:00,8月10日 19時時点,36716,20.4,37.01,139.375,桧枝岐,ほぼ安全
2023-08-10 19:00:00,8月10日 19時時点,36821,24.8,36.93833333333333,140.40833333333333,東白川,注意
2023-08-10 19:00:00,8月10日 19時時点,36836,25.9,36.93333333333333,140.73333333333332,山田,警戒
2023-08-10 19:00:00,8月10日 19時時点,36846,26.3,36.946666666666665,140.90333333333334,小名浜,警戒
2023-08-10 19:00:00,8月10日 19時時点,40046,26.4,36.833333333333336,140.77166666666668,北茨城,警戒
2023-08-10 19:00:00,8月10日 19時時点,40061,24.1,36.778333333333336,140.345,大子,注意
2023-08-10 19:00:00,8月10日 19時時点,40091,25.2,36.60666666666667,140.325,常陸大宮,警戒
2023-08-10 19:00:00,8月10日 19時時点,40136,26.6,36.58,140.645,日立,警戒
2023-08-10 19:00:00,8月10日 19時時点,40191,25.8,36.395,140.24,笠間,警戒
2023-08-10 19:00:00,8月10日 19時時点,40201,26.2,36.38,140.46666666666667,水戸,警戒
2023-08-10 19:00:00,8月10日 19時時点,40221,25.8,36.20166666666667,139.71666666666667,古河,警戒
2023-08-10 19:00:00,8月10日 19時時点,40231,25.0,36.281666666666666,139.98833333333334,下館,警戒
2023-08-10 19:00:00,8月10日 19時時点,40281,24.9,36.16833333333334,139.945,下妻,注意
2023-08-10 19:00:00,8月10日 19時時点,40311,26.6,36.16833333333334,140.52666666666667,鉾田,警戒
2023-08-10 19:00:00,8月10日 19時時点,40336,25.7,36.056666666666665,140.125,つくば,警戒
2023-08-10 19:00:00,8月10日 19時時点,40341,25.9,36.10333333333333,140.22,土浦,警戒
2023-08-10 19:00:00,8月10日 19時時点,40406,26.5,35.96333333333333,140.62166666666667,鹿嶋,警戒
2023-08-10 19:00:00,8月10日 19時時点,40426,25.7,35.89,140.21166666666667,龍ケ崎,警戒
2023-08-10 19:00:00,8月10日 19時時点,41011,21.6,37.123333333333335,140.035,那須高原,注意
2023-08-10 19:00:00,8月10日 19時時点,41076,22.7,36.92166666666667,139.695,五十里,注意
2023-08-10 19:00:00,8月10日 19時時点,41091,23.9,36.98166666666667,140.01833333333335,黒磯,注意
2023-08-10 19:00:00,8月10日 19時時点,41116,19.6,36.891666666666666,139.56833333333333,土呂部,ほぼ安全
2023-08-10 19:00:00,8月10日 19時時点,41141,26.1,36.84,140.035,大田原,警戒
2023-08-10 19:00:00,8月10日 19時時点,41166,19.2,36.73833333333333,139.5,奥日光,ほぼ安全
2023-08-10 19:00:00,8月10日 19時時点,41172,23.6,36.75,139.615,日光東町,注意
2023-08-10 19:00:00,8月10日 19時時点,41181,24.4,36.75666666666667,139.88333333333333,塩谷,注意
2023-08-10 19:00:00,8月10日 19時時点,41247,25.1,36.641666666666666,140.11666666666667,那須烏山,警戒
2023-08-10 19:00:00,8月10日 19時時点,41271,25.6,36.59166666666667,139.735,鹿沼,警戒
2023-08-10 19:00:00,8月10日 19時時点,41277,25.5,36.54833333333333,139.86833333333334,宇都宮,警戒
2023-08-10 19:00:00,8月10日 19時時点,41331,25.5,36.47666666666667,139.98666666666668,真岡,警戒
2023-08-10 19:00:00,8月10日 19時時点,41361,27.1,36.36333333333334,139.57,佐野,警戒
2023-08-10 19:00:00,8月10日 19時時点,41376,25.6,36.33833333333333,139.83,小山,警戒
2023-08-10 19:00:00,8月10日 19時時点,42046,22.0,36.86333333333333,139.05833333333334,藤原,注意
2023-08-10 19:00:00,8月10日 19時時点,42091,23.3,36.77333333333333,138.965,みなかみ,注意
2023-08-10 19:00:00,8月10日 19時時点,42121,17.3,36.61666666666667,138.59166666666667,草津,ほぼ安全
2023-08-10 19:00:00,8月10日 19時時点,42146,24.5,36.66833333333334,139.02166666666668,沼田,注意
2023-08-10 19:00:00,8月10日 19時時点,42186,24.3,36.586666666666666,138.85,中之条,注意
2023-08-10 19:00:00,8月10日 19時時点,42221,17.3,36.46333333333333,138.46333333333334,田代,ほぼ安全
2023-08-10 19:00:00,8月10日 19時時点,42251,25.3,36.405,139.06,前橋,警戒
2023-08-10 19:00:00,8月10日 19時時点,42266,26.1,36.41,139.325,桐生,警戒
2023-08-10 19:00:00,8月10日 19時時点,42286,25.4,36.376666666666665,138.895,上里見,警戒
2023-08-10 19:00:00,8月10日 19時時点,42302,26.1,36.33166666666666,139.165,伊勢崎,警戒
2023-08-10 19:00:00,8月10日 19時時点,42326,22.1,36.245,138.70666666666668,西野牧,注意
2023-08-10 19:00:00,8月10日 19時時点,42366,26.0,36.24,139.51333333333332,館林,警戒
2023-08-10 19:00:00,8月10日 19時時点,42396,22.4,36.108333333333334,138.89666666666668,神流,注意
2023-08-10 19:00:00,8月10日 19時時点,43051,26.3,36.105,139.18333333333334,寄居,警戒
2023-08-10 19:00:00,8月10日 19時時点,43056,26.3,36.15,139.38,熊谷,警戒
2023-08-10 19:00:00,8月10日 19時時点,43126,25.9,36.086666666666666,139.635,久喜,警戒
2023-08-10 19:00:00,8月10日 19時時点,43156,25.4,35.99,139.07333333333332,秩父,警戒
2023-08-10 19:00:00,8月10日 19時時点,43171,26.8,35.985,139.335,鳩山,警戒
2023-08-10 19:00:00,8月10日 19時時点,43241,26.2,35.875,139.58666666666667,さいたま,警戒
2023-08-10 19:00:00,8月10日 19時時点,43256,26.6,35.88333333333333,139.75666666666666,越谷,警戒
2023-08-10 19:00:00,8月10日 19時時点,43266,25.4,35.77333333333333,139.41333333333333,所沢,警戒
2023-08-10 19:00:00,8月10日 19時時点,44046,22.8,35.791666666666664,139.05,小河内,注意
2023-08-10 19:00:00,8月10日 19時時点,44056,26.0,35.788333333333334,139.31166666666667,青梅,警戒
2023-08-10 19:00:00,8月10日 19時時点,44071,26.0,35.73833333333333,139.59166666666667,練馬,警戒
2023-08-10 19:00:00,8月10日 19時時点,44112,27.2,35.666666666666664,139.31666666666666,八王子,警戒
2023-08-10 19:00:00,8月10日 19時時点,44116,25.6,35.68333333333333,139.48333333333332,府中,警戒
2023-08-10 19:00:00,8月10日 19時時点,44132,26.2,35.69166666666667,139.75,東京,警戒
2023-08-10 19:00:00,8月10日 19時時点,44136,26.3,35.638333333333335,139.86333333333334,江戸川臨海,警戒
2023-08-10 19:00:00,8月10日 19時時点,44172,26.2,34.748333333333335,139.36166666666668,大島,警戒
2023-08-10 19:00:00,8月10日 19時時点,44226,26.2,34.123333333333335,139.52,三宅島,警戒
2023-08-10 19:00:00,8月10日 19時時点,44263,25.9,33.12166666666667,139.77833333333334,八丈島,警戒
2023-08-10 19:00:00,8月10日 19時時点,44301,26.1,27.091666666666665,142.19,父島,警戒
2023-08-10 19:00:00,8月10日 19時時点,45061,25.8,35.86333333333333,140.11,我孫子,警戒
2023-08-10 19:00:00,8月10日 19時時点,45081,25.7,35.858333333333334,140.50166666666667,香取,警戒
2023-08-10 19:00:00,8月10日 19時時点,45106,26.4,35.711666666666666,140.04333333333332,船橋,警戒
2023-08-10 19:00:00,8月10日 19時時点,45116,27.6,35.72833333333333,140.21166666666667,佐倉,警戒
2023-08-10 19:00:00,8月10日 19時時点,45147,26.0,35.73833333333333,140.85666666666665,銚子,警戒
2023-08-10 19:00:00,8月10日 19時時点,45181,25.8,35.655,140.505,横芝光,警戒
2023-08-10 19:00:00,8月10日 19時時点,45212,25.9,35.60166666666667,140.10333333333332,千葉,警戒
2023-08-10 19:00:00,8月10日 19時時点,45261,25.7,35.43666666666667,140.29333333333332,茂原,警戒
2023-08-10 19:00:00,8月10日 19時時点,45282,25.6,35.361666666666665,139.94,木更津,警戒
2023-08-10 19:00:00,8月10日 19時時点,45291,25.7,35.39666666666667,140.14833333333334,牛久,警戒
2023-08-10 19:00:00,8月10日 19時時点,45326,25.4,35.235,140.09833333333333,坂畑,警戒
2023-08-10 19:00:00,8月10日 19時時点,45361,26.8,35.111666666666665,140.1,鴨川,警戒
2023-08-10 19:00:00,8月10日 19時時点,45371,26.5,35.15,140.31166666666667,勝浦,警戒
2023-08-10 19:00:00,8月10日 19時時点,45401,26.0,34.986666666666665,139.865,館山,警戒
2023-08-10 19:00:00,8月10日 19時時点,46091,26.8,35.43333333333333,139.38666666666666,海老名,警戒
2023-08-10 19:00:00,8月10日 19時時点,46106,26.4,35.43833333333333,139.65166666666667,横浜,警戒
2023-08-10 19:00:00,8月10日 19時時点,46141,27.0,35.32,139.45,辻堂,警戒
2023-08-10 19:00:00,8月10日 19時時点,46166,27.4,35.276666666666664,139.155,小田原,警戒
2023-08-10 19:00:00,8月10日 19時時点,46211,26.0,35.178333333333335,139.63,三浦,警戒
2023-08-10 19:00:00,8月10日 19時時点,48031,18.1,36.91166666666667,138.44166666666666,野沢温泉,ほぼ安全
2023-08-10 19:00:00,8月10日 19時時点,48061,20.0,36.80833333333333,138.19666666666666,信濃町,ほぼ安全
2023-08-10 19:00:00,8月10日 19時時点,48066,23.6,36.875,138.375,飯山,注意
2023-08-10 19:00:00,8月10日 19時時点,48141,20.4,36.69833333333333,137.86166666666668,白馬,ほぼ安全
2023-08-10 19:00:00,8月10日 19時時点,48156,24.1,36.66166666666667,138.19166666666666,長野,注意
2023-08-10 19:00:00,8月10日 19時時点,48191,19.9,36.52333333333333,137.83166666666668,大町,ほぼ安全
2023-08-10 19:00:00,8月10日 19時時点,48196,21.7,36.54833333333333,137.99666666666667,信州新町,注意
2023-08-10 19:00:00,8月10日 19時時点,48216,16.6,36.531666666666666,138.325,菅平,ほぼ安全
2023-08-10 19:00:00,8月10日 19時時点,48256,23.7,36.4,138.265,上田,注意
2023-08-10 19:00:00,8月10日 19時時点,48296,22.8,36.343333333333334,137.88166666666666,穂高,注意
2023-08-10 19:00:00,8月10日 19時時点,48321,20.9,36.38333333333333,138.38333333333333,東御,ほぼ安全
2023-08-10 19:00:00,8月10日 19時時点,48331,20.7,36.34166666666667,138.54666666666665,軽井沢,ほぼ安全
2023-08-10 19:00:00,8月10日 19時時点,48361,22.5,36.24666666666667,137.97,松本,注意
2023-08-10 19:00:00,8月10日 19時時点,48381,21.6,36.27166666666667,138.31333333333333,立科,注意
2023-08-10 19:00:00,8月10日 19時時点,48386,23.7,36.24666666666667,138.47666666666666,佐久,注意
2023-08-10 19:00:00,8月10日 19時時点,48466,17.7,36.08833333333333,137.68333333333334,奈川,ほぼ安全
2023-08-10 19:00:00,8月10日 19時時点,48491,21.9,36.045,138.10833333333332,諏訪,注意
2023-08-10 19:00:00,8月10日 19時時点,48531,18.6,35.93833333333333,137.60166666666666,開田高原,ほぼ安全
2023-08-10 19:00:00,8月10日 19時時点,48536,19.8,35.93666666666667,137.78666666666666,木祖薮原,ほぼ安全
2023-08-10 19:00:00,8月10日 19時時点,48546,21.0,35.983333333333334,137.98333333333332,辰野,注意
2023-08-10 19:00:00,8月10日 19時時点,48561,18.5,35.97,138.22,原村,ほぼ安全
2023-08-10 19:00:00,8月10日 19時時点,48571,16.4,35.94833333333333,138.47166666666666,野辺山,ほぼ安全
2023-08-10 19:00:00,8月10日 19時時点,48606,20.8,35.84,137.68833333333333,木曽福島,ほぼ安全
2023-08-10 19:00:00,8月10日 19時時点,48621,23.1,35.825,137.955,伊那,注意
2023-08-10 19:00:00,8月10日 19時時点,48717,19.2,35.61,137.62,南木曽,ほぼ安全
2023-08-10 19:00:00,8月10日 19時時点,48731,19.3,35.653333333333336,137.89833333333334,飯島,ほぼ安全
2023-08-10 19:00:00,8月10日 19時時点,48767,21.7,35.52333333333333,137.82166666666666,飯田,注意
2023-08-10 19:00:00,8月10日 19時時点,48826,15.4,35.373333333333335,137.69166666666666,浪合,ほぼ安全
2023-08-10 19:00:00,8月10日 19時時点,48841,22.6,35.321666666666665,137.93166666666667,南信濃,注意
2023-08-10 19:00:00,8月10日 19時時点,49036,21.6,35.861666666666665,138.38666666666666,大泉,注意
2023-08-10 19:00:00,8月10日 19時時点,49086,21.6,35.693333333333335,138.44833333333332,韮崎,注意
2023-08-10 19:00:00,8月10日 19時時点,49142,25.2,35.666666666666664,138.55333333333334,甲府,警戒
2023-08-10 19:00:00,8月10日 19時時点,49151,25.5,35.663333333333334,138.725,勝沼,警戒
2023-08-10 19:00:00,8月10日 19時時点,49161,23.8,35.608333333333334,138.93833333333333,大月,注意
2023-08-10 19:00:00,8月10日 19時時点,49196,19.5,35.528333333333336,138.615,古関,ほぼ安全
2023-08-10 19:00:00,8月10日 19時時点,49236,23.8,35.46666666666667,138.44166666666666,切石,注意
2023-08-10 19:00:00,8月10日 19時時点,49251,20.7,35.5,138.76,河口湖,ほぼ安全
2023-08-10 19:00:00,8月10日 19時時点,49256,19.8,35.43666666666667,138.83666666666667,山中,ほぼ安全
2023-08-10 19:00:00,8月10日 19時時点,49316,25.0,35.288333333333334,138.445,南部,警戒
2023-08-10 19:00:00,8月10日 19時時点,50106,20.5,35.21666666666667,138.22166666666666,井川,ほぼ安全
2023-08-10 19:00:00,8月10日 19時時点,50136,23.0,35.305,138.92666666666668,御殿場,注意
2023-08-10 19:00:00,8月10日 19時時点,50196,25.5,35.185,138.66333333333333,富士,警戒
2023-08-10 19:00:00,8月10日 19時時点,50206,26.0,35.11333333333334,138.925,三島,警戒
2023-08-10 19:00:00,8月10日 19時時点,50226,24.4,35.056666666666665,137.76166666666666,佐久間,注意
2023-08-10 19:00:00,8月10日 19時時点,50241,23.2,35.10166666666667,138.12833333333333,川根本町,注意
2023-08-10 19:00:00,8月10日 19時時点,50261,26.5,35.053333333333335,138.52166666666668,清水,警戒
2023-08-10 19:00:00,8月10日 19時時点,50281,26.1,35.045,139.09166666666667,網代,警戒
2023-08-10 19:00:00,8月10日 19時時点,50331,26.2,34.975,138.40333333333334,静岡,警戒
2023-08-10 19:00:00,8月10日 19時時点,50386,25.2,34.89,137.81333333333333,天竜,警戒
2023-08-10 19:00:00,8月10日 19時時点,50456,26.2,34.75333333333333,137.71166666666667,浜松,警戒
2023-08-10 19:00:00,8月10日 19時時点,50476,25.2,34.785,138.13833333333332,菊川牧之原,警戒
2023-08-10 19:00:00,8月10日 19時時点,50491,26.6,34.755,138.78333333333333,松崎,警戒
2023-08-10 19:00:00,8月10日 19時時点,50506,25.3,34.781666666666666,139.04833333333335,稲取,警戒
2023-08-10 19:00:00,8月10日 19時時点,50536,25.8,34.69166666666667,137.88,磐田,警戒
2023-08-10 19:00:00,8月10日 19時時点,50551,26.2,34.60333333333333,138.21333333333334,御前崎,警戒
2023-08-10 19:00:00,8月10日 19時時点,50561,25.5,34.60333333333333,138.84166666666667,石廊崎,警戒
2023-08-10 19:00:00,8月10日 19時時点,51031,25.6,35.21666666666667,136.69833333333332,愛西,警戒
2023-08-10 19:00:00,8月10日 19時時点,51071,22.0,35.211666666666666,137.50666666666666,稲武,注意
2023-08-10 19:00:00,8月10日 19時時点,51106,25.6,35.166666666666664,136.965,名古屋,警戒
2023-08-10 19:00:00,8月10日 19時時点,51116,25.8,35.13166666666667,137.17666666666668,豊田,警戒
2023-08-10 19:00:00,8月10日 19時時点,51216,25.1,34.995,136.94333333333333,大府,警戒
2023-08-10 19:00:00,8月10日 19時時点,51226,25.4,34.91833333333334,137.19333333333333,岡崎,警戒
2023-08-10 19:00:00,8月10日 19時時点,51247,25.4,34.906666666666666,137.51833333333335,新城,警戒
2023-08-10 19:00:00,8月10日 19時時点,51281,25.4,34.845,137.21666666666667,蒲郡,警戒
2023-08-10 19:00:00,8月10日 19時時点,51311,25.8,34.74,136.93833333333333,南知多,警戒
2023-08-10 19:00:00,8月10日 19時時点,51331,26.1,34.75,137.34166666666667,豊橋,警戒
2023-08-10 19:00:00,8月10日 19時時点,51346,25.8,34.62833333333333,137.09333333333333,伊良湖,警戒
2023-08-10 19:00:00,8月10日 19時時点,52041,21.5,36.305,137.1,河合,注意
2023-08-10 19:00:00,8月10日 19時時点,52051,24.1,36.321666666666665,137.30833333333334,神岡,注意
2023-08-10 19:00:00,8月10日 19時時点,52081,24.3,36.27333333333333,136.89666666666668,白川,注意
2023-08-10 19:00:00,8月10日 19時時点,52111,18.9,36.248333333333335,137.50333333333333,栃尾,ほぼ安全
2023-08-10 19:00:00,8月10日 19時時点,52146,23.4,36.155,137.25333333333333,高山,注意
2023-08-10 19:00:00,8月10日 19時時点,52181,16.9,36.06,137.035,六厩,ほぼ安全
2023-08-10 19:00:00,8月10日 19時時点,52196,18.4,36.015,137.38833333333332,宮之前,ほぼ安全
2023-08-10 19:00:00,8月10日 19時時点,52221,22.9,35.92333333333333,136.83166666666668,長滝,注意
2023-08-10 19:00:00,8月10日 19時時点,52286,23.9,35.888333333333335,137.20666666666668,萩原,注意
2023-08-10 19:00:00,8月10日 19時時点,52331,24.5,35.75666666666667,136.97833333333332,八幡,注意
2023-08-10 19:00:00,8月10日 19時時点,52346,22.7,35.763333333333335,137.28833333333333,宮地,注意
2023-08-10 19:00:00,8月10日 19時時点,52381,24.9,35.638333333333335,136.60166666666666,樽見,注意
2023-08-10 19:00:00,8月10日 19時時点,52406,25.2,35.66166666666667,137.16,金山,警戒
2023-08-10 19:00:00,8月10日 19時時点,52461,26.0,35.555,136.91,美濃,警戒
2023-08-10 19:00:00,8月10日 19時時点,52482,22.9,35.598333333333336,137.31833333333333,黒川,注意
2023-08-10 19:00:00,8月10日 19時時点,52511,25.6,35.485,136.56666666666666,揖斐川,警戒
2023-08-10 19:00:00,8月10日 19時時点,52536,26.4,35.445,137.005,美濃加茂,警戒
2023-08-10 19:00:00,8月10日 19時時点,52556,24.5,35.446666666666665,137.40333333333334,恵那,注意
2023-08-10 19:00:00,8月10日 19時時点,52557,25.9,35.47666666666667,137.48666666666668,中津川,警戒
2023-08-10 19:00:00,8月10日 19時時点,52571,25.1,35.36333333333334,136.46666666666667,関ケ原,警戒
2023-08-10 19:00:00,8月10日 19時時点,52581,25.7,35.346666666666664,136.62,大垣,警戒
2023-08-10 19:00:00,8月10日 19時時点,52586,25.6,35.4,136.76166666666666,岐阜,警戒
2023-08-10 19:00:00,8月10日 19時時点,52606,26.4,35.346666666666664,137.10833333333332,多治見,警戒
2023-08-10 19:00:00,8月10日 19時時点,53041,26.5,35.05,136.69333333333333,桑名,警戒
2023-08-10 19:00:00,8月10日 19時時点,53061,26.1,34.94,136.58,四日市,警戒
2023-08-10 19:00:00,8月10日 19時時点,53091,25.9,34.87,136.45333333333335,亀山,警戒
2023-08-10 19:00:00,8月10日 19時時点,53112,24.8,34.76166666666667,136.14166666666668,上野,注意
2023-08-10 19:00:00,8月10日 19時時点,53133,26.7,34.733333333333334,136.51833333333335,津,警戒
2023-08-10 19:00:00,8月10日 19時時点,53196,25.6,34.528333333333336,136.665,小俣,警戒
2023-08-10 19:00:00,8月10日 19時時点,53231,24.7,34.44833333333333,136.39,粥見,注意
2023-08-10 19:00:00,8月10日 19時時点,53257,26.1,34.48166666666667,136.825,鳥羽,警戒
2023-08-10 19:00:00,8月10日 19時時点,53296,26.5,34.345,136.68166666666667,南伊勢,警戒
2023-08-10 19:00:00,8月10日 19時時点,53326,26.8,34.208333333333336,136.32666666666665,紀伊長島,警戒
2023-08-10 19:00:00,8月10日 19時時点,53378,26.3,34.068333333333335,136.19333333333333,尾鷲,警戒
2023-08-10 19:00:00,8月10日 19時時点,53401,26.5,33.931666666666665,136.13833333333332,熊野新鹿,警戒
2023-08-10 19:00:00,8月10日 19時時点,54012,26.6,38.465,139.25333333333333,粟島,警戒
2023-08-10 19:00:00,8月10日 19時時点,54041,24.8,38.33,138.51166666666666,弾崎,注意
2023-08-10 19:00:00,8月10日 19時時点,54086,26.0,38.22666666666667,139.47833333333332,村上,警戒
2023-08-10 19:00:00,8月10日 19時時点,54157,25.5,38.028333333333336,138.24,相川,警戒
2023-08-10 19:00:00,8月10日 19時時点,54166,26.0,38.07333333333333,138.44,両津,警戒
2023-08-10 19:00:00,8月10日 19時時点,54181,26.5,38.07666666666667,139.38833333333332,中条,警戒
2023-08-10 19:00:00,8月10日 19時時点,54191,25.5,38.09166666666667,139.56333333333333,下関,警戒
2023-08-10 19:00:00,8月10日 19時時点,54232,25.7,37.89333333333333,139.01833333333335,新潟,警戒
2023-08-10 19:00:00,8月10日 19時時点,54271,25.8,37.84166666666667,138.31333333333333,羽茂,警戒
2023-08-10 19:00:00,8月10日 19時時点,54296,25.0,37.791666666666664,139.08666666666667,新津,警戒
2023-08-10 19:00:00,8月10日 19時時点,54341,24.1,37.76833333333333,138.91333333333333,巻,注意
2023-08-10 19:00:00,8月10日 19時時点,54387,25.4,37.64,138.76666666666668,寺泊,警戒
2023-08-10 19:00:00,8月10日 19時時点,54396,27.6,37.64,138.955,三条,警戒
2023-08-10 19:00:00,8月10日 19時時点,54421,24.5,37.67166666666667,139.44666666666666,津川,注意
2023-08-10 19:00:00,8月10日 19時時点,54501,27.5,37.45,138.82333333333332,長岡,警戒
2023-08-10 19:00:00,8月10日 19時時点,54541,25.1,37.35166666666667,138.55333333333334,柏崎,警戒
2023-08-10 19:00:00,8月10日 19時時点,54566,26.3,37.346666666666664,139.04333333333332,守門,警戒
2023-08-10 19:00:00,8月10日 19時時点,54586,25.2,37.225,138.325,大潟,警戒
2023-08-10 19:00:00,8月10日 19時時点,54616,27.8,37.22666666666667,138.96333333333334,小出,警戒
2023-08-10 19:00:00,8月10日 19時時点,54651,25.6,37.10666666666667,138.24666666666667,高田,警戒
2023-08-10 19:00:00,8月10日 19時時点,54661,23.1,37.10666666666667,138.45666666666668,安塚,注意
2023-08-10 19:00:00,8月10日 19時時点,54676,24.4,37.14333333333333,138.72666666666666,十日町,注意
2023-08-10 19:00:00,8月10日 19時時点,54711,27.8,37.04333333333334,137.875,糸魚川,警戒
2023-08-10 19:00:00,8月10日 19時時点,54721,22.9,37.083333333333336,138.02333333333334,能生,注意
2023-08-10 19:00:00,8月10日 19時時点,54816,23.1,36.93333333333333,138.22166666666666,関山,注意
2023-08-10 19:00:00,8月10日 19時時点,54836,23.5,36.99666666666667,138.68333333333334,津南,注意
2023-08-10 19:00:00,8月10日 19時時点,54841,25.7,36.94166666666667,138.81,湯沢,警戒
2023-08-10 19:00:00,8月10日 19時時点,55022,26.4,36.93666666666667,137.56333333333333,朝日,警戒
2023-08-10 19:00:00,8月10日 19時時点,55041,27.0,36.86333333333333,136.96,氷見,警戒
2023-08-10 19:00:00,8月10日 19時時点,55056,28.7,36.821666666666665,137.42833333333334,魚津,厳重警戒
2023-08-10 19:00:00,8月10日 19時時点,55091,27.4,36.791666666666664,137.055,伏木,警戒
2023-08-10 19:00:00,8月10日 19時時点,55102,28.8,36.708333333333336,137.20166666666665,富山,厳重警戒
2023-08-10 19:00:00,8月10日 19時時点,55141,27.4,36.61,136.955,砺波,警戒
2023-08-10 19:00:00,8月10日 19時時点,55166,21.9,36.67,137.42333333333335,上市,注意
2023-08-10 19:00:00,8月10日 19時時点,55191,26.9,36.545,136.87166666666667,南砺高宮,警戒
2023-08-10 19:00:00,8月10日 19時時点,55206,25.2,36.57,137.15833333333333,八尾,警戒
2023-08-10 19:00:00,8月10日 19時時点,56036,27.5,37.446666666666665,137.28666666666666,珠洲,警戒
2023-08-10 19:00:00,8月10日 19時時点,56052,27.3,37.39,136.895,輪島,警戒
2023-08-10 19:00:00,8月10日 19時時点,56116,28.4,37.14333333333333,136.725,志賀,厳重警戒
2023-08-10 19:00:00,8月10日 19時時点,56146,26.9,37.03,136.99166666666667,七尾,警戒
2023-08-10 19:00:00,8月10日 19時時点,56176,29.7,36.89333333333333,136.77666666666667,羽咋,厳重警戒
2023-08-10 19:00:00,8月10日 19時時点,56186,26.9,36.711666666666666,136.69166666666666,かほく,警戒
2023-08-10 19:00:00,8月10日 19時時点,56227,27.6,36.58833333333333,136.63333333333333,金沢,警戒
2023-08-10 19:00:00,8月10日 19時時点,56276,26.4,36.38166666666667,136.435,小松,警戒
2023-08-10 19:00:00,8月10日 19時時点,56286,23.1,36.39666666666667,136.62,白山河内,注意
2023-08-10 19:00:00,8月10日 19時時点,56301,24.2,36.26166666666666,136.39666666666668,加賀中津原,注意
2023-08-10 19:00:00,8月10日 19時時点,57001,25.8,36.24333333333333,136.17333333333335,三国,警戒
2023-08-10 19:00:00,8月10日 19時時点,57051,25.7,36.01166666666666,135.99,越廼,警戒
2023-08-10 19:00:00,8月10日 19時時点,57066,25.9,36.055,136.22166666666666,福井,警戒
2023-08-10 19:00:00,8月10日 19時時点,57082,25.7,36.038333333333334,136.52166666666668,勝山,警戒
2023-08-10 19:00:00,8月10日 19時時点,57121,25.2,35.971666666666664,136.49666666666667,大野,警戒
2023-08-10 19:00:00,8月10日 19時時点,57206,25.1,35.766666666666666,136.2,今庄,警戒
2023-08-10 19:00:00,8月10日 19時時点,57248,25.2,35.653333333333336,136.06166666666667,敦賀,警戒
2023-08-10 19:00:00,8月10日 19時時点,57286,26.1,35.6,135.91666666666666,美浜,警戒
2023-08-10 19:00:00,8月10日 19時時点,57317,25.6,35.483333333333334,135.78166666666667,小浜,警戒
2023-08-10 19:00:00,8月10日 19時時点,60051,25.2,35.41166666666667,136.02833333333334,今津,警戒
2023-08-10 19:00:00,8月10日 19時時点,60061,24.7,35.42333333333333,136.24166666666667,長浜,注意
2023-08-10 19:00:00,8月10日 19時時点,60102,24.5,35.38333333333333,136.34333333333333,米原,注意
2023-08-10 19:00:00,8月10日 19時時点,60116,26.0,35.235,135.95666666666668,南小松,警戒
2023-08-10 19:00:00,8月10日 19時時点,60131,25.2,35.275,136.24333333333334,彦根,警戒
2023-08-10 19:00:00,8月10日 19時時点,60196,24.7,35.06166666666667,136.19,東近江,注意
2023-08-10 19:00:00,8月10日 19時時点,60216,25.3,34.99166666666667,135.91166666666666,大津,警戒
2023-08-10 19:00:00,8月10日 19時時点,60226,24.1,34.913333333333334,136.08,信楽,注意
2023-08-10 19:00:00,8月10日 19時時点,60236,24.2,34.93833333333333,136.27833333333334,土山,注意
2023-08-10 19:00:00,8月10日 19時時点,61001,26.1,35.736666666666665,135.08666666666667,間人,警戒
2023-08-10 19:00:00,8月10日 19時時点,61076,26.2,35.55,135.235,宮津,警戒
2023-08-10 19:00:00,8月10日 19時時点,61111,26.5,35.45,135.31666666666666,舞鶴,警戒
2023-08-10 19:00:00,8月10日 19時時点,61187,26.9,35.31166666666667,135.11333333333334,福知山,警戒
2023-08-10 19:00:00,8月10日 19時時点,61206,25.0,35.275,135.55,美山,警戒
2023-08-10 19:00:00,8月10日 19時時点,61242,25.3,35.108333333333334,135.455,園部,警戒
2023-08-10 19:00:00,8月10日 19時時点,61286,25.9,35.013333333333335,135.73166666666665,京都,警戒
2023-08-10 19:00:00,8月10日 19時時点,61326,25.6,34.83,135.76,京田辺,警戒
2023-08-10 19:00:00,8月10日 19時時点,62016,25.9,34.94833333333333,135.455,能勢,警戒
2023-08-10 19:00:00,8月10日 19時時点,62046,26.4,34.80833333333333,135.67166666666665,枚方,警戒
2023-08-10 19:00:00,8月10日 19時時点,62078,26.4,34.681666666666665,135.51833333333335,大阪,警戒
2023-08-10 19:00:00,8月10日 19時時点,62081,22.6,34.675,135.67666666666668,生駒山,注意
2023-08-10 19:00:00,8月10日 19時時点,62091,26.8,34.555,135.485,堺,警戒
2023-08-10 19:00:00,8月10日 19時時点,62131,25.9,34.385,135.35,熊取,警戒
2023-08-10 19:00:00,8月10日 19時時点,63016,26.2,35.625,134.62666666666667,香住,警戒
2023-08-10 19:00:00,8月10日 19時時点,63051,26.9,35.535,134.82166666666666,豊岡,警戒
2023-08-10 19:00:00,8月10日 19時時点,63071,23.8,35.431666666666665,134.58333333333334,兎和野高原,注意
2023-08-10 19:00:00,8月10日 19時時点,63121,26.2,35.32333333333333,134.84833333333333,和田山,警戒
2023-08-10 19:00:00,8月10日 19時時点,63201,24.9,35.166666666666664,134.79166666666666,生野,注意
2023-08-10 19:00:00,8月10日 19時時点,63216,25.7,35.13666666666666,135.065,柏原,警戒
2023-08-10 19:00:00,8月10日 19時時点,63251,25.2,35.096666666666664,134.585,一宮,警戒
2023-08-10 19:00:00,8月10日 19時時点,63321,26.4,34.95,134.74833333333333,福崎,警戒
2023-08-10 19:00:00,8月10日 19時時点,63331,26.2,34.998333333333335,134.99666666666667,西脇,警戒
2023-08-10 19:00:00,8月10日 19時時点,63366,25.9,34.858333333333334,134.37333333333333,上郡,警戒
2023-08-10 19:00:00,8月10日 19時時点,63383,26.2,34.83833333333333,134.67,姫路,警戒
2023-08-10 19:00:00,8月10日 19時時点,63411,25.3,34.895,135.21166666666667,三田,警戒
2023-08-10 19:00:00,8月10日 19時時点,63461,25.8,34.776666666666664,135.01333333333332,三木,警戒
2023-08-10 19:00:00,8月10日 19時時点,63491,25.4,34.67166666666667,134.52666666666667,家島,警戒
2023-08-10 19:00:00,8月10日 19時時点,63496,26.1,34.68666666666667,134.87666666666667,明石,警戒
2023-08-10 19:00:00,8月10日 19時時点,63518,27.5,34.696666666666665,135.21166666666667,神戸,警戒
2023-08-10 19:00:00,8月10日 19時時点,63551,26.8,34.46666666666667,134.84833333333333,郡家,警戒
2023-08-10 19:00:00,8月10日 19時時点,63571,26.2,34.31,134.84833333333333,洲本,警戒
2023-08-10 19:00:00,8月10日 19時時点,63588,26.4,34.218333333333334,134.72,南淡,警戒
2023-08-10 19:00:00,8月10日 19時時点,64036,25.1,34.67333333333333,135.83666666666667,奈良,警戒
2023-08-10 19:00:00,8月10日 19時時点,64041,23.6,34.605,135.95166666666665,針,注意
2023-08-10 19:00:00,8月10日 19時時点,64101,23.8,34.48833333333334,135.93166666666667,大宇陀,注意
2023-08-10 19:00:00,8月10日 19時時点,64127,25.6,34.38,135.73,五條,警戒
2023-08-10 19:00:00,8月10日 19時時点,64206,23.6,34.13666666666666,136.005,上北山,注意
2023-08-10 19:00:00,8月10日 19時時点,64227,23.9,34.045,135.78666666666666,風屋,注意
2023-08-10 19:00:00,8月10日 19時時点,65026,25.2,34.31,135.52833333333334,かつらぎ,警戒
2023-08-10 19:00:00,8月10日 19時時点,65036,25.3,34.28,134.99833333333333,友ケ島,警戒
2023-08-10 19:00:00,8月10日 19時時点,65042,26.5,34.22833333333333,135.16333333333333,和歌山,警戒
2023-08-10 19:00:00,8月10日 19時時点,65061,21.6,34.221666666666664,135.59,高野山,注意
2023-08-10 19:00:00,8月10日 19時時点,65121,24.8,34.086666666666666,135.425,清水,注意
2023-08-10 19:00:00,8月10日 19時時点,65162,24.3,33.945,135.55666666666667,龍神,注意
2023-08-10 19:00:00,8月10日 19時時点,65201,25.5,33.89333333333333,135.21666666666667,川辺,警戒
2023-08-10 19:00:00,8月10日 19時時点,65256,25.5,33.791666666666664,135.51333333333332,栗栖川,警戒
2023-08-10 19:00:00,8月10日 19時時点,65276,26.6,33.68666666666667,135.97,新宮,警戒
2023-08-10 19:00:00,8月10日 19時時点,65306,25.2,33.638333333333335,135.71,西川,警戒
2023-08-10 19:00:00,8月10日 19時時点,65356,26.9,33.45,135.75666666666666,潮岬,警戒
2023-08-10 19:00:00,8月10日 19時時点,66046,26.3,35.29666666666667,133.725,上長田,警戒
2023-08-10 19:00:00,8月10日 19時時点,66091,24.5,35.10333333333333,133.435,千屋,注意
2023-08-10 19:00:00,8月10日 19時時点,66127,24.9,35.111666666666665,134.17,奈義,注意
2023-08-10 19:00:00,8月10日 19時時点,66136,25.0,35.098333333333336,134.325,今岡,警戒
2023-08-10 19:00:00,8月10日 19時時点,66171,25.2,35.068333333333335,133.75333333333333,久世,警戒
2023-08-10 19:00:00,8月10日 19時時点,66186,25.4,35.06333333333333,134.00833333333333,津山,警戒
2023-08-10 19:00:00,8月10日 19時時点,66221,24.2,34.943333333333335,133.51833333333335,新見,注意
2023-08-10 19:00:00,8月10日 19時時点,66296,25.8,34.86666666666667,133.90333333333334,福渡,警戒
2023-08-10 19:00:00,8月10日 19時時点,66306,26.1,34.815,134.18333333333334,和気,警戒
2023-08-10 19:00:00,8月10日 19時時点,66336,26.1,34.791666666666664,133.61,高梁,警戒
2023-08-10 19:00:00,8月10日 19時時点,66408,26.5,34.685,133.925,岡山,警戒
2023-08-10 19:00:00,8月10日 19時時点,66421,26.4,34.681666666666665,134.20666666666668,虫明,警戒
2023-08-10 19:00:00,8月10日 19時時点,66446,26.0,34.59,133.76833333333335,倉敷,警戒
2023-08-10 19:00:00,8月10日 19時時点,66481,26.4,34.501666666666665,133.495,笠岡,警戒
2023-08-10 19:00:00,8月10日 19時時点,66501,26.4,34.486666666666665,133.95,玉野,警戒
2023-08-10 19:00:00,8月10日 19時時点,67016,24.2,35.03333333333333,132.90166666666667,高野,注意
2023-08-10 19:00:00,8月10日 19時時点,67106,25.5,34.81166666666667,132.85,三次,警戒
2023-08-10 19:00:00,8月10日 19時時点,67116,25.1,34.86,133.02333333333334,庄原,警戒
2023-08-10 19:00:00,8月10日 19時時点,67151,24.7,34.76833333333333,132.46333333333334,大朝,注意
2023-08-10 19:00:00,8月10日 19時時点,67191,24.2,34.763333333333335,133.27833333333334,油木,注意
2023-08-10 19:00:00,8月10日 19時時点,67212,25.6,34.61,132.32,加計,警戒
2023-08-10 19:00:00,8月10日 19時時点,67292,26.0,34.545,132.53,三入,警戒
2023-08-10 19:00:00,8月10日 19時時点,67316,24.6,34.583333333333336,133.05,世羅,注意
2023-08-10 19:00:00,8月10日 19時時点,67326,26.1,34.56166666666667,133.23166666666665,府中,警戒
2023-08-10 19:00:00,8月10日 19時時点,67376,25.4,34.416666666666664,132.7,東広島,警戒
2023-08-10 19:00:00,8月10日 19時時点,67401,26.7,34.446666666666665,133.24666666666667,福山,警戒
2023-08-10 19:00:00,8月10日 19時時点,67421,24.6,34.365,132.19,廿日市津田,注意
2023-08-10 19:00:00,8月10日 19時時点,67437,25.5,34.39833333333333,132.46166666666667,広島,警戒
2023-08-10 19:00:00,8月10日 19時時点,67461,26.4,34.33,132.98166666666665,竹原,警戒
2023-08-10 19:00:00,8月10日 19時時点,67471,26.3,34.278333333333336,133.12333333333333,生口島,警戒
2023-08-10 19:00:00,8月10日 19時時点,67496,26.1,34.221666666666664,132.22,大竹,警戒
2023-08-10 19:00:00,8月10日 19時時点,67511,26.0,34.24,132.55,呉,警戒
2023-08-10 19:00:00,8月10日 19時時点,67576,25.6,34.165,132.74833333333333,呉市蒲刈,警戒
2023-08-10 19:00:00,8月10日 19時時点,68022,26.8,36.20333333333333,133.33333333333334,西郷,警戒
2023-08-10 19:00:00,8月10日 19時時点,68056,26.8,36.096666666666664,133.09666666666666,海士,警戒
2023-08-10 19:00:00,8月10日 19時時点,68091,26.6,35.52,132.98333333333332,鹿島,警戒
2023-08-10 19:00:00,8月10日 19時時点,68132,27.0,35.45666666666666,133.065,松江,警戒
2023-08-10 19:00:00,8月10日 19時時点,68156,26.7,35.33166666666666,132.73,出雲,警戒
2023-08-10 19:00:00,8月10日 19時時点,68246,26.5,35.19,132.49666666666667,大田,警戒
2023-08-10 19:00:00,8月10日 19時時点,68261,25.5,35.196666666666665,132.815,掛合,警戒
2023-08-10 19:00:00,8月10日 19時時点,68276,24.6,35.17333333333333,133.10333333333332,横田,注意
2023-08-10 19:00:00,8月10日 19時時点,68306,24.3,35.001666666666665,132.71166666666667,赤名,注意
2023-08-10 19:00:00,8月10日 19時時点,68351,25.5,34.97666666666667,132.49166666666667,川本,警戒
2023-08-10 19:00:00,8月10日 19時時点,68376,26.6,34.89666666666667,132.07,浜田,警戒
2023-08-10 19:00:00,8月10日 19時時点,68401,24.9,34.85333333333333,132.53,瑞穂,注意
2023-08-10 19:00:00,8月10日 19時時点,68431,24.4,34.776666666666664,132.10833333333332,弥栄,注意
2023-08-10 19:00:00,8月10日 19時時点,68462,26.9,34.67666666666667,131.84333333333333,益田,警戒
2023-08-10 19:00:00,8月10日 19時時点,68516,25.0,34.461666666666666,131.77,津和野,警戒
2023-08-10 19:00:00,8月10日 19時時点,68541,24.3,34.391666666666666,131.89333333333335,吉賀,注意
2023-08-10 19:00:00,8月10日 19時時点,69006,27.3,35.54333333333334,133.235,境,警戒
2023-08-10 19:00:00,8月10日 19時時点,69021,26.6,35.52333333333333,133.56666666666666,塩津,警戒
2023-08-10 19:00:00,8月10日 19時時点,69041,26.5,35.52,133.99666666666667,青谷,警戒
2023-08-10 19:00:00,8月10日 19時時点,69061,26.2,35.55833333333333,134.36,岩井,警戒
2023-08-10 19:00:00,8月10日 19時時点,69076,26.8,35.43333333333333,133.33833333333334,米子,警戒
2023-08-10 19:00:00,8月10日 19時時点,69101,25.6,35.473333333333336,133.83833333333334,倉吉,警戒
2023-08-10 19:00:00,8月10日 19時時点,69122,26.5,35.486666666666665,134.23833333333334,鳥取,警戒
2023-08-10 19:00:00,8月10日 19時時点,69246,25.1,35.263333333333335,134.24,智頭,警戒
2023-08-10 19:00:00,8月10日 19時時点,69271,23.9,35.18666666666667,133.23,茶屋,注意
2023-08-10 19:00:00,8月10日 19時時点,81011,26.0,34.615,131.62333333333333,須佐,警戒
2023-08-10 19:00:00,8月10日 19時時点,81071,26.6,34.41,131.405,萩,警戒
2023-08-10 19:00:00,8月10日 19時時点,81116,26.1,34.37,131.055,油谷,警戒
2023-08-10 19:00:00,8月10日 19時時点,81151,24.6,34.39833333333333,131.725,徳佐,注意
2023-08-10 19:00:00,8月10日 19時時点,81196,24.7,34.235,131.30666666666667,秋吉台,注意
2023-08-10 19:00:00,8月10日 19時時点,81231,26.4,34.26166666666666,131.95166666666665,広瀬,警戒
2023-08-10 19:00:00,8月10日 19時時点,81266,26.1,34.18666666666667,131.07666666666665,豊田,警戒
2023-08-10 19:00:00,8月10日 19時時点,81286,25.9,34.16166666666667,131.46166666666667,山口,警戒
2023-08-10 19:00:00,8月10日 19時時点,81321,26.5,34.155,132.17833333333334,岩国,警戒
2023-08-10 19:00:00,8月10日 19時時点,81371,25.5,34.04,131.53333333333333,防府,警戒
2023-08-10 19:00:00,8月10日 19時時点,81386,25.6,34.01,131.87166666666667,下松,警戒
2023-08-10 19:00:00,8月10日 19時時点,81397,26.6,34.095,132.075,玖珂,警戒
2023-08-10 19:00:00,8月10日 19時時点,81428,26.8,33.94833333333333,130.925,下関,警戒
2023-08-10 19:00:00,8月10日 19時時点,81481,25.8,33.958333333333336,132.11333333333334,柳井,警戒
2023-08-10 19:00:00,8月10日 19時時点,81486,25.2,33.903333333333336,132.29333333333332,安下庄,警戒
2023-08-10 19:00:00,8月10日 19時時点,71066,24.9,34.02333333333333,133.795,池田,注意
2023-08-10 19:00:00,8月10日 19時時点,71087,26.3,34.04,134.15666666666667,穴吹,警戒
2023-08-10 19:00:00,8月10日 19時時点,71106,26.8,34.06666666666667,134.57333333333332,徳島,警戒
2023-08-10 19:00:00,8月10日 19時時点,71191,23.2,33.86666666666667,133.90333333333334,京上,注意
2023-08-10 19:00:00,8月10日 19時時点,71231,26.7,33.836666666666666,134.74166666666667,蒲生田,警戒
2023-08-10 19:00:00,8月10日 19時時点,71251,23.8,33.77166666666667,134.19833333333332,木頭,注意
2023-08-10 19:00:00,8月10日 19時時点,71266,26.9,33.73166666666667,134.53833333333333,日和佐,警戒
2023-08-10 19:00:00,8月10日 19時時点,71291,27.1,33.611666666666665,134.355,海陽,警戒
2023-08-10 19:00:00,8月10日 19時時点,72061,26.9,34.471666666666664,134.27333333333334,内海,警戒
2023-08-10 19:00:00,8月10日 19時時点,72086,26.8,34.318333333333335,134.05333333333334,高松,警戒
2023-08-10 19:00:00,8月10日 19時時点,72111,27.4,34.275,133.75166666666667,多度津,警戒
2023-08-10 19:00:00,8月10日 19時時点,72121,26.0,34.236666666666665,133.92333333333335,滝宮,警戒
2023-08-10 19:00:00,8月10日 19時時点,72146,26.2,34.21333333333333,134.40666666666667,引田,警戒
2023-08-10 19:00:00,8月10日 19時時点,72161,26.0,34.12,133.77166666666668,財田,警戒
2023-08-10 19:00:00,8月10日 19時時点,73001,26.1,34.25,133.00666666666666,大三島,警戒
2023-08-10 19:00:00,8月10日 19時時点,73076,26.9,34.053333333333335,132.975,今治,警戒
2023-08-10 19:00:00,8月10日 19時時点,73126,26.4,33.915,133.08,西条,警戒
2023-08-10 19:00:00,8月10日 19時時点,73141,25.3,33.93666666666667,133.33833333333334,新居浜,警戒
2023-08-10 19:00:00,8月10日 19時時点,73151,25.8,33.98166666666667,133.58166666666668,四国中央,警戒
2023-08-10 19:00:00,8月10日 19時時点,73166,27.2,33.843333333333334,132.77666666666667,松山,警戒
2023-08-10 19:00:00,8月10日 19時時点,73256,26.0,33.61666666666667,132.48,長浜,警戒
2023-08-10 19:00:00,8月10日 19時時点,73276,23.5,33.663333333333334,132.895,久万,注意
2023-08-10 19:00:00,8月10日 19時時点,73306,25.9,33.50833333333333,132.535,大洲,警戒
2023-08-10 19:00:00,8月10日 19時時点,73341,24.7,33.446666666666665,132.25666666666666,瀬戸,注意
2023-08-10 19:00:00,8月10日 19時時点,73406,25.0,33.36666666666667,132.50333333333333,宇和,警戒
2023-08-10 19:00:00,8月10日 19時時点,73442,26.2,33.22666666666667,132.55166666666668,宇和島,警戒
2023-08-10 19:00:00,8月10日 19時時点,73446,25.4,33.25333333333333,132.675,近永,警戒
2023-08-10 19:00:00,8月10日 19時時点,73516,26.3,32.96333333333333,132.57,御荘,警戒
2023-08-10 19:00:00,8月10日 19時時点,74056,22.5,33.765,133.33833333333334,本川,注意
2023-08-10 19:00:00,8月10日 19時時点,74071,24.5,33.75333333333333,133.575,本山,注意
2023-08-10 19:00:00,8月10日 19時時点,74136,24.8,33.69833333333333,133.875,大栃,注意
2023-08-10 19:00:00,8月10日 19時時点,74182,26.9,33.56666666666667,133.54833333333335,高知,警戒
2023-08-10 19:00:00,8月10日 19時時点,74187,26.3,33.59,133.64333333333335,後免,警戒
2023-08-10 19:00:00,8月10日 19時時点,74271,27.4,33.48833333333334,133.93333333333334,安芸,警戒
2023-08-10 19:00:00,8月10日 19時時点,74296,24.0,33.39,132.92166666666665,梼原,注意
2023-08-10 19:00:00,8月10日 19時時点,74311,26.6,33.385,133.27666666666667,須崎,警戒
2023-08-10 19:00:00,8月10日 19時時点,74361,26.2,33.20666666666666,133.12833333333333,窪川,警戒
2023-08-10 19:00:00,8月10日 19時時点,74372,26.2,33.251666666666665,134.17666666666668,室戸岬,警戒
2023-08-10 19:00:00,8月10日 19時時点,74381,26.0,33.17,132.79166666666666,江川崎,警戒
2023-08-10 19:00:00,8月10日 19時時点,74436,26.9,33.07833333333333,133.10166666666666,佐賀,警戒
2023-08-10 19:00:00,8月10日 19時時点,74447,26.7,32.92,132.695,宿毛,警戒
2023-08-10 19:00:00,8月10日 19時時点,74456,26.8,32.99,132.92,中村,警戒
2023-08-10 19:00:00,8月10日 19時時点,74516,27.3,32.721666666666664,133.01,清水,警戒
2023-08-10 19:00:00,8月10日 19時時点,82046,27.7,33.80833333333333,130.53833333333333,宗像,警戒
2023-08-10 19:00:00,8月10日 19時時点,82056,26.8,33.85166666666667,130.74333333333334,八幡,警戒
2023-08-10 19:00:00,8月10日 19時時点,82101,26.6,33.71333333333333,130.975,行橋,警戒
2023-08-10 19:00:00,8月10日 19時時点,82136,26.0,33.651666666666664,130.69333333333333,飯塚,警戒
2023-08-10 19:00:00,8月10日 19時時点,82171,27.1,33.56,130.19,前原,警戒
2023-08-10 19:00:00,8月10日 19時時点,82182,26.6,33.58166666666666,130.375,福岡,警戒
2023-08-10 19:00:00,8月10日 19時時点,82191,25.7,33.49666666666667,130.49,太宰府,警戒
2023-08-10 19:00:00,8月10日 19時時点,82206,25.4,33.55833333333333,130.855,添田,警戒
2023-08-10 19:00:00,8月10日 19時時点,82261,26.1,33.406666666666666,130.695,朝倉,警戒
2023-08-10 19:00:00,8月10日 19時時点,82306,27.0,33.303333333333335,130.49333333333334,久留米,警戒
2023-08-10 19:00:00,8月10日 19時時点,82317,25.6,33.225,130.645,黒木,警戒
2023-08-10 19:00:00,8月10日 19時時点,82361,26.3,33.00666666666667,130.46666666666667,大牟田,警戒
2023-08-10 19:00:00,8月10日 19時時点,83021,25.8,33.678333333333335,131.575,国見,警戒
2023-08-10 19:00:00,8月10日 19時時点,83051,26.2,33.586666666666666,131.245,中津,警戒
2023-08-10 19:00:00,8月10日 19時時点,83061,26.7,33.57,131.43333333333334,豊後高田,警戒
2023-08-10 19:00:00,8月10日 19時時点,83106,26.2,33.42,131.31666666666666,院内,警戒
2023-08-10 19:00:00,8月10日 19時時点,83121,26.2,33.416666666666664,131.59666666666666,杵築,警戒
2023-08-10 19:00:00,8月10日 19時時点,83137,26.4,33.321666666666665,130.92833333333334,日田,警戒
2023-08-10 19:00:00,8月10日 19時時点,83191,24.4,33.291666666666664,131.155,玖珠,注意
2023-08-10 19:00:00,8月10日 19時時点,83201,24.2,33.25333333333333,131.34666666666666,湯布院,注意
2023-08-10 19:00:00,8月10日 19時時点,83216,27.3,33.235,131.61833333333334,大分,警戒
2023-08-10 19:00:00,8月10日 19時時点,83341,26.8,33.065,131.63166666666666,犬飼,警戒
2023-08-10 19:00:00,8月10日 19時時点,83371,26.5,32.973333333333336,131.39833333333334,竹田,警戒
2023-08-10 19:00:00,8月10日 19時時点,83401,26.3,32.95,131.90166666666667,佐伯,警戒
2023-08-10 19:00:00,8月10日 19時時点,83431,25.6,32.845,131.675,宇目,警戒
2023-08-10 19:00:00,8月10日 19時時点,83476,26.2,32.795,131.92333333333335,蒲江,警戒
2023-08-10 19:00:00,8月10日 19時時点,84012,24.3,34.69833333333333,129.445,鰐浦,注意
2023-08-10 19:00:00,8月10日 19時時点,84072,24.8,34.196666666666665,129.29166666666666,厳原,注意
2023-08-10 19:00:00,8月10日 19時時点,84121,24.8,33.8,129.72166666666666,芦辺,注意
2023-08-10 19:00:00,8月10日 19時時点,84171,24.9,33.36,129.55,平戸,注意
2023-08-10 19:00:00,8月10日 19時時点,84183,26.0,33.34166666666667,129.71166666666667,松浦,警戒
2023-08-10 19:00:00,8月10日 19時時点,84266,26.5,33.15833333333333,129.72666666666666,佐世保,警戒
2023-08-10 19:00:00,8月10日 19時時点,84306,26.1,33.013333333333335,129.65166666666667,西海,警戒
2023-08-10 19:00:00,8月10日 19時時点,84341,26.0,32.98166666666667,129.11833333333334,有川,警戒
2023-08-10 19:00:00,8月10日 19時時点,84496,26.1,32.733333333333334,129.86666666666667,長崎,警戒
2023-08-10 19:00:00,8月10日 19時時点,84519,22.7,32.736666666666665,130.26166666666666,雲仙岳,注意
2023-08-10 19:00:00,8月10日 19時時点,84523,27.0,32.76,130.36166666666668,島原,警戒
2023-08-10 19:00:00,8月10日 19時時点,84536,25.9,32.693333333333335,128.82666666666665,福江,警戒
2023-08-10 19:00:00,8月10日 19時時点,84561,26.7,32.611666666666665,130.19333333333333,口之津,警戒
2023-08-10 19:00:00,8月10日 19時時点,84597,26.9,32.58166666666666,129.77666666666667,脇岬,警戒
2023-08-10 19:00:00,8月10日 19時時点,85033,27.3,33.458333333333336,129.955,唐津,警戒
2023-08-10 19:00:00,8月10日 19時時点,85116,25.5,33.266666666666666,129.87833333333333,伊万里,警戒
2023-08-10 19:00:00,8月10日 19時時点,85142,26.4,33.265,130.305,佐賀,警戒
2023-08-10 19:00:00,8月10日 19時時点,85161,25.5,33.11666666666667,129.995,嬉野,警戒
2023-08-10 19:00:00,8月10日 19時時点,85166,26.0,33.18333333333333,130.14833333333334,白石,警戒
2023-08-10 19:00:00,8月10日 19時時点,86006,25.9,33.115,130.69166666666666,鹿北,警戒
2023-08-10 19:00:00,8月10日 19時時点,86066,24.0,33.10333333333333,131.06666666666666,南小国,注意
2023-08-10 19:00:00,8月10日 19時時点,86086,26.3,32.915,130.51166666666666,岱明,警戒
2023-08-10 19:00:00,8月10日 19時時点,86101,25.9,32.945,130.78166666666667,菊池,警戒
2023-08-10 19:00:00,8月10日 19時時点,86111,23.9,32.946666666666665,131.04,阿蘇乙姫,注意
2023-08-10 19:00:00,8月10日 19時時点,86141,26.3,32.81333333333333,130.70666666666668,熊本,警戒
2023-08-10 19:00:00,8月10日 19時時点,86157,24.4,32.83166666666666,131.01333333333332,南阿蘇,注意
2023-08-10 19:00:00,8月10日 19時時点,86161,24.1,32.821666666666665,131.125,高森,注意
2023-08-10 19:00:00,8月10日 19時時点,86216,25.8,32.611666666666665,130.47833333333332,三角,警戒
2023-08-10 19:00:00,8月10日 19時時点,86236,27.3,32.67166666666667,130.81666666666666,甲佐,警戒
2023-08-10 19:00:00,8月10日 19時時点,86271,26.1,32.515,130.44666666666666,松島,警戒
2023-08-10 19:00:00,8月10日 19時時点,86316,25.8,32.468333333333334,130.18,本渡,警戒
2023-08-10 19:00:00,8月10日 19時時点,86336,26.6,32.473333333333336,130.60666666666665,八代,警戒
2023-08-10 19:00:00,8月10日 19時時点,86451,26.6,32.205,130.40666666666667,水俣,警戒
2023-08-10 19:00:00,8月10日 19時時点,86467,25.7,32.21666666666667,130.755,人吉,警戒
2023-08-10 19:00:00,8月10日 19時時点,86477,26.8,32.225,130.905,上,警戒
2023-08-10 19:00:00,8月10日 19時時点,86491,27.0,32.196666666666665,130.02666666666667,牛深,警戒
2023-08-10 19:00:00,8月10日 19時時点,87041,25.2,32.711666666666666,131.29,高千穂,警戒
2023-08-10 19:00:00,8月10日 19時時点,87066,26.5,32.711666666666666,131.82,古江,警戒
2023-08-10 19:00:00,8月10日 19時時点,87071,23.5,32.64333333333333,131.15666666666667,鞍岡,注意
2023-08-10 19:00:00,8月10日 19時時点,87141,26.8,32.58166666666666,131.65666666666667,延岡,警戒
2023-08-10 19:00:00,8月10日 19時時点,87181,26.2,32.40833333333333,131.6,日向,警戒
2023-08-10 19:00:00,8月10日 19時時点,87206,25.2,32.385,131.33166666666668,神門,警戒
2023-08-10 19:00:00,8月10日 19時時点,87231,24.9,32.24,131.15166666666667,西米良,注意
2023-08-10 19:00:00,8月10日 19時時点,87293,27.2,32.123333333333335,131.475,高鍋,警戒
2023-08-10 19:00:00,8月10日 19時時点,87301,25.7,32.04666666666667,130.81,加久藤,警戒
2023-08-10 19:00:00,8月10日 19時時点,87331,26.9,32.06333333333333,131.41333333333333,西都,警戒
2023-08-10 19:00:00,8月10日 19時時点,87352,25.6,32.0,130.95333333333335,小林,警戒
2023-08-10 19:00:00,8月10日 19時時点,87376,27.2,31.938333333333333,131.41333333333333,宮崎,警戒
2023-08-10 19:00:00,8月10日 19時時点,87406,26.4,31.843333333333334,131.30833333333334,田野,警戒
2023-08-10 19:00:00,8月10日 19時時点,87426,26.6,31.73,131.08166666666668,都城,警戒
2023-08-10 19:00:00,8月10日 19時時点,87492,27.3,31.578333333333333,131.40666666666667,油津,警戒
2023-08-10 19:00:00,8月10日 19時時点,87501,26.7,31.465,131.22,串間,警戒
2023-08-10 19:00:00,8月10日 19時時点,88061,26.6,32.026666666666664,130.2,阿久根,警戒
2023-08-10 19:00:00,8月10日 19時時点,88081,25.6,32.04666666666667,130.62666666666667,大口,警戒
2023-08-10 19:00:00,8月10日 19時時点,88107,26.9,31.916666666666668,130.455,さつま柏原,警戒
2023-08-10 19:00:00,8月10日 19時時点,88131,26.7,31.835,129.86666666666667,中甑,警戒
2023-08-10 19:00:00,8月10日 19時時点,88151,26.5,31.833333333333332,130.315,川内,警戒
2023-08-10 19:00:00,8月10日 19時時点,88261,26.9,31.668333333333333,130.32833333333335,東市来,警戒
2023-08-10 19:00:00,8月10日 19時時点,88286,24.8,31.661666666666665,130.84333333333333,牧之原,注意
2023-08-10 19:00:00,8月10日 19時時点,88317,27.6,31.555,130.54666666666665,鹿児島,警戒
2023-08-10 19:00:00,8月10日 19時時点,88331,25.6,31.588333333333335,130.855,輝北,警戒
2023-08-10 19:00:00,8月10日 19時時点,88371,26.9,31.415,130.325,加世田,警戒
2023-08-10 19:00:00,8月10日 19時時点,88406,26.7,31.47833333333333,131.095,志布志,警戒
2023-08-10 19:00:00,8月10日 19時時点,88432,26.5,31.386666666666667,130.54,喜入,警戒
2023-08-10 19:00:00,8月10日 19時時点,88442,26.6,31.391666666666666,130.86333333333334,鹿屋,警戒
2023-08-10 19:00:00,8月10日 19時時点,88447,27.7,31.34,130.93833333333333,肝付前田,警戒
2023-08-10 19:00:00,8月10日 19時時点,88466,27.8,31.27166666666667,130.29166666666666,枕崎,警戒
2023-08-10 19:00:00,8月10日 19時時点,88486,26.9,31.25,130.63666666666666,指宿,警戒
2023-08-10 19:00:00,8月10日 19時時点,88506,26.8,31.276666666666667,131.055,内之浦,警戒
2023-08-10 19:00:00,8月10日 19時時点,88536,26.0,31.198333333333334,130.84333333333333,田代,警戒
2023-08-10 19:00:00,8月10日 19時時点,88612,27.4,30.72,130.98166666666665,種子島,警戒
2023-08-10 19:00:00,8月10日 19時時点,88666,26.6,30.406666666666666,130.90166666666667,上中,警戒
2023-08-10 19:00:00,8月10日 19時時点,88686,27.2,30.385,130.65833333333333,屋久島,警戒
2023-08-10 19:00:00,8月10日 19時時点,88706,27.3,30.235,130.555,尾之間,警戒
2023-08-10 19:00:00,8月10日 19時時点,88736,25.9,29.84,129.86666666666667,中之島,警戒
2023-08-10 19:00:00,8月10日 19時時点,88836,27.0,28.378333333333334,129.495,名瀬,警戒
2023-08-10 19:00:00,8月10日 19時時点,88901,27.2,28.143333333333334,129.315,古仁屋,警戒
2023-08-10 19:00:00,8月10日 19時時点,88956,26.5,27.676666666666666,128.97333333333333,伊仙,警戒
2023-08-10 19:00:00,8月10日 19時時点,88971,26.8,27.431666666666665,128.705,沖永良部,警戒
2023-08-10 19:00:00,8月10日 19時時点,91011,27.3,26.948333333333334,127.94,伊是名,警戒
2023-08-10 19:00:00,8月10日 19時時点,91021,25.5,26.835,128.27166666666668,奥,警戒
2023-08-10 19:00:00,8月10日 19時時点,91107,27.7,26.593333333333334,127.965,名護,警戒
2023-08-10 19:00:00,8月10日 19時時点,91146,28.0,26.336666666666666,126.80333333333333,久米島,厳重警戒
2023-08-10 19:00:00,8月10日 19時時点,91166,26.9,26.363333333333333,127.97166666666666,宮城島,警戒
2023-08-10 19:00:00,8月10日 19時時点,91181,25.9,26.21,127.36333333333333,渡嘉敷,警戒
2023-08-10 19:00:00,8月10日 19時時点,91197,27.4,26.206666666666667,127.68666666666667,那覇,警戒
2023-08-10 19:00:00,8月10日 19時時点,91241,26.1,26.153333333333332,127.765,糸数,警戒
2023-08-10 19:00:00,8月10日 19時時点,92011,26.4,25.828333333333333,131.22833333333332,南大東,警戒
2023-08-10 19:00:00,8月10日 19時時点,93041,27.1,24.793333333333333,125.27833333333334,宮古島,警戒
2023-08-10 19:00:00,8月10日 19時時点,94001,28.1,24.506666666666668,124.28,伊原間,厳重警戒
2023-08-10 19:00:00,8月10日 19時時点,94017,28.0,24.466666666666665,123.01,与那国島,厳重警戒
2023-08-10 19:00:00,8月10日 19時時点,94062,29.0,24.426666666666666,123.765,西表島,厳重警戒
2023-08-10 19:00:00,8月10日 19時時点,94081,28.4,24.336666666666666,124.16333333333333,石垣島,厳重警戒
2023-08-10 19:00:00,8月10日 19時時点,94101,28.2,24.265,123.87166666666667,大原,厳重警戒
2023-08-10 19:00:00,8月10日 19時時点,94116,28.1,24.055,123.76666666666667,波照間,厳重警戒
