date_dt,date_popup,amdno,wbgt,lat,lon,kjName,guideline
2023-08-13 13:00:00,8月13日 13時時点,11001,20.4,45.52,141.935,宗谷岬,ほぼ安全
2023-08-13 13:00:00,8月13日 13時時点,11016,20.8,45.415,141.67833333333334,稚内,ほぼ安全
2023-08-13 13:00:00,8月13日 13時時点,11046,22.4,45.305,141.045,礼文,注意
2023-08-13 13:00:00,8月13日 13時時点,11076,19.5,45.335,142.17,浜鬼志別,ほぼ安全
2023-08-13 13:00:00,8月13日 13時時点,11121,21.0,45.248333333333335,141.85166666666666,沼川,注意
2023-08-13 13:00:00,8月13日 13時時点,11151,23.7,45.178333333333335,141.13833333333332,沓形,注意
2023-08-13 13:00:00,8月13日 13時時点,11176,22.5,45.10166666666667,141.78,豊富,注意
2023-08-13 13:00:00,8月13日 13時時点,11206,18.4,45.125,142.35,浜頓別,ほぼ安全
2023-08-13 13:00:00,8月13日 13時時点,11276,22.9,44.965,142.28,中頓別,注意
2023-08-13 13:00:00,8月13日 13時時点,11291,18.8,44.94,142.585,北見枝幸,ほぼ安全
2023-08-13 13:00:00,8月13日 13時時点,11316,20.3,44.84166666666667,142.48,歌登,ほぼ安全
2023-08-13 13:00:00,8月13日 13時時点,12011,22.1,44.82833333333333,142.07666666666665,中川,注意
2023-08-13 13:00:00,8月13日 13時時点,12041,22.4,44.72666666666667,142.265,音威子府,注意
2023-08-13 13:00:00,8月13日 13時時点,12141,26.1,44.48,142.34166666666667,美深,警戒
2023-08-13 13:00:00,8月13日 13時時点,12181,27.2,44.37,142.45666666666668,名寄,警戒
2023-08-13 13:00:00,8月13日 13時時点,12231,23.9,44.295,142.63666666666666,下川,注意
2023-08-13 13:00:00,8月13日 13時時点,12261,22.5,44.18666666666667,142.41666666666666,士別,注意
2023-08-13 13:00:00,8月13日 13時時点,12266,25.6,44.11833333333333,142.595,朝日,警戒
2023-08-13 13:00:00,8月13日 13時時点,12301,23.2,44.028333333333336,142.41,和寒,注意
2023-08-13 13:00:00,8月13日 13時時点,12386,27.8,43.87,142.26,江丹別,警戒
2023-08-13 13:00:00,8月13日 13時時点,12396,24.8,43.87,142.47,比布,注意
2023-08-13 13:00:00,8月13日 13時時点,12411,26.8,43.846666666666664,142.75333333333333,上川,警戒
2023-08-13 13:00:00,8月13日 13時時点,12442,27.2,43.75666666666667,142.37166666666667,旭川,警戒
2023-08-13 13:00:00,8月13日 13時時点,12451,28.9,43.70166666666667,142.50833333333333,東川,厳重警戒
2023-08-13 13:00:00,8月13日 13時時点,12512,29.1,43.64333333333333,142.58166666666668,志比内,厳重警戒
2023-08-13 13:00:00,8月13日 13時時点,12551,28.1,43.58833333333333,142.49333333333334,美瑛,厳重警戒
2023-08-13 13:00:00,8月13日 13時時点,12596,28.4,43.455,142.465,上富良野,厳重警戒
2023-08-13 13:00:00,8月13日 13時時点,12626,26.7,43.333333333333336,142.4,富良野,警戒
2023-08-13 13:00:00,8月13日 13時時点,12632,23.1,43.30166666666667,142.52166666666668,麓郷,注意
2023-08-13 13:00:00,8月13日 13時時点,12691,20.9,43.16833333333334,142.56833333333333,幾寅,ほぼ安全
2023-08-13 13:00:00,8月13日 13時時点,12746,24.9,42.97833333333333,142.395,占冠,注意
2023-08-13 13:00:00,8月13日 13時時点,15041,21.6,44.281666666666666,142.16166666666666,朱鞠内,注意
2023-08-13 13:00:00,8月13日 13時時点,15076,24.0,44.01,142.16,幌加内,注意
2023-08-13 13:00:00,8月13日 13時時点,13061,25.3,44.89333333333333,141.76166666666666,天塩,警戒
2023-08-13 13:00:00,8月13日 13時時点,13086,26.2,44.718333333333334,141.80666666666667,遠別,警戒
2023-08-13 13:00:00,8月13日 13時時点,13121,28.3,44.52333333333333,141.77,初山別,厳重警戒
2023-08-13 13:00:00,8月13日 13時時点,13146,26.7,44.428333333333335,141.42166666666665,焼尻,警戒
2023-08-13 13:00:00,8月13日 13時時点,13181,26.8,44.36333333333334,141.7,羽幌,警戒
2023-08-13 13:00:00,8月13日 13時時点,13261,27.5,44.04833333333333,141.85666666666665,達布,警戒
2023-08-13 13:00:00,8月13日 13時時点,13277,26.7,43.945,141.63166666666666,留萌,警戒
2023-08-13 13:00:00,8月13日 13時時点,13311,25.5,43.848333333333336,141.51,増毛,警戒
2023-08-13 13:00:00,8月13日 13時時点,13321,29.9,43.85333333333333,141.76,幌糠,厳重警戒
2023-08-13 13:00:00,8月13日 13時時点,14026,25.7,43.58166666666666,141.38666666666666,浜益,警戒
2023-08-13 13:00:00,8月13日 13時時点,14071,27.6,43.39666666666667,141.43666666666667,厚田,警戒
2023-08-13 13:00:00,8月13日 13時時点,14101,28.2,43.22,141.645,新篠津,厳重警戒
2023-08-13 13:00:00,8月13日 13時時点,14116,27.3,43.14833333333333,141.22166666666666,山口,警戒
2023-08-13 13:00:00,8月13日 13時時点,14121,27.3,43.193333333333335,141.37,石狩,警戒
2023-08-13 13:00:00,8月13日 13時時点,14136,28.6,43.11,141.60166666666666,江別,厳重警戒
2023-08-13 13:00:00,8月13日 13時時点,14163,28.0,43.06,141.32833333333335,札幌,厳重警戒
2023-08-13 13:00:00,8月13日 13時時点,14206,29.7,42.92666666666667,141.565,恵庭島松,厳重警戒
2023-08-13 13:00:00,8月13日 13時時点,14286,24.6,42.77166666666667,141.40666666666667,支笏湖畔,注意
2023-08-13 13:00:00,8月13日 13時時点,15116,28.5,43.815,141.92666666666668,石狩沼田,厳重警戒
2023-08-13 13:00:00,8月13日 13時時点,15156,28.7,43.78,141.96166666666667,秩父別,厳重警戒
2023-08-13 13:00:00,8月13日 13時時点,15161,28.8,43.718333333333334,142.07333333333332,深川,厳重警戒
2023-08-13 13:00:00,8月13日 13時時点,15231,26.8,43.595,141.73166666666665,空知吉野,警戒
2023-08-13 13:00:00,8月13日 13時時点,15241,31.0,43.57,141.93833333333333,滝川,危険
2023-08-13 13:00:00,8月13日 13時時点,15251,25.0,43.52,142.19,芦別,警戒
2023-08-13 13:00:00,8月13日 13時時点,15311,31.8,43.33,141.61666666666667,月形,危険
2023-08-13 13:00:00,8月13日 13時時点,15321,31.4,43.36333333333334,141.82666666666665,美唄,危険
2023-08-13 13:00:00,8月13日 13時時点,15356,27.2,43.211666666666666,141.785,岩見沢,警戒
2023-08-13 13:00:00,8月13日 13時時点,15431,27.4,43.01166666666666,141.69333333333333,長沼,警戒
2023-08-13 13:00:00,8月13日 13時時点,15442,25.8,43.038333333333334,141.95666666666668,夕張,警戒
2023-08-13 13:00:00,8月13日 13時時点,16026,26.8,43.27166666666667,140.56333333333333,美国,警戒
2023-08-13 13:00:00,8月13日 13時時点,16061,28.7,43.145,140.42333333333335,神恵内,厳重警戒
2023-08-13 13:00:00,8月13日 13時時点,16076,25.2,43.181666666666665,140.75833333333333,余市,警戒
2023-08-13 13:00:00,8月13日 13時時点,16091,28.2,43.181666666666665,141.015,小樽,厳重警戒
2023-08-13 13:00:00,8月13日 13時時点,16156,30.6,42.98,140.60333333333332,共和,厳重警戒
2023-08-13 13:00:00,8月13日 13時時点,16206,27.1,42.81,140.54166666666666,蘭越,警戒
2023-08-13 13:00:00,8月13日 13時時点,16217,26.9,42.9,140.75666666666666,倶知安,警戒
2023-08-13 13:00:00,8月13日 13時時点,16252,24.3,42.795,140.22333333333333,寿都,注意
2023-08-13 13:00:00,8月13日 13時時点,16281,24.3,42.775,140.88,真狩,注意
2023-08-13 13:00:00,8月13日 13時時点,16286,26.4,42.79333333333334,140.94833333333332,喜茂別,警戒
2023-08-13 13:00:00,8月13日 13時時点,16321,22.9,42.663333333333334,140.31,黒松内,注意
2023-08-13 13:00:00,8月13日 13時時点,17036,19.2,44.58,142.96333333333334,雄武,ほぼ安全
2023-08-13 13:00:00,8月13日 13時時点,17076,20.3,44.47,143.10833333333332,興部,ほぼ安全
2023-08-13 13:00:00,8月13日 13時時点,17091,19.0,44.33166666666666,142.935,西興部,ほぼ安全
2023-08-13 13:00:00,8月13日 13時時点,17112,20.3,44.345,143.355,紋別,ほぼ安全
2023-08-13 13:00:00,8月13日 13時時点,17166,20.3,44.21333333333333,143.61833333333334,湧別,ほぼ安全
2023-08-13 13:00:00,8月13日 13時時点,17196,21.5,44.17666666666667,143.06166666666667,滝上,注意
2023-08-13 13:00:00,8月13日 13時時点,17246,21.3,44.115,144.03666666666666,常呂,注意
2023-08-13 13:00:00,8月13日 13時時点,17306,20.4,44.053333333333335,143.54,遠軽,ほぼ安全
2023-08-13 13:00:00,8月13日 13時時点,17316,21.4,44.01833333333333,143.76,佐呂間,注意
2023-08-13 13:00:00,8月13日 13時時点,17341,22.2,44.016666666666666,144.27833333333334,網走,注意
2023-08-13 13:00:00,8月13日 13時時点,17351,22.4,44.05166666666667,144.98166666666665,宇登呂,注意
2023-08-13 13:00:00,8月13日 13時時点,17482,23.4,43.865,143.15333333333334,白滝,注意
2023-08-13 13:00:00,8月13日 13時時点,17501,20.5,43.916666666666664,143.53166666666667,生田原,ほぼ安全
2023-08-13 13:00:00,8月13日 13時時点,17521,23.3,43.776666666666664,143.84166666666667,北見,注意
2023-08-13 13:00:00,8月13日 13時時点,17546,25.5,43.84166666666667,144.485,小清水,警戒
2023-08-13 13:00:00,8月13日 13時時点,17561,23.6,43.885,144.7,斜里,注意
2023-08-13 13:00:00,8月13日 13時時点,17596,22.8,43.74166666666667,143.45,留辺蘂,注意
2023-08-13 13:00:00,8月13日 13時時点,17607,24.5,43.70666666666666,143.64333333333335,境野,注意
2023-08-13 13:00:00,8月13日 13時時点,17631,23.8,43.77,144.17166666666665,美幌,注意
2023-08-13 13:00:00,8月13日 13時時点,17717,24.2,43.70166666666667,144.03333333333333,津別,注意
2023-08-13 13:00:00,8月13日 13時時点,18038,18.2,44.02333333333333,145.18666666666667,羅臼,ほぼ安全
2023-08-13 13:00:00,8月13日 13時時点,18136,16.4,43.66166666666667,145.13166666666666,標津,ほぼ安全
2023-08-13 13:00:00,8月13日 13時時点,18161,17.7,43.52,144.74666666666667,上標津,ほぼ安全
2023-08-13 13:00:00,8月13日 13時時点,18171,17.4,43.54333333333334,144.97833333333332,中標津,ほぼ安全
2023-08-13 13:00:00,8月13日 13時時点,18256,15.8,43.38166666666667,145.11833333333334,別海,ほぼ安全
2023-08-13 13:00:00,8月13日 13時時点,18273,15.9,43.33,145.585,根室,ほぼ安全
2023-08-13 13:00:00,8月13日 13時時点,18281,15.9,43.39333333333333,145.75833333333333,納沙布,ほぼ安全
2023-08-13 13:00:00,8月13日 13時時点,18311,17.0,43.221666666666664,145.22666666666666,厚床,ほぼ安全
2023-08-13 13:00:00,8月13日 13時時点,19021,21.3,43.61666666666667,144.45666666666668,川湯,注意
2023-08-13 13:00:00,8月13日 13時時点,19051,17.6,43.51,144.46666666666667,弟子屈,ほぼ安全
2023-08-13 13:00:00,8月13日 13時時点,19076,19.9,43.43666666666667,144.08333333333334,阿寒湖畔,ほぼ安全
2023-08-13 13:00:00,8月13日 13時時点,19151,18.1,43.291666666666664,144.58666666666667,標茶,ほぼ安全
2023-08-13 13:00:00,8月13日 13時時点,19191,19.1,43.23166666666667,144.325,鶴居,ほぼ安全
2023-08-13 13:00:00,8月13日 13時時点,19261,19.5,43.19833333333333,144.14166666666668,中徹別,ほぼ安全
2023-08-13 13:00:00,8月13日 13時時点,19311,17.8,43.12,145.11,榊町,ほぼ安全
2023-08-13 13:00:00,8月13日 13時時点,19376,17.0,43.09,144.77833333333334,太田,ほぼ安全
2023-08-13 13:00:00,8月13日 13時時点,19416,19.2,42.97,144.06166666666667,白糠,ほぼ安全
2023-08-13 13:00:00,8月13日 13時時点,19432,18.4,42.985,144.37666666666667,釧路,ほぼ安全
2023-08-13 13:00:00,8月13日 13時時点,19451,17.1,42.93833333333333,144.735,知方学,ほぼ安全
2023-08-13 13:00:00,8月13日 13時時点,20146,22.5,43.471666666666664,143.75333333333333,陸別,注意
2023-08-13 13:00:00,8月13日 13時時点,20186,19.7,43.36666666666667,143.19166666666666,ぬかびら源泉郷,ほぼ安全
2023-08-13 13:00:00,8月13日 13時時点,20266,20.8,43.24166666666667,143.295,上士幌,ほぼ安全
2023-08-13 13:00:00,8月13日 13時時点,20276,23.7,43.24333333333333,143.55333333333334,足寄,注意
2023-08-13 13:00:00,8月13日 13時時点,20341,21.8,43.13166666666667,143.6,本別,注意
2023-08-13 13:00:00,8月13日 13時時点,20356,20.9,43.07666666666667,142.84,新得,ほぼ安全
2023-08-13 13:00:00,8月13日 13時時点,20361,21.3,43.10333333333333,142.995,鹿追,注意
2023-08-13 13:00:00,8月13日 13時時点,20371,21.7,43.05,143.18333333333334,駒場,注意
2023-08-13 13:00:00,8月13日 13時時点,20421,21.9,42.9,143.04333333333332,芽室,注意
2023-08-13 13:00:00,8月13日 13時時点,20432,23.2,42.92166666666667,143.21166666666667,帯広,注意
2023-08-13 13:00:00,8月13日 13時時点,20441,22.3,42.92,143.45833333333334,池田,注意
2023-08-13 13:00:00,8月13日 13時時点,20506,21.8,42.80833333333333,143.65666666666667,浦幌,注意
2023-08-13 13:00:00,8月13日 13時時点,20556,23.0,42.78666666666667,143.32833333333335,糠内,注意
2023-08-13 13:00:00,8月13日 13時時点,20601,20.6,42.641666666666666,143.09666666666666,上札内,ほぼ安全
2023-08-13 13:00:00,8月13日 13時時点,20606,20.7,42.651666666666664,143.195,更別,ほぼ安全
2023-08-13 13:00:00,8月13日 13時時点,20631,20.5,42.68666666666667,143.64666666666668,大津,ほぼ安全
2023-08-13 13:00:00,8月13日 13時時点,20696,20.1,42.5,143.27333333333334,大樹,ほぼ安全
2023-08-13 13:00:00,8月13日 13時時点,20751,19.2,42.29333333333334,143.31666666666666,広尾,ほぼ安全
2023-08-13 13:00:00,8月13日 13時時点,21111,27.7,42.73,141.88833333333332,厚真,警戒
2023-08-13 13:00:00,8月13日 13時時点,21126,27.9,42.76166666666667,142.14333333333335,穂別,警戒
2023-08-13 13:00:00,8月13日 13時時点,21161,25.4,42.67,141.07833333333335,大滝,警戒
2023-08-13 13:00:00,8月13日 13時時点,21171,23.9,42.63,141.24666666666667,森野,注意
2023-08-13 13:00:00,8月13日 13時時点,21187,25.3,42.623333333333335,141.54666666666665,苫小牧,警戒
2023-08-13 13:00:00,8月13日 13時時点,21226,24.4,42.59,140.64333333333335,大岸,注意
2023-08-13 13:00:00,8月13日 13時時点,21261,22.8,42.54333333333334,141.35166666666666,白老,注意
2023-08-13 13:00:00,8月13日 13時時点,21276,26.9,42.59,141.93333333333334,鵡川,警戒
2023-08-13 13:00:00,8月13日 13時時点,21297,25.2,42.475,140.84833333333333,伊達,警戒
2023-08-13 13:00:00,8月13日 13時時点,21312,22.8,42.458333333333336,141.11833333333334,登別,注意
2023-08-13 13:00:00,8月13日 13時時点,21323,22.1,42.31166666666667,140.975,室蘭,注意
2023-08-13 13:00:00,8月13日 13時時点,22036,25.5,42.876666666666665,142.44166666666666,日高,警戒
2023-08-13 13:00:00,8月13日 13時時点,22141,25.9,42.49666666666667,142.05333333333334,日高門別,警戒
2023-08-13 13:00:00,8月13日 13時時点,22156,27.3,42.54333333333334,142.33333333333334,新和,警戒
2023-08-13 13:00:00,8月13日 13時時点,22241,24.3,42.343333333333334,142.36166666666668,静内,注意
2023-08-13 13:00:00,8月13日 13時時点,22291,25.9,42.245,142.66166666666666,三石,警戒
2023-08-13 13:00:00,8月13日 13時時点,22306,26.5,42.223333333333336,142.94833333333332,中杵臼,警戒
2023-08-13 13:00:00,8月13日 13時時点,22327,25.0,42.16166666666667,142.77666666666667,浦河,警戒
2023-08-13 13:00:00,8月13日 13時時点,22391,18.4,41.925,143.24333333333334,えりも岬,ほぼ安全
2023-08-13 13:00:00,8月13日 13時時点,23031,23.3,42.52333333333333,140.38166666666666,長万部,注意
2023-08-13 13:00:00,8月13日 13時時点,23086,23.5,42.251666666666665,140.27166666666668,八雲,注意
2023-08-13 13:00:00,8月13日 13時時点,23166,23.2,42.06666666666667,140.58833333333334,森,注意
2023-08-13 13:00:00,8月13日 13時時点,23206,23.4,41.905,140.97,川汲,注意
2023-08-13 13:00:00,8月13日 13時時点,23226,23.7,41.88666666666667,140.65333333333334,北斗,注意
2023-08-13 13:00:00,8月13日 13時時点,23232,22.7,41.81666666666667,140.75333333333333,函館,注意
2023-08-13 13:00:00,8月13日 13時時点,23326,22.9,41.68,140.43666666666667,木古内,注意
2023-08-13 13:00:00,8月13日 13時時点,23376,26.7,41.42333333333333,140.08666666666667,松前,警戒
2023-08-13 13:00:00,8月13日 13時時点,24141,30.1,42.12833333333333,139.985,熊石,厳重警戒
2023-08-13 13:00:00,8月13日 13時時点,24041,28.5,42.45,139.85166666666666,せたな,厳重警戒
2023-08-13 13:00:00,8月13日 13時時点,24051,28.0,42.428333333333335,140.00833333333333,今金,厳重警戒
2023-08-13 13:00:00,8月13日 13時時点,24101,29.3,42.248333333333335,139.55666666666667,奥尻,厳重警戒
2023-08-13 13:00:00,8月13日 13時時点,24201,23.8,41.93,140.31166666666667,鶉,注意
2023-08-13 13:00:00,8月13日 13時時点,24217,24.1,41.86666666666667,140.12333333333333,江差,注意
2023-08-13 13:00:00,8月13日 13時時点,31001,22.9,41.526666666666664,140.91166666666666,大間,注意
2023-08-13 13:00:00,8月13日 13時時点,31111,22.4,41.28333333333333,141.21,むつ,注意
2023-08-13 13:00:00,8月13日 13時時点,31121,21.5,41.235,141.39666666666668,小田野沢,注意
2023-08-13 13:00:00,8月13日 13時時点,31136,23.7,41.18,140.48166666666665,今別,注意
2023-08-13 13:00:00,8月13日 13時時点,31156,20.8,41.145,140.82166666666666,脇野沢,ほぼ安全
2023-08-13 13:00:00,8月13日 13時時点,31186,23.3,41.056666666666665,140.34666666666666,市浦,注意
2023-08-13 13:00:00,8月13日 13時時点,31201,21.8,41.045,140.63333333333333,蟹田,注意
2023-08-13 13:00:00,8月13日 13時時点,31296,28.1,40.80833333333333,140.45833333333334,五所川原,厳重警戒
2023-08-13 13:00:00,8月13日 13時時点,31312,25.6,40.821666666666665,140.76833333333335,青森,警戒
2023-08-13 13:00:00,8月13日 13時時点,31332,22.0,40.885,141.16,野辺地,注意
2023-08-13 13:00:00,8月13日 13時時点,31336,21.3,40.885,141.27166666666668,六ケ所,注意
2023-08-13 13:00:00,8月13日 13時時点,31366,27.8,40.776666666666664,140.205,鰺ケ沢,警戒
2023-08-13 13:00:00,8月13日 13時時点,31436,30.6,40.645,139.93166666666667,深浦,厳重警戒
2023-08-13 13:00:00,8月13日 13時時点,31461,29.7,40.611666666666665,140.455,弘前,厳重警戒
2023-08-13 13:00:00,8月13日 13時時点,31466,27.6,40.666666666666664,140.585,黒石,警戒
2023-08-13 13:00:00,8月13日 13時時点,31482,21.1,40.64833333333333,140.84833333333333,酸ケ湯,注意
2023-08-13 13:00:00,8月13日 13時時点,31506,22.5,40.675,141.375,三沢,注意
2023-08-13 13:00:00,8月13日 13時時点,31586,22.5,40.60666666666667,141.23333333333332,十和田,注意
2023-08-13 13:00:00,8月13日 13時時点,31602,23.6,40.526666666666664,141.52166666666668,八戸,注意
2023-08-13 13:00:00,8月13日 13時時点,31646,30.3,40.48166666666667,140.62,碇ケ関,厳重警戒
2023-08-13 13:00:00,8月13日 13時時点,31662,23.1,40.42666666666667,140.89833333333334,休屋,注意
2023-08-13 13:00:00,8月13日 13時時点,31721,24.3,40.38333333333333,141.25666666666666,三戸,注意
2023-08-13 13:00:00,8月13日 13時時点,32056,31.5,40.413333333333334,139.94833333333332,八森,危険
2023-08-13 13:00:00,8月13日 13時時点,32111,30.9,40.19833333333333,140.03166666666667,能代,厳重警戒
2023-08-13 13:00:00,8月13日 13時時点,32126,30.7,40.22666666666667,140.37166666666667,鷹巣,厳重警戒
2023-08-13 13:00:00,8月13日 13時時点,32136,30.6,40.251666666666665,140.505,大館,厳重警戒
2023-08-13 13:00:00,8月13日 13時時点,32146,31.4,40.215,140.78666666666666,鹿角,危険
2023-08-13 13:00:00,8月13日 13時時点,32206,30.6,40.12,140.84,湯瀬,厳重警戒
2023-08-13 13:00:00,8月13日 13時時点,32266,28.9,40.013333333333335,140.80166666666668,八幡平,厳重警戒
2023-08-13 13:00:00,8月13日 13時時点,32286,30.3,39.91166666666667,139.9,男鹿,厳重警戒
2023-08-13 13:00:00,8月13日 13時時点,32287,31.9,40.0,139.95,大潟,危険
2023-08-13 13:00:00,8月13日 13時時点,32296,32.0,39.93833333333333,140.115,五城目,危険
2023-08-13 13:00:00,8月13日 13時時点,32311,30.6,39.99333333333333,140.40333333333334,阿仁合,厳重警戒
2023-08-13 13:00:00,8月13日 13時時点,32402,30.3,39.71666666666667,140.09833333333333,秋田,厳重警戒
2023-08-13 13:00:00,8月13日 13時時点,32407,31.1,39.70666666666666,140.28666666666666,岩見三内,危険
2023-08-13 13:00:00,8月13日 13時時点,32466,32.7,39.60333333333333,140.55666666666667,角館,危険
2023-08-13 13:00:00,8月13日 13時時点,32476,30.9,39.69833333333333,140.73166666666665,田沢湖,厳重警戒
2023-08-13 13:00:00,8月13日 13時時点,32496,31.1,39.526666666666664,140.23333333333332,大正寺,危険
2023-08-13 13:00:00,8月13日 13時時点,32551,32.7,39.49,140.495,大曲,危険
2023-08-13 13:00:00,8月13日 13時時点,32571,31.7,39.36,140.055,本荘,危険
2023-08-13 13:00:00,8月13日 13時時点,32581,32.8,39.305,140.28833333333333,東由利,危険
2023-08-13 13:00:00,8月13日 13時時点,32596,33.5,39.32,140.555,横手,危険
2023-08-13 13:00:00,8月13日 13時時点,32616,31.2,39.255,139.91333333333333,にかほ,危険
2023-08-13 13:00:00,8月13日 13時時点,32626,31.8,39.235,140.13666666666666,矢島,危険
2023-08-13 13:00:00,8月13日 13時時点,32691,31.9,39.18666666666667,140.46333333333334,湯沢,危険
2023-08-13 13:00:00,8月13日 13時時点,32771,30.1,38.96,140.52833333333334,湯の岱,厳重警戒
2023-08-13 13:00:00,8月13日 13時時点,33006,23.8,40.403333333333336,141.7,種市,注意
2023-08-13 13:00:00,8月13日 13時時点,33026,25.9,40.325,141.46666666666667,軽米,警戒
2023-08-13 13:00:00,8月13日 13時時点,33071,26.1,40.29833333333333,141.29833333333335,二戸,警戒
2023-08-13 13:00:00,8月13日 13時時点,33136,25.1,40.14833333333333,141.57166666666666,山形,警戒
2023-08-13 13:00:00,8月13日 13時時点,33146,25.7,40.16833333333334,141.74833333333333,久慈,警戒
2023-08-13 13:00:00,8月13日 13時時点,33166,25.6,40.10333333333333,141.05,荒屋,警戒
2023-08-13 13:00:00,8月13日 13時時点,33176,25.6,40.06,141.225,奥中山,警戒
2023-08-13 13:00:00,8月13日 13時時点,33186,27.4,40.04,141.45666666666668,葛巻,警戒
2023-08-13 13:00:00,8月13日 13時時点,33206,26.2,40.00333333333333,141.88333333333333,普代,警戒
2023-08-13 13:00:00,8月13日 13時時点,33226,29.7,39.95166666666667,141.065,岩手松尾,厳重警戒
2023-08-13 13:00:00,8月13日 13時時点,33296,32.7,39.86833333333333,141.16666666666666,好摩,危険
2023-08-13 13:00:00,8月13日 13時時点,33326,28.4,39.846666666666664,141.795,岩泉,厳重警戒
2023-08-13 13:00:00,8月13日 13時時点,33336,28.1,39.846666666666664,141.96333333333334,小本,厳重警戒
2023-08-13 13:00:00,8月13日 13時時点,33371,28.9,39.78333333333333,141.32833333333335,薮川,厳重警戒
2023-08-13 13:00:00,8月13日 13時時点,33421,31.1,39.696666666666665,140.975,雫石,危険
2023-08-13 13:00:00,8月13日 13時時点,33431,31.1,39.69833333333333,141.165,盛岡,危険
2023-08-13 13:00:00,8月13日 13時時点,33441,25.3,39.65,141.35333333333332,区界,警戒
2023-08-13 13:00:00,8月13日 13時時点,33472,27.8,39.64666666666667,141.965,宮古,警戒
2023-08-13 13:00:00,8月13日 13時時点,33486,28.9,39.54833333333333,140.84333333333333,沢内,厳重警戒
2023-08-13 13:00:00,8月13日 13時時点,33501,31.2,39.54666666666667,141.12666666666667,紫波,危険
2023-08-13 13:00:00,8月13日 13時時点,33526,31.2,39.598333333333336,141.68166666666667,川井,危険
2023-08-13 13:00:00,8月13日 13時時点,33581,31.6,39.47,141.27833333333334,大迫,危険
2023-08-13 13:00:00,8月13日 13時時点,33616,28.9,39.45,141.95666666666668,山田,厳重警戒
2023-08-13 13:00:00,8月13日 13時時点,33631,31.2,39.31,140.77666666666667,湯田,危険
2023-08-13 13:00:00,8月13日 13時時点,33671,30.8,39.33833333333333,141.54333333333332,遠野,厳重警戒
2023-08-13 13:00:00,8月13日 13時時点,33716,31.7,39.288333333333334,141.11,北上,危険
2023-08-13 13:00:00,8月13日 13時時点,33751,29.5,39.27,141.87833333333333,釜石,厳重警戒
2023-08-13 13:00:00,8月13日 13時時点,33776,31.7,39.14,141.06333333333333,若柳,危険
2023-08-13 13:00:00,8月13日 13時時点,33781,32.7,39.18333333333333,141.16166666666666,江刺,危険
2023-08-13 13:00:00,8月13日 13時時点,33801,31.8,39.141666666666666,141.57333333333332,住田,危険
2023-08-13 13:00:00,8月13日 13時時点,33877,31.1,39.06333333333333,141.71333333333334,大船渡,危険
2023-08-13 13:00:00,8月13日 13時時点,33911,31.7,38.93333333333333,141.125,一関,危険
2023-08-13 13:00:00,8月13日 13時時点,33921,29.3,38.92166666666667,141.33,千厩,厳重警戒
2023-08-13 13:00:00,8月13日 13時時点,34012,25.3,38.913333333333334,140.82833333333335,駒ノ湯,警戒
2023-08-13 13:00:00,8月13日 13時時点,34026,29.3,38.906666666666666,141.55666666666667,気仙沼,厳重警戒
2023-08-13 13:00:00,8月13日 13時時点,34096,27.7,38.74333333333333,140.76,川渡,警戒
2023-08-13 13:00:00,8月13日 13時時点,34111,29.3,38.735,141.005,築館,厳重警戒
2023-08-13 13:00:00,8月13日 13時時点,34171,31.7,38.626666666666665,141.18833333333333,米山,危険
2023-08-13 13:00:00,8月13日 13時時点,34186,29.2,38.681666666666665,141.44833333333332,志津川,厳重警戒
2023-08-13 13:00:00,8月13日 13時時点,34216,28.7,38.598333333333336,140.91166666666666,古川,厳重警戒
2023-08-13 13:00:00,8月13日 13時時点,34266,31.2,38.473333333333336,140.88833333333332,大衡,危険
2023-08-13 13:00:00,8月13日 13時時点,34276,31.2,38.46,141.09166666666667,鹿島台,危険
2023-08-13 13:00:00,8月13日 13時時点,34292,30.6,38.42666666666667,141.29833333333335,石巻,厳重警戒
2023-08-13 13:00:00,8月13日 13時時点,34296,29.2,38.446666666666665,141.45,女川,厳重警戒
2023-08-13 13:00:00,8月13日 13時時点,34311,28.2,38.303333333333335,140.63666666666666,新川,厳重警戒
2023-08-13 13:00:00,8月13日 13時時点,34331,31.2,38.33833333333333,141.01333333333332,塩釜,危険
2023-08-13 13:00:00,8月13日 13時時点,34392,29.2,38.26166666666666,140.89666666666668,仙台,厳重警戒
2023-08-13 13:00:00,8月13日 13時時点,34461,30.4,38.015,140.61166666666668,白石,厳重警戒
2023-08-13 13:00:00,8月13日 13時時点,34462,29.6,38.126666666666665,140.68,蔵王,厳重警戒
2023-08-13 13:00:00,8月13日 13時時点,34471,27.5,38.025,140.85833333333332,亘理,警戒
2023-08-13 13:00:00,8月13日 13時時点,34506,27.7,37.931666666666665,140.77833333333334,丸森,警戒
2023-08-13 13:00:00,8月13日 13時時点,35002,32.5,39.18333333333333,139.54333333333332,飛島,危険
2023-08-13 13:00:00,8月13日 13時時点,35052,30.9,38.90833333333333,139.84333333333333,酒田,厳重警戒
2023-08-13 13:00:00,8月13日 13時時点,35071,30.5,38.91833333333334,140.2,差首鍋,厳重警戒
2023-08-13 13:00:00,8月13日 13時時点,35116,31.4,38.87833333333333,140.33166666666668,金山,危険
2023-08-13 13:00:00,8月13日 13時時点,35141,32.2,38.735,139.82833333333335,鶴岡,危険
2023-08-13 13:00:00,8月13日 13時時点,35146,32.2,38.8,139.97333333333333,狩川,危険
2023-08-13 13:00:00,8月13日 13時時点,35162,31.7,38.75666666666667,140.31166666666667,新庄,危険
2023-08-13 13:00:00,8月13日 13時時点,35176,30.3,38.75833333333333,140.51666666666668,向町,厳重警戒
2023-08-13 13:00:00,8月13日 13時時点,35216,29.4,38.60666666666667,140.16333333333333,肘折,厳重警戒
2023-08-13 13:00:00,8月13日 13時時点,35231,31.8,38.608333333333334,140.41166666666666,尾花沢,危険
2023-08-13 13:00:00,8月13日 13時時点,35246,30.8,38.56666666666667,139.55166666666668,鼠ケ関,厳重警戒
2023-08-13 13:00:00,8月13日 13時時点,35332,31.6,38.46,140.34833333333333,村山,危険
2023-08-13 13:00:00,8月13日 13時時点,35361,29.7,38.39,139.99333333333334,大井沢,厳重警戒
2023-08-13 13:00:00,8月13日 13時時点,35376,31.0,38.37,140.19166666666666,左沢,危険
2023-08-13 13:00:00,8月13日 13時時点,35426,30.7,38.255,140.345,山形,厳重警戒
2023-08-13 13:00:00,8月13日 13時時点,35456,30.4,38.105,140.015,長井,厳重警戒
2023-08-13 13:00:00,8月13日 13時時点,35486,32.6,38.07833333333333,139.735,小国,危険
2023-08-13 13:00:00,8月13日 13時時点,35511,32.8,38.00333333333333,140.20666666666668,高畠,危険
2023-08-13 13:00:00,8月13日 13時時点,35541,31.9,37.99,139.95333333333335,高峰,危険
2023-08-13 13:00:00,8月13日 13時時点,35552,31.0,37.91166666666667,140.14333333333335,米沢,危険
2023-08-13 13:00:00,8月13日 13時時点,36056,31.5,37.891666666666666,140.43666666666667,茂庭,危険
2023-08-13 13:00:00,8月13日 13時時点,36066,27.0,37.85166666666667,140.58833333333334,梁川,警戒
2023-08-13 13:00:00,8月13日 13時時点,36106,27.6,37.721666666666664,140.05833333333334,桧原,警戒
2023-08-13 13:00:00,8月13日 13時時点,36127,29.5,37.75833333333333,140.47,福島,厳重警戒
2023-08-13 13:00:00,8月13日 13時時点,36151,30.9,37.78333333333333,140.925,相馬,厳重警戒
2023-08-13 13:00:00,8月13日 13時時点,36176,31.9,37.65833333333333,139.86333333333334,喜多方,危険
2023-08-13 13:00:00,8月13日 13時時点,36196,21.3,37.66833333333334,140.26,鷲倉,注意
2023-08-13 13:00:00,8月13日 13時時点,36221,27.4,37.665,140.72666666666666,飯舘,警戒
2023-08-13 13:00:00,8月13日 13時時点,36251,31.4,37.58833333333333,139.65666666666667,西会津,危険
2023-08-13 13:00:00,8月13日 13時時点,36276,29.2,37.55166666666667,140.10833333333332,猪苗代,厳重警戒
2023-08-13 13:00:00,8月13日 13時時点,36291,30.6,37.583333333333336,140.43,二本松,厳重警戒
2023-08-13 13:00:00,8月13日 13時時点,36342,29.6,37.473333333333336,139.52833333333334,金山,厳重警戒
2023-08-13 13:00:00,8月13日 13時時点,36361,31.6,37.48833333333334,139.91,若松,危険
2023-08-13 13:00:00,8月13日 13時時点,36391,29.1,37.435,140.57666666666665,船引,厳重警戒
2023-08-13 13:00:00,8月13日 13時時点,36411,30.9,37.49166666666667,140.965,浪江,厳重警戒
2023-08-13 13:00:00,8月13日 13時時点,36426,31.0,37.343333333333334,139.31333333333333,只見,危険
2023-08-13 13:00:00,8月13日 13時時点,36476,30.7,37.36833333333333,140.33,郡山,厳重警戒
2023-08-13 13:00:00,8月13日 13時時点,36501,27.7,37.336666666666666,140.80833333333334,川内,警戒
2023-08-13 13:00:00,8月13日 13時時点,36536,29.3,37.265,139.53666666666666,南郷,厳重警戒
2023-08-13 13:00:00,8月13日 13時時点,36562,28.2,37.276666666666664,140.06333333333333,湯本,厳重警戒
2023-08-13 13:00:00,8月13日 13時時点,36591,29.9,37.28666666666667,140.625,小野新町,厳重警戒
2023-08-13 13:00:00,8月13日 13時時点,36611,30.9,37.233333333333334,141.0,広野,厳重警戒
2023-08-13 13:00:00,8月13日 13時時点,36641,28.2,37.20666666666666,139.795,田島,厳重警戒
2023-08-13 13:00:00,8月13日 13時時点,36667,28.6,37.13166666666667,140.215,白河,厳重警戒
2023-08-13 13:00:00,8月13日 13時時点,36676,31.3,37.14666666666667,140.46,石川,危険
2023-08-13 13:00:00,8月13日 13時時点,36716,25.5,37.01,139.375,桧枝岐,警戒
2023-08-13 13:00:00,8月13日 13時時点,36821,30.0,36.93833333333333,140.40833333333333,東白川,厳重警戒
2023-08-13 13:00:00,8月13日 13時時点,36836,30.6,36.93333333333333,140.73333333333332,山田,厳重警戒
2023-08-13 13:00:00,8月13日 13時時点,36846,31.6,36.946666666666665,140.90333333333334,小名浜,危険
2023-08-13 13:00:00,8月13日 13時時点,40046,32.0,36.833333333333336,140.77166666666668,北茨城,危険
2023-08-13 13:00:00,8月13日 13時時点,40061,33.7,36.778333333333336,140.345,大子,危険
2023-08-13 13:00:00,8月13日 13時時点,40091,30.1,36.60666666666667,140.325,常陸大宮,厳重警戒
2023-08-13 13:00:00,8月13日 13時時点,40136,29.1,36.58,140.645,日立,厳重警戒
2023-08-13 13:00:00,8月13日 13時時点,40191,27.9,36.395,140.24,笠間,警戒
2023-08-13 13:00:00,8月13日 13時時点,40201,28.8,36.38,140.46666666666667,水戸,厳重警戒
2023-08-13 13:00:00,8月13日 13時時点,40221,29.5,36.20166666666667,139.71666666666667,古河,厳重警戒
2023-08-13 13:00:00,8月13日 13時時点,40231,31.6,36.281666666666666,139.98833333333334,下館,危険
2023-08-13 13:00:00,8月13日 13時時点,40281,29.6,36.16833333333334,139.945,下妻,厳重警戒
2023-08-13 13:00:00,8月13日 13時時点,40311,32.7,36.16833333333334,140.52666666666667,鉾田,危険
2023-08-13 13:00:00,8月13日 13時時点,40336,29.1,36.056666666666665,140.125,つくば,厳重警戒
2023-08-13 13:00:00,8月13日 13時時点,40341,28.1,36.10333333333333,140.22,土浦,厳重警戒
2023-08-13 13:00:00,8月13日 13時時点,40406,29.4,35.96333333333333,140.62166666666667,鹿嶋,厳重警戒
2023-08-13 13:00:00,8月13日 13時時点,40426,29.0,35.89,140.21166666666667,龍ケ崎,厳重警戒
2023-08-13 13:00:00,8月13日 13時時点,41011,28.1,37.123333333333335,140.035,那須高原,厳重警戒
2023-08-13 13:00:00,8月13日 13時時点,41076,29.1,36.92166666666667,139.695,五十里,厳重警戒
2023-08-13 13:00:00,8月13日 13時時点,41091,30.8,36.98166666666667,140.01833333333335,黒磯,厳重警戒
2023-08-13 13:00:00,8月13日 13時時点,41116,25.5,36.891666666666666,139.56833333333333,土呂部,警戒
2023-08-13 13:00:00,8月13日 13時時点,41141,32.8,36.84,140.035,大田原,危険
2023-08-13 13:00:00,8月13日 13時時点,41166,23.7,36.73833333333333,139.5,奥日光,注意
2023-08-13 13:00:00,8月13日 13時時点,41172,27.6,36.75,139.615,日光東町,警戒
2023-08-13 13:00:00,8月13日 13時時点,41181,31.8,36.75666666666667,139.88333333333333,塩谷,危険
2023-08-13 13:00:00,8月13日 13時時点,41247,31.7,36.641666666666666,140.11666666666667,那須烏山,危険
2023-08-13 13:00:00,8月13日 13時時点,41271,32.1,36.59166666666667,139.735,鹿沼,危険
2023-08-13 13:00:00,8月13日 13時時点,41277,29.0,36.54833333333333,139.86833333333334,宇都宮,厳重警戒
2023-08-13 13:00:00,8月13日 13時時点,41331,28.9,36.47666666666667,139.98666666666668,真岡,厳重警戒
2023-08-13 13:00:00,8月13日 13時時点,41361,31.2,36.36333333333334,139.57,佐野,危険
2023-08-13 13:00:00,8月13日 13時時点,41376,29.1,36.33833333333333,139.83,小山,厳重警戒
2023-08-13 13:00:00,8月13日 13時時点,42046,29.3,36.86333333333333,139.05833333333334,藤原,厳重警戒
2023-08-13 13:00:00,8月13日 13時時点,42091,27.8,36.77333333333333,138.965,みなかみ,警戒
2023-08-13 13:00:00,8月13日 13時時点,42121,22.8,36.61666666666667,138.59166666666667,草津,注意
2023-08-13 13:00:00,8月13日 13時時点,42146,28.2,36.66833333333334,139.02166666666668,沼田,厳重警戒
2023-08-13 13:00:00,8月13日 13時時点,42186,30.5,36.586666666666666,138.85,中之条,厳重警戒
2023-08-13 13:00:00,8月13日 13時時点,42221,20.6,36.46333333333333,138.46333333333334,田代,ほぼ安全
2023-08-13 13:00:00,8月13日 13時時点,42251,30.7,36.405,139.06,前橋,厳重警戒
2023-08-13 13:00:00,8月13日 13時時点,42266,31.3,36.41,139.325,桐生,危険
2023-08-13 13:00:00,8月13日 13時時点,42286,31.3,36.376666666666665,138.895,上里見,危険
2023-08-13 13:00:00,8月13日 13時時点,42302,29.3,36.33166666666666,139.165,伊勢崎,厳重警戒
2023-08-13 13:00:00,8月13日 13時時点,42326,29.8,36.245,138.70666666666668,西野牧,厳重警戒
2023-08-13 13:00:00,8月13日 13時時点,42366,30.2,36.24,139.51333333333332,館林,厳重警戒
2023-08-13 13:00:00,8月13日 13時時点,42396,29.7,36.108333333333334,138.89666666666668,神流,厳重警戒
2023-08-13 13:00:00,8月13日 13時時点,43051,29.7,36.105,139.18333333333334,寄居,厳重警戒
2023-08-13 13:00:00,8月13日 13時時点,43056,31.2,36.15,139.38,熊谷,危険
2023-08-13 13:00:00,8月13日 13時時点,43126,28.5,36.086666666666666,139.635,久喜,厳重警戒
2023-08-13 13:00:00,8月13日 13時時点,43156,28.2,35.99,139.07333333333332,秩父,厳重警戒
2023-08-13 13:00:00,8月13日 13時時点,43171,29.9,35.985,139.335,鳩山,厳重警戒
2023-08-13 13:00:00,8月13日 13時時点,43241,30.3,35.875,139.58666666666667,さいたま,厳重警戒
2023-08-13 13:00:00,8月13日 13時時点,43256,32.4,35.88333333333333,139.75666666666666,越谷,危険
2023-08-13 13:00:00,8月13日 13時時点,43266,32.1,35.77333333333333,139.41333333333333,所沢,危険
2023-08-13 13:00:00,8月13日 13時時点,44046,29.3,35.791666666666664,139.05,小河内,厳重警戒
2023-08-13 13:00:00,8月13日 13時時点,44056,29.5,35.788333333333334,139.31166666666667,青梅,厳重警戒
2023-08-13 13:00:00,8月13日 13時時点,44071,32.7,35.73833333333333,139.59166666666667,練馬,危険
2023-08-13 13:00:00,8月13日 13時時点,44112,30.1,35.666666666666664,139.31666666666666,八王子,厳重警戒
2023-08-13 13:00:00,8月13日 13時時点,44116,30.6,35.68333333333333,139.48333333333332,府中,厳重警戒
2023-08-13 13:00:00,8月13日 13時時点,44132,29.1,35.69166666666667,139.75,東京,厳重警戒
2023-08-13 13:00:00,8月13日 13時時点,44136,30.1,35.638333333333335,139.86333333333334,江戸川臨海,厳重警戒
2023-08-13 13:00:00,8月13日 13時時点,44172,29.7,34.748333333333335,139.36166666666668,大島,厳重警戒
2023-08-13 13:00:00,8月13日 13時時点,44226,31.4,34.123333333333335,139.52,三宅島,危険
2023-08-13 13:00:00,8月13日 13時時点,44263,28.6,33.12166666666667,139.77833333333334,八丈島,厳重警戒
2023-08-13 13:00:00,8月13日 13時時点,44301,31.2,27.091666666666665,142.19,父島,危険
2023-08-13 13:00:00,8月13日 13時時点,45061,28.9,35.86333333333333,140.11,我孫子,厳重警戒
2023-08-13 13:00:00,8月13日 13時時点,45081,30.8,35.858333333333334,140.50166666666667,香取,厳重警戒
2023-08-13 13:00:00,8月13日 13時時点,45106,30.6,35.711666666666666,140.04333333333332,船橋,厳重警戒
2023-08-13 13:00:00,8月13日 13時時点,45116,30.8,35.72833333333333,140.21166666666667,佐倉,厳重警戒
2023-08-13 13:00:00,8月13日 13時時点,45147,31.6,35.73833333333333,140.85666666666665,銚子,危険
2023-08-13 13:00:00,8月13日 13時時点,45181,31.9,35.655,140.505,横芝光,危険
2023-08-13 13:00:00,8月13日 13時時点,45212,30.7,35.60166666666667,140.10333333333332,千葉,厳重警戒
2023-08-13 13:00:00,8月13日 13時時点,45261,29.5,35.43666666666667,140.29333333333332,茂原,厳重警戒
2023-08-13 13:00:00,8月13日 13時時点,45282,31.3,35.361666666666665,139.94,木更津,危険
2023-08-13 13:00:00,8月13日 13時時点,45291,31.2,35.39666666666667,140.14833333333334,牛久,危険
2023-08-13 13:00:00,8月13日 13時時点,45326,30.7,35.235,140.09833333333333,坂畑,厳重警戒
2023-08-13 13:00:00,8月13日 13時時点,45361,30.1,35.111666666666665,140.1,鴨川,厳重警戒
2023-08-13 13:00:00,8月13日 13時時点,45371,30.9,35.15,140.31166666666667,勝浦,厳重警戒
2023-08-13 13:00:00,8月13日 13時時点,45401,29.1,34.986666666666665,139.865,館山,厳重警戒
2023-08-13 13:00:00,8月13日 13時時点,46091,32.5,35.43333333333333,139.38666666666666,海老名,危険
2023-08-13 13:00:00,8月13日 13時時点,46106,31.2,35.43833333333333,139.65166666666667,横浜,危険
2023-08-13 13:00:00,8月13日 13時時点,46141,30.6,35.32,139.45,辻堂,厳重警戒
2023-08-13 13:00:00,8月13日 13時時点,46166,29.7,35.276666666666664,139.155,小田原,厳重警戒
2023-08-13 13:00:00,8月13日 13時時点,46211,29.1,35.178333333333335,139.63,三浦,厳重警戒
2023-08-13 13:00:00,8月13日 13時時点,48031,27.1,36.91166666666667,138.44166666666666,野沢温泉,警戒
2023-08-13 13:00:00,8月13日 13時時点,48061,29.3,36.80833333333333,138.19666666666666,信濃町,厳重警戒
2023-08-13 13:00:00,8月13日 13時時点,48066,31.7,36.875,138.375,飯山,危険
2023-08-13 13:00:00,8月13日 13時時点,48141,29.6,36.69833333333333,137.86166666666668,白馬,厳重警戒
2023-08-13 13:00:00,8月13日 13時時点,48156,30.7,36.66166666666667,138.19166666666666,長野,厳重警戒
2023-08-13 13:00:00,8月13日 13時時点,48191,30.4,36.52333333333333,137.83166666666668,大町,厳重警戒
2023-08-13 13:00:00,8月13日 13時時点,48196,30.4,36.54833333333333,137.99666666666667,信州新町,厳重警戒
2023-08-13 13:00:00,8月13日 13時時点,48216,24.9,36.531666666666666,138.325,菅平,注意
2023-08-13 13:00:00,8月13日 13時時点,48256,30.1,36.4,138.265,上田,厳重警戒
2023-08-13 13:00:00,8月13日 13時時点,48296,29.6,36.343333333333334,137.88166666666666,穂高,厳重警戒
2023-08-13 13:00:00,8月13日 13時時点,48321,27.7,36.38333333333333,138.38333333333333,東御,警戒
2023-08-13 13:00:00,8月13日 13時時点,48331,25.5,36.34166666666667,138.54666666666665,軽井沢,警戒
2023-08-13 13:00:00,8月13日 13時時点,48361,28.3,36.24666666666667,137.97,松本,厳重警戒
2023-08-13 13:00:00,8月13日 13時時点,48381,29.3,36.27166666666667,138.31333333333333,立科,厳重警戒
2023-08-13 13:00:00,8月13日 13時時点,48386,30.2,36.24666666666667,138.47666666666666,佐久,厳重警戒
2023-08-13 13:00:00,8月13日 13時時点,48466,24.7,36.08833333333333,137.68333333333334,奈川,注意
2023-08-13 13:00:00,8月13日 13時時点,48491,29.1,36.045,138.10833333333332,諏訪,厳重警戒
2023-08-13 13:00:00,8月13日 13時時点,48531,27.3,35.93833333333333,137.60166666666666,開田高原,警戒
2023-08-13 13:00:00,8月13日 13時時点,48536,28.3,35.93666666666667,137.78666666666666,木祖薮原,厳重警戒
2023-08-13 13:00:00,8月13日 13時時点,48546,28.7,35.983333333333334,137.98333333333332,辰野,厳重警戒
2023-08-13 13:00:00,8月13日 13時時点,48561,27.7,35.97,138.22,原村,警戒
2023-08-13 13:00:00,8月13日 13時時点,48571,21.9,35.94833333333333,138.47166666666666,野辺山,注意
2023-08-13 13:00:00,8月13日 13時時点,48606,29.5,35.84,137.68833333333333,木曽福島,厳重警戒
2023-08-13 13:00:00,8月13日 13時時点,48621,31.4,35.825,137.955,伊那,危険
2023-08-13 13:00:00,8月13日 13時時点,48717,30.5,35.61,137.62,南木曽,厳重警戒
2023-08-13 13:00:00,8月13日 13時時点,48731,30.0,35.653333333333336,137.89833333333334,飯島,厳重警戒
2023-08-13 13:00:00,8月13日 13時時点,48767,30.2,35.52333333333333,137.82166666666666,飯田,厳重警戒
2023-08-13 13:00:00,8月13日 13時時点,48826,27.8,35.373333333333335,137.69166666666666,浪合,警戒
2023-08-13 13:00:00,8月13日 13時時点,48841,33.3,35.321666666666665,137.93166666666667,南信濃,危険
2023-08-13 13:00:00,8月13日 13時時点,49036,28.9,35.861666666666665,138.38666666666666,大泉,厳重警戒
2023-08-13 13:00:00,8月13日 13時時点,49086,30.0,35.693333333333335,138.44833333333332,韮崎,厳重警戒
2023-08-13 13:00:00,8月13日 13時時点,49142,30.4,35.666666666666664,138.55333333333334,甲府,厳重警戒
2023-08-13 13:00:00,8月13日 13時時点,49151,32.4,35.663333333333334,138.725,勝沼,危険
2023-08-13 13:00:00,8月13日 13時時点,49161,30.5,35.608333333333334,138.93833333333333,大月,厳重警戒
2023-08-13 13:00:00,8月13日 13時時点,49196,28.5,35.528333333333336,138.615,古関,厳重警戒
2023-08-13 13:00:00,8月13日 13時時点,49236,31.8,35.46666666666667,138.44166666666666,切石,危険
2023-08-13 13:00:00,8月13日 13時時点,49251,26.7,35.5,138.76,河口湖,警戒
2023-08-13 13:00:00,8月13日 13時時点,49256,26.1,35.43666666666667,138.83666666666667,山中,警戒
2023-08-13 13:00:00,8月13日 13時時点,49316,31.6,35.288333333333334,138.445,南部,危険
2023-08-13 13:00:00,8月13日 13時時点,50106,28.6,35.21666666666667,138.22166666666666,井川,厳重警戒
2023-08-13 13:00:00,8月13日 13時時点,50136,29.3,35.305,138.92666666666668,御殿場,厳重警戒
2023-08-13 13:00:00,8月13日 13時時点,50196,31.5,35.185,138.66333333333333,富士,危険
2023-08-13 13:00:00,8月13日 13時時点,50206,30.9,35.11333333333334,138.925,三島,厳重警戒
2023-08-13 13:00:00,8月13日 13時時点,50226,32.6,35.056666666666665,137.76166666666666,佐久間,危険
2023-08-13 13:00:00,8月13日 13時時点,50241,31.4,35.10166666666667,138.12833333333333,川根本町,危険
2023-08-13 13:00:00,8月13日 13時時点,50261,32.0,35.053333333333335,138.52166666666668,清水,危険
2023-08-13 13:00:00,8月13日 13時時点,50281,29.1,35.045,139.09166666666667,網代,厳重警戒
2023-08-13 13:00:00,8月13日 13時時点,50331,32.2,34.975,138.40333333333334,静岡,危険
2023-08-13 13:00:00,8月13日 13時時点,50386,31.7,34.89,137.81333333333333,天竜,危険
2023-08-13 13:00:00,8月13日 13時時点,50456,32.1,34.75333333333333,137.71166666666667,浜松,危険
2023-08-13 13:00:00,8月13日 13時時点,50476,30.6,34.785,138.13833333333332,菊川牧之原,厳重警戒
2023-08-13 13:00:00,8月13日 13時時点,50491,31.2,34.755,138.78333333333333,松崎,危険
2023-08-13 13:00:00,8月13日 13時時点,50506,27.4,34.781666666666666,139.04833333333335,稲取,警戒
2023-08-13 13:00:00,8月13日 13時時点,50536,31.2,34.69166666666667,137.88,磐田,危険
2023-08-13 13:00:00,8月13日 13時時点,50551,29.3,34.60333333333333,138.21333333333334,御前崎,厳重警戒
2023-08-13 13:00:00,8月13日 13時時点,50561,29.2,34.60333333333333,138.84166666666667,石廊崎,厳重警戒
2023-08-13 13:00:00,8月13日 13時時点,51031,32.3,35.21666666666667,136.69833333333332,愛西,危険
2023-08-13 13:00:00,8月13日 13時時点,51071,28.2,35.211666666666666,137.50666666666666,稲武,厳重警戒
2023-08-13 13:00:00,8月13日 13時時点,51106,32.5,35.166666666666664,136.965,名古屋,危険
2023-08-13 13:00:00,8月13日 13時時点,51116,32.7,35.13166666666667,137.17666666666668,豊田,危険
2023-08-13 13:00:00,8月13日 13時時点,51216,32.5,34.995,136.94333333333333,大府,危険
2023-08-13 13:00:00,8月13日 13時時点,51226,29.7,34.91833333333334,137.19333333333333,岡崎,厳重警戒
2023-08-13 13:00:00,8月13日 13時時点,51247,32.4,34.906666666666666,137.51833333333335,新城,危険
2023-08-13 13:00:00,8月13日 13時時点,51281,29.5,34.845,137.21666666666667,蒲郡,厳重警戒
2023-08-13 13:00:00,8月13日 13時時点,51311,31.5,34.74,136.93833333333333,南知多,危険
2023-08-13 13:00:00,8月13日 13時時点,51331,33.2,34.75,137.34166666666667,豊橋,危険
2023-08-13 13:00:00,8月13日 13時時点,51346,31.2,34.62833333333333,137.09333333333333,伊良湖,危険
2023-08-13 13:00:00,8月13日 13時時点,52041,28.7,36.305,137.1,河合,厳重警戒
2023-08-13 13:00:00,8月13日 13時時点,52051,30.1,36.321666666666665,137.30833333333334,神岡,厳重警戒
2023-08-13 13:00:00,8月13日 13時時点,52081,29.8,36.27333333333333,136.89666666666668,白川,厳重警戒
2023-08-13 13:00:00,8月13日 13時時点,52111,28.8,36.248333333333335,137.50333333333333,栃尾,厳重警戒
2023-08-13 13:00:00,8月13日 13時時点,52146,29.6,36.155,137.25333333333333,高山,厳重警戒
2023-08-13 13:00:00,8月13日 13時時点,52181,26.9,36.06,137.035,六厩,警戒
2023-08-13 13:00:00,8月13日 13時時点,52196,24.4,36.015,137.38833333333332,宮之前,注意
2023-08-13 13:00:00,8月13日 13時時点,52221,31.0,35.92333333333333,136.83166666666668,長滝,危険
2023-08-13 13:00:00,8月13日 13時時点,52286,31.1,35.888333333333335,137.20666666666668,萩原,危険
2023-08-13 13:00:00,8月13日 13時時点,52331,33.2,35.75666666666667,136.97833333333332,八幡,危険
2023-08-13 13:00:00,8月13日 13時時点,52346,30.7,35.763333333333335,137.28833333333333,宮地,厳重警戒
2023-08-13 13:00:00,8月13日 13時時点,52381,32.4,35.638333333333335,136.60166666666666,樽見,危険
2023-08-13 13:00:00,8月13日 13時時点,52406,30.2,35.66166666666667,137.16,金山,厳重警戒
2023-08-13 13:00:00,8月13日 13時時点,52461,32.9,35.555,136.91,美濃,危険
2023-08-13 13:00:00,8月13日 13時時点,52482,30.9,35.598333333333336,137.31833333333333,黒川,厳重警戒
2023-08-13 13:00:00,8月13日 13時時点,52511,33.5,35.485,136.56666666666666,揖斐川,危険
2023-08-13 13:00:00,8月13日 13時時点,52536,31.4,35.445,137.005,美濃加茂,危険
2023-08-13 13:00:00,8月13日 13時時点,52556,32.6,35.446666666666665,137.40333333333334,恵那,危険
2023-08-13 13:00:00,8月13日 13時時点,52557,32.7,35.47666666666667,137.48666666666668,中津川,危険
2023-08-13 13:00:00,8月13日 13時時点,52571,32.6,35.36333333333334,136.46666666666667,関ケ原,危険
2023-08-13 13:00:00,8月13日 13時時点,52581,32.9,35.346666666666664,136.62,大垣,危険
2023-08-13 13:00:00,8月13日 13時時点,52586,32.5,35.4,136.76166666666666,岐阜,危険
2023-08-13 13:00:00,8月13日 13時時点,52606,32.2,35.346666666666664,137.10833333333332,多治見,危険
2023-08-13 13:00:00,8月13日 13時時点,53041,32.7,35.05,136.69333333333333,桑名,危険
2023-08-13 13:00:00,8月13日 13時時点,53061,32.7,34.94,136.58,四日市,危険
2023-08-13 13:00:00,8月13日 13時時点,53091,32.0,34.87,136.45333333333335,亀山,危険
2023-08-13 13:00:00,8月13日 13時時点,53112,30.4,34.76166666666667,136.14166666666668,上野,厳重警戒
2023-08-13 13:00:00,8月13日 13時時点,53133,31.5,34.733333333333334,136.51833333333335,津,危険
2023-08-13 13:00:00,8月13日 13時時点,53196,31.0,34.528333333333336,136.665,小俣,危険
2023-08-13 13:00:00,8月13日 13時時点,53231,30.8,34.44833333333333,136.39,粥見,厳重警戒
2023-08-13 13:00:00,8月13日 13時時点,53257,30.8,34.48166666666667,136.825,鳥羽,厳重警戒
2023-08-13 13:00:00,8月13日 13時時点,53296,31.5,34.345,136.68166666666667,南伊勢,危険
2023-08-13 13:00:00,8月13日 13時時点,53326,29.5,34.208333333333336,136.32666666666665,紀伊長島,厳重警戒
2023-08-13 13:00:00,8月13日 13時時点,53378,31.4,34.068333333333335,136.19333333333333,尾鷲,危険
2023-08-13 13:00:00,8月13日 13時時点,53401,30.7,33.931666666666665,136.13833333333332,熊野新鹿,厳重警戒
2023-08-13 13:00:00,8月13日 13時時点,54012,31.5,38.465,139.25333333333333,粟島,危険
2023-08-13 13:00:00,8月13日 13時時点,54041,30.3,38.33,138.51166666666666,弾崎,厳重警戒
2023-08-13 13:00:00,8月13日 13時時点,54086,32.2,38.22666666666667,139.47833333333332,村上,危険
2023-08-13 13:00:00,8月13日 13時時点,54157,31.3,38.028333333333336,138.24,相川,危険
2023-08-13 13:00:00,8月13日 13時時点,54166,31.8,38.07333333333333,138.44,両津,危険
2023-08-13 13:00:00,8月13日 13時時点,54181,31.0,38.07666666666667,139.38833333333332,中条,危険
2023-08-13 13:00:00,8月13日 13時時点,54191,32.4,38.09166666666667,139.56333333333333,下関,危険
2023-08-13 13:00:00,8月13日 13時時点,54232,30.3,37.89333333333333,139.01833333333335,新潟,厳重警戒
2023-08-13 13:00:00,8月13日 13時時点,54271,32.7,37.84166666666667,138.31333333333333,羽茂,危険
2023-08-13 13:00:00,8月13日 13時時点,54296,32.9,37.791666666666664,139.08666666666667,新津,危険
2023-08-13 13:00:00,8月13日 13時時点,54341,31.4,37.76833333333333,138.91333333333333,巻,危険
2023-08-13 13:00:00,8月13日 13時時点,54387,33.4,37.64,138.76666666666668,寺泊,危険
2023-08-13 13:00:00,8月13日 13時時点,54396,32.1,37.64,138.955,三条,危険
2023-08-13 13:00:00,8月13日 13時時点,54421,33.4,37.67166666666667,139.44666666666666,津川,危険
2023-08-13 13:00:00,8月13日 13時時点,54501,32.7,37.45,138.82333333333332,長岡,危険
2023-08-13 13:00:00,8月13日 13時時点,54541,30.8,37.35166666666667,138.55333333333334,柏崎,厳重警戒
2023-08-13 13:00:00,8月13日 13時時点,54566,31.9,37.346666666666664,139.04333333333332,守門,危険
2023-08-13 13:00:00,8月13日 13時時点,54586,30.4,37.225,138.325,大潟,厳重警戒
2023-08-13 13:00:00,8月13日 13時時点,54616,34.4,37.22666666666667,138.96333333333334,小出,危険
2023-08-13 13:00:00,8月13日 13時時点,54651,31.8,37.10666666666667,138.24666666666667,高田,危険
2023-08-13 13:00:00,8月13日 13時時点,54661,30.6,37.10666666666667,138.45666666666668,安塚,厳重警戒
2023-08-13 13:00:00,8月13日 13時時点,54676,33.5,37.14333333333333,138.72666666666666,十日町,危険
2023-08-13 13:00:00,8月13日 13時時点,54711,30.8,37.04333333333334,137.875,糸魚川,厳重警戒
2023-08-13 13:00:00,8月13日 13時時点,54721,26.7,37.083333333333336,138.02333333333334,能生,警戒
2023-08-13 13:00:00,8月13日 13時時点,54816,28.8,36.93333333333333,138.22166666666666,関山,厳重警戒
2023-08-13 13:00:00,8月13日 13時時点,54836,31.6,36.99666666666667,138.68333333333334,津南,危険
2023-08-13 13:00:00,8月13日 13時時点,54841,32.4,36.94166666666667,138.81,湯沢,危険
2023-08-13 13:00:00,8月13日 13時時点,55022,31.7,36.93666666666667,137.56333333333333,朝日,危険
2023-08-13 13:00:00,8月13日 13時時点,55041,30.4,36.86333333333333,136.96,氷見,厳重警戒
2023-08-13 13:00:00,8月13日 13時時点,55056,30.9,36.821666666666665,137.42833333333334,魚津,厳重警戒
2023-08-13 13:00:00,8月13日 13時時点,55091,30.9,36.791666666666664,137.055,伏木,厳重警戒
2023-08-13 13:00:00,8月13日 13時時点,55102,31.2,36.708333333333336,137.20166666666665,富山,危険
2023-08-13 13:00:00,8月13日 13時時点,55141,31.2,36.61,136.955,砺波,危険
2023-08-13 13:00:00,8月13日 13時時点,55166,30.7,36.67,137.42333333333335,上市,厳重警戒
2023-08-13 13:00:00,8月13日 13時時点,55191,30.8,36.545,136.87166666666667,南砺高宮,厳重警戒
2023-08-13 13:00:00,8月13日 13時時点,55206,31.1,36.57,137.15833333333333,八尾,危険
2023-08-13 13:00:00,8月13日 13時時点,56036,31.8,37.446666666666665,137.28666666666666,珠洲,危険
2023-08-13 13:00:00,8月13日 13時時点,56052,29.4,37.39,136.895,輪島,厳重警戒
2023-08-13 13:00:00,8月13日 13時時点,56116,30.5,37.14333333333333,136.725,志賀,厳重警戒
2023-08-13 13:00:00,8月13日 13時時点,56146,30.7,37.03,136.99166666666667,七尾,厳重警戒
2023-08-13 13:00:00,8月13日 13時時点,56176,31.4,36.89333333333333,136.77666666666667,羽咋,危険
2023-08-13 13:00:00,8月13日 13時時点,56186,29.5,36.711666666666666,136.69166666666666,かほく,厳重警戒
2023-08-13 13:00:00,8月13日 13時時点,56227,30.3,36.58833333333333,136.63333333333333,金沢,厳重警戒
2023-08-13 13:00:00,8月13日 13時時点,56276,30.9,36.38166666666667,136.435,小松,厳重警戒
2023-08-13 13:00:00,8月13日 13時時点,56286,29.0,36.39666666666667,136.62,白山河内,厳重警戒
2023-08-13 13:00:00,8月13日 13時時点,56301,27.8,36.26166666666666,136.39666666666668,加賀中津原,警戒
2023-08-13 13:00:00,8月13日 13時時点,57001,30.4,36.24333333333333,136.17333333333335,三国,厳重警戒
2023-08-13 13:00:00,8月13日 13時時点,57051,31.8,36.01166666666666,135.99,越廼,危険
2023-08-13 13:00:00,8月13日 13時時点,57066,31.8,36.055,136.22166666666666,福井,危険
2023-08-13 13:00:00,8月13日 13時時点,57082,31.0,36.038333333333334,136.52166666666668,勝山,危険
2023-08-13 13:00:00,8月13日 13時時点,57121,31.3,35.971666666666664,136.49666666666667,大野,危険
2023-08-13 13:00:00,8月13日 13時時点,57206,30.5,35.766666666666666,136.2,今庄,厳重警戒
2023-08-13 13:00:00,8月13日 13時時点,57248,30.9,35.653333333333336,136.06166666666667,敦賀,厳重警戒
2023-08-13 13:00:00,8月13日 13時時点,57286,29.3,35.6,135.91666666666666,美浜,厳重警戒
2023-08-13 13:00:00,8月13日 13時時点,57317,31.0,35.483333333333334,135.78166666666667,小浜,危険
2023-08-13 13:00:00,8月13日 13時時点,60051,29.3,35.41166666666667,136.02833333333334,今津,厳重警戒
2023-08-13 13:00:00,8月13日 13時時点,60061,32.3,35.42333333333333,136.24166666666667,長浜,危険
2023-08-13 13:00:00,8月13日 13時時点,60102,31.1,35.38333333333333,136.34333333333333,米原,危険
2023-08-13 13:00:00,8月13日 13時時点,60116,32.2,35.235,135.95666666666668,南小松,危険
2023-08-13 13:00:00,8月13日 13時時点,60131,31.9,35.275,136.24333333333334,彦根,危険
2023-08-13 13:00:00,8月13日 13時時点,60196,31.9,35.06166666666667,136.19,東近江,危険
2023-08-13 13:00:00,8月13日 13時時点,60216,31.5,34.99166666666667,135.91166666666666,大津,危険
2023-08-13 13:00:00,8月13日 13時時点,60226,31.0,34.913333333333334,136.08,信楽,危険
2023-08-13 13:00:00,8月13日 13時時点,60236,31.8,34.93833333333333,136.27833333333334,土山,危険
2023-08-13 13:00:00,8月13日 13時時点,61001,30.1,35.736666666666665,135.08666666666667,間人,厳重警戒
2023-08-13 13:00:00,8月13日 13時時点,61076,31.5,35.55,135.235,宮津,危険
2023-08-13 13:00:00,8月13日 13時時点,61111,30.8,35.45,135.31666666666666,舞鶴,厳重警戒
2023-08-13 13:00:00,8月13日 13時時点,61187,32.2,35.31166666666667,135.11333333333334,福知山,危険
2023-08-13 13:00:00,8月13日 13時時点,61206,29.6,35.275,135.55,美山,厳重警戒
2023-08-13 13:00:00,8月13日 13時時点,61242,31.4,35.108333333333334,135.455,園部,危険
2023-08-13 13:00:00,8月13日 13時時点,61286,29.7,35.013333333333335,135.73166666666665,京都,厳重警戒
2023-08-13 13:00:00,8月13日 13時時点,61326,32.3,34.83,135.76,京田辺,危険
2023-08-13 13:00:00,8月13日 13時時点,62016,31.7,34.94833333333333,135.455,能勢,危険
2023-08-13 13:00:00,8月13日 13時時点,62046,32.7,34.80833333333333,135.67166666666665,枚方,危険
2023-08-13 13:00:00,8月13日 13時時点,62078,31.2,34.681666666666665,135.51833333333335,大阪,危険
2023-08-13 13:00:00,8月13日 13時時点,62081,29.4,34.675,135.67666666666668,生駒山,厳重警戒
2023-08-13 13:00:00,8月13日 13時時点,62091,32.6,34.555,135.485,堺,危険
2023-08-13 13:00:00,8月13日 13時時点,62131,31.4,34.385,135.35,熊取,危険
2023-08-13 13:00:00,8月13日 13時時点,63016,28.7,35.625,134.62666666666667,香住,厳重警戒
2023-08-13 13:00:00,8月13日 13時時点,63051,30.9,35.535,134.82166666666666,豊岡,厳重警戒
2023-08-13 13:00:00,8月13日 13時時点,63071,29.2,35.431666666666665,134.58333333333334,兎和野高原,厳重警戒
2023-08-13 13:00:00,8月13日 13時時点,63121,30.7,35.32333333333333,134.84833333333333,和田山,厳重警戒
2023-08-13 13:00:00,8月13日 13時時点,63201,29.3,35.166666666666664,134.79166666666666,生野,厳重警戒
2023-08-13 13:00:00,8月13日 13時時点,63216,30.9,35.13666666666666,135.065,柏原,厳重警戒
2023-08-13 13:00:00,8月13日 13時時点,63251,30.7,35.096666666666664,134.585,一宮,厳重警戒
2023-08-13 13:00:00,8月13日 13時時点,63321,31.5,34.95,134.74833333333333,福崎,危険
2023-08-13 13:00:00,8月13日 13時時点,63331,32.9,34.998333333333335,134.99666666666667,西脇,危険
2023-08-13 13:00:00,8月13日 13時時点,63366,31.8,34.858333333333334,134.37333333333333,上郡,危険
2023-08-13 13:00:00,8月13日 13時時点,63383,31.7,34.83833333333333,134.67,姫路,危険
2023-08-13 13:00:00,8月13日 13時時点,63411,30.2,34.895,135.21166666666667,三田,厳重警戒
2023-08-13 13:00:00,8月13日 13時時点,63461,31.1,34.776666666666664,135.01333333333332,三木,危険
2023-08-13 13:00:00,8月13日 13時時点,63491,30.6,34.67166666666667,134.52666666666667,家島,厳重警戒
2023-08-13 13:00:00,8月13日 13時時点,63496,31.1,34.68666666666667,134.87666666666667,明石,危険
2023-08-13 13:00:00,8月13日 13時時点,63518,32.4,34.696666666666665,135.21166666666667,神戸,危険
2023-08-13 13:00:00,8月13日 13時時点,63551,32.7,34.46666666666667,134.84833333333333,郡家,危険
2023-08-13 13:00:00,8月13日 13時時点,63571,32.2,34.31,134.84833333333333,洲本,危険
2023-08-13 13:00:00,8月13日 13時時点,63588,29.4,34.218333333333334,134.72,南淡,厳重警戒
2023-08-13 13:00:00,8月13日 13時時点,64036,32.3,34.67333333333333,135.83666666666667,奈良,危険
2023-08-13 13:00:00,8月13日 13時時点,64041,29.6,34.605,135.95166666666665,針,厳重警戒
2023-08-13 13:00:00,8月13日 13時時点,64101,29.9,34.48833333333334,135.93166666666667,大宇陀,厳重警戒
2023-08-13 13:00:00,8月13日 13時時点,64127,30.0,34.38,135.73,五條,厳重警戒
2023-08-13 13:00:00,8月13日 13時時点,64206,27.9,34.13666666666666,136.005,上北山,警戒
2023-08-13 13:00:00,8月13日 13時時点,64227,30.6,34.045,135.78666666666666,風屋,厳重警戒
2023-08-13 13:00:00,8月13日 13時時点,65026,31.8,34.31,135.52833333333334,かつらぎ,危険
2023-08-13 13:00:00,8月13日 13時時点,65036,32.8,34.28,134.99833333333333,友ケ島,危険
2023-08-13 13:00:00,8月13日 13時時点,65042,31.4,34.22833333333333,135.16333333333333,和歌山,危険
2023-08-13 13:00:00,8月13日 13時時点,65061,27.4,34.221666666666664,135.59,高野山,警戒
2023-08-13 13:00:00,8月13日 13時時点,65121,28.8,34.086666666666666,135.425,清水,厳重警戒
2023-08-13 13:00:00,8月13日 13時時点,65162,30.3,33.945,135.55666666666667,龍神,厳重警戒
2023-08-13 13:00:00,8月13日 13時時点,65201,31.5,33.89333333333333,135.21666666666667,川辺,危険
2023-08-13 13:00:00,8月13日 13時時点,65256,32.2,33.791666666666664,135.51333333333332,栗栖川,危険
2023-08-13 13:00:00,8月13日 13時時点,65276,31.0,33.68666666666667,135.97,新宮,危険
2023-08-13 13:00:00,8月13日 13時時点,65306,28.4,33.638333333333335,135.71,西川,厳重警戒
2023-08-13 13:00:00,8月13日 13時時点,65356,30.5,33.45,135.75666666666666,潮岬,厳重警戒
2023-08-13 13:00:00,8月13日 13時時点,66046,30.5,35.29666666666667,133.725,上長田,厳重警戒
2023-08-13 13:00:00,8月13日 13時時点,66091,29.6,35.10333333333333,133.435,千屋,厳重警戒
2023-08-13 13:00:00,8月13日 13時時点,66127,30.8,35.111666666666665,134.17,奈義,厳重警戒
2023-08-13 13:00:00,8月13日 13時時点,66136,31.0,35.098333333333336,134.325,今岡,危険
2023-08-13 13:00:00,8月13日 13時時点,66171,31.2,35.068333333333335,133.75333333333333,久世,危険
2023-08-13 13:00:00,8月13日 13時時点,66186,30.8,35.06333333333333,134.00833333333333,津山,厳重警戒
2023-08-13 13:00:00,8月13日 13時時点,66221,29.2,34.943333333333335,133.51833333333335,新見,厳重警戒
2023-08-13 13:00:00,8月13日 13時時点,66296,28.9,34.86666666666667,133.90333333333334,福渡,厳重警戒
2023-08-13 13:00:00,8月13日 13時時点,66306,31.1,34.815,134.18333333333334,和気,危険
2023-08-13 13:00:00,8月13日 13時時点,66336,29.9,34.791666666666664,133.61,高梁,厳重警戒
2023-08-13 13:00:00,8月13日 13時時点,66408,30.1,34.685,133.925,岡山,厳重警戒
2023-08-13 13:00:00,8月13日 13時時点,66421,30.5,34.681666666666665,134.20666666666668,虫明,厳重警戒
2023-08-13 13:00:00,8月13日 13時時点,66446,30.4,34.59,133.76833333333335,倉敷,厳重警戒
2023-08-13 13:00:00,8月13日 13時時点,66481,30.7,34.501666666666665,133.495,笠岡,厳重警戒
2023-08-13 13:00:00,8月13日 13時時点,66501,30.6,34.486666666666665,133.95,玉野,厳重警戒
2023-08-13 13:00:00,8月13日 13時時点,67016,27.8,35.03333333333333,132.90166666666667,高野,警戒
2023-08-13 13:00:00,8月13日 13時時点,67106,30.5,34.81166666666667,132.85,三次,厳重警戒
2023-08-13 13:00:00,8月13日 13時時点,67116,31.1,34.86,133.02333333333334,庄原,危険
2023-08-13 13:00:00,8月13日 13時時点,67151,30.2,34.76833333333333,132.46333333333334,大朝,厳重警戒
2023-08-13 13:00:00,8月13日 13時時点,67191,28.1,34.763333333333335,133.27833333333334,油木,厳重警戒
2023-08-13 13:00:00,8月13日 13時時点,67212,33.7,34.61,132.32,加計,危険
2023-08-13 13:00:00,8月13日 13時時点,67292,29.9,34.545,132.53,三入,厳重警戒
2023-08-13 13:00:00,8月13日 13時時点,67316,29.9,34.583333333333336,133.05,世羅,厳重警戒
2023-08-13 13:00:00,8月13日 13時時点,67326,31.0,34.56166666666667,133.23166666666665,府中,危険
2023-08-13 13:00:00,8月13日 13時時点,67376,30.1,34.416666666666664,132.7,東広島,厳重警戒
2023-08-13 13:00:00,8月13日 13時時点,67401,31.0,34.446666666666665,133.24666666666667,福山,危険
2023-08-13 13:00:00,8月13日 13時時点,67421,30.9,34.365,132.19,廿日市津田,厳重警戒
2023-08-13 13:00:00,8月13日 13時時点,67437,30.2,34.39833333333333,132.46166666666667,広島,厳重警戒
2023-08-13 13:00:00,8月13日 13時時点,67461,31.2,34.33,132.98166666666665,竹原,危険
2023-08-13 13:00:00,8月13日 13時時点,67471,31.4,34.278333333333336,133.12333333333333,生口島,危険
2023-08-13 13:00:00,8月13日 13時時点,67496,30.9,34.221666666666664,132.22,大竹,厳重警戒
2023-08-13 13:00:00,8月13日 13時時点,67511,30.9,34.24,132.55,呉,厳重警戒
2023-08-13 13:00:00,8月13日 13時時点,67576,31.5,34.165,132.74833333333333,呉市蒲刈,危険
2023-08-13 13:00:00,8月13日 13時時点,68022,30.8,36.20333333333333,133.33333333333334,西郷,厳重警戒
2023-08-13 13:00:00,8月13日 13時時点,68056,30.3,36.096666666666664,133.09666666666666,海士,厳重警戒
2023-08-13 13:00:00,8月13日 13時時点,68091,29.9,35.52,132.98333333333332,鹿島,厳重警戒
2023-08-13 13:00:00,8月13日 13時時点,68132,29.6,35.45666666666666,133.065,松江,厳重警戒
2023-08-13 13:00:00,8月13日 13時時点,68156,31.0,35.33166666666666,132.73,出雲,危険
2023-08-13 13:00:00,8月13日 13時時点,68246,30.8,35.19,132.49666666666667,大田,厳重警戒
2023-08-13 13:00:00,8月13日 13時時点,68261,29.1,35.196666666666665,132.815,掛合,厳重警戒
2023-08-13 13:00:00,8月13日 13時時点,68276,29.1,35.17333333333333,133.10333333333332,横田,厳重警戒
2023-08-13 13:00:00,8月13日 13時時点,68306,28.8,35.001666666666665,132.71166666666667,赤名,厳重警戒
2023-08-13 13:00:00,8月13日 13時時点,68351,30.8,34.97666666666667,132.49166666666667,川本,厳重警戒
2023-08-13 13:00:00,8月13日 13時時点,68376,30.9,34.89666666666667,132.07,浜田,厳重警戒
2023-08-13 13:00:00,8月13日 13時時点,68401,30.6,34.85333333333333,132.53,瑞穂,厳重警戒
2023-08-13 13:00:00,8月13日 13時時点,68431,27.7,34.776666666666664,132.10833333333332,弥栄,警戒
2023-08-13 13:00:00,8月13日 13時時点,68462,30.7,34.67666666666667,131.84333333333333,益田,厳重警戒
2023-08-13 13:00:00,8月13日 13時時点,68516,29.4,34.461666666666666,131.77,津和野,厳重警戒
2023-08-13 13:00:00,8月13日 13時時点,68541,30.2,34.391666666666666,131.89333333333335,吉賀,厳重警戒
2023-08-13 13:00:00,8月13日 13時時点,69006,30.7,35.54333333333334,133.235,境,厳重警戒
2023-08-13 13:00:00,8月13日 13時時点,69021,30.8,35.52333333333333,133.56666666666666,塩津,厳重警戒
2023-08-13 13:00:00,8月13日 13時時点,69041,31.3,35.52,133.99666666666667,青谷,危険
2023-08-13 13:00:00,8月13日 13時時点,69061,28.9,35.55833333333333,134.36,岩井,厳重警戒
2023-08-13 13:00:00,8月13日 13時時点,69076,30.8,35.43333333333333,133.33833333333334,米子,厳重警戒
2023-08-13 13:00:00,8月13日 13時時点,69101,30.3,35.473333333333336,133.83833333333334,倉吉,厳重警戒
2023-08-13 13:00:00,8月13日 13時時点,69122,31.1,35.486666666666665,134.23833333333334,鳥取,危険
2023-08-13 13:00:00,8月13日 13時時点,69246,30.6,35.263333333333335,134.24,智頭,厳重警戒
2023-08-13 13:00:00,8月13日 13時時点,69271,28.7,35.18666666666667,133.23,茶屋,厳重警戒
2023-08-13 13:00:00,8月13日 13時時点,81011,29.6,34.615,131.62333333333333,須佐,厳重警戒
2023-08-13 13:00:00,8月13日 13時時点,81071,30.1,34.41,131.405,萩,厳重警戒
2023-08-13 13:00:00,8月13日 13時時点,81116,28.3,34.37,131.055,油谷,厳重警戒
2023-08-13 13:00:00,8月13日 13時時点,81151,30.2,34.39833333333333,131.725,徳佐,厳重警戒
2023-08-13 13:00:00,8月13日 13時時点,81196,30.1,34.235,131.30666666666667,秋吉台,厳重警戒
2023-08-13 13:00:00,8月13日 13時時点,81231,33.1,34.26166666666666,131.95166666666665,広瀬,危険
2023-08-13 13:00:00,8月13日 13時時点,81266,30.5,34.18666666666667,131.07666666666665,豊田,厳重警戒
2023-08-13 13:00:00,8月13日 13時時点,81286,29.6,34.16166666666667,131.46166666666667,山口,厳重警戒
2023-08-13 13:00:00,8月13日 13時時点,81321,31.9,34.155,132.17833333333334,岩国,危険
2023-08-13 13:00:00,8月13日 13時時点,81371,31.4,34.04,131.53333333333333,防府,危険
2023-08-13 13:00:00,8月13日 13時時点,81386,30.6,34.01,131.87166666666667,下松,厳重警戒
2023-08-13 13:00:00,8月13日 13時時点,81397,32.3,34.095,132.075,玖珂,危険
2023-08-13 13:00:00,8月13日 13時時点,81428,30.1,33.94833333333333,130.925,下関,厳重警戒
2023-08-13 13:00:00,8月13日 13時時点,81481,30.5,33.958333333333336,132.11333333333334,柳井,厳重警戒
2023-08-13 13:00:00,8月13日 13時時点,81486,30.3,33.903333333333336,132.29333333333332,安下庄,厳重警戒
2023-08-13 13:00:00,8月13日 13時時点,71066,31.6,34.02333333333333,133.795,池田,危険
2023-08-13 13:00:00,8月13日 13時時点,71087,31.6,34.04,134.15666666666667,穴吹,危険
2023-08-13 13:00:00,8月13日 13時時点,71106,30.9,34.06666666666667,134.57333333333332,徳島,厳重警戒
2023-08-13 13:00:00,8月13日 13時時点,71191,28.9,33.86666666666667,133.90333333333334,京上,厳重警戒
2023-08-13 13:00:00,8月13日 13時時点,71231,30.4,33.836666666666666,134.74166666666667,蒲生田,厳重警戒
2023-08-13 13:00:00,8月13日 13時時点,71251,30.2,33.77166666666667,134.19833333333332,木頭,厳重警戒
2023-08-13 13:00:00,8月13日 13時時点,71266,31.3,33.73166666666667,134.53833333333333,日和佐,危険
2023-08-13 13:00:00,8月13日 13時時点,71291,31.8,33.611666666666665,134.355,海陽,危険
2023-08-13 13:00:00,8月13日 13時時点,72061,31.7,34.471666666666664,134.27333333333334,内海,危険
2023-08-13 13:00:00,8月13日 13時時点,72086,29.6,34.318333333333335,134.05333333333334,高松,厳重警戒
2023-08-13 13:00:00,8月13日 13時時点,72111,30.0,34.275,133.75166666666667,多度津,厳重警戒
2023-08-13 13:00:00,8月13日 13時時点,72121,30.1,34.236666666666665,133.92333333333335,滝宮,厳重警戒
2023-08-13 13:00:00,8月13日 13時時点,72146,29.6,34.21333333333333,134.40666666666667,引田,厳重警戒
2023-08-13 13:00:00,8月13日 13時時点,72161,31.6,34.12,133.77166666666668,財田,危険
2023-08-13 13:00:00,8月13日 13時時点,73001,31.7,34.25,133.00666666666666,大三島,危険
2023-08-13 13:00:00,8月13日 13時時点,73076,30.0,34.053333333333335,132.975,今治,厳重警戒
2023-08-13 13:00:00,8月13日 13時時点,73126,30.5,33.915,133.08,西条,厳重警戒
2023-08-13 13:00:00,8月13日 13時時点,73141,30.8,33.93666666666667,133.33833333333334,新居浜,厳重警戒
2023-08-13 13:00:00,8月13日 13時時点,73151,30.0,33.98166666666667,133.58166666666668,四国中央,厳重警戒
2023-08-13 13:00:00,8月13日 13時時点,73166,32.2,33.843333333333334,132.77666666666667,松山,危険
2023-08-13 13:00:00,8月13日 13時時点,73256,29.6,33.61666666666667,132.48,長浜,厳重警戒
2023-08-13 13:00:00,8月13日 13時時点,73276,30.1,33.663333333333334,132.895,久万,厳重警戒
2023-08-13 13:00:00,8月13日 13時時点,73306,31.1,33.50833333333333,132.535,大洲,危険
2023-08-13 13:00:00,8月13日 13時時点,73341,28.8,33.446666666666665,132.25666666666666,瀬戸,厳重警戒
2023-08-13 13:00:00,8月13日 13時時点,73406,31.8,33.36666666666667,132.50333333333333,宇和,危険
2023-08-13 13:00:00,8月13日 13時時点,73442,30.9,33.22666666666667,132.55166666666668,宇和島,厳重警戒
2023-08-13 13:00:00,8月13日 13時時点,73446,32.5,33.25333333333333,132.675,近永,危険
2023-08-13 13:00:00,8月13日 13時時点,73516,31.0,32.96333333333333,132.57,御荘,危険
2023-08-13 13:00:00,8月13日 13時時点,74056,27.9,33.765,133.33833333333334,本川,警戒
2023-08-13 13:00:00,8月13日 13時時点,74071,30.9,33.75333333333333,133.575,本山,厳重警戒
2023-08-13 13:00:00,8月13日 13時時点,74136,31.5,33.69833333333333,133.875,大栃,危険
2023-08-13 13:00:00,8月13日 13時時点,74182,30.6,33.56666666666667,133.54833333333335,高知,厳重警戒
2023-08-13 13:00:00,8月13日 13時時点,74187,30.6,33.59,133.64333333333335,後免,厳重警戒
2023-08-13 13:00:00,8月13日 13時時点,74271,31.6,33.48833333333334,133.93333333333334,安芸,危険
2023-08-13 13:00:00,8月13日 13時時点,74296,30.0,33.39,132.92166666666665,梼原,厳重警戒
2023-08-13 13:00:00,8月13日 13時時点,74311,31.5,33.385,133.27666666666667,須崎,危険
2023-08-13 13:00:00,8月13日 13時時点,74361,32.2,33.20666666666666,133.12833333333333,窪川,危険
2023-08-13 13:00:00,8月13日 13時時点,74372,29.9,33.251666666666665,134.17666666666668,室戸岬,厳重警戒
2023-08-13 13:00:00,8月13日 13時時点,74381,30.9,33.17,132.79166666666666,江川崎,厳重警戒
2023-08-13 13:00:00,8月13日 13時時点,74436,30.2,33.07833333333333,133.10166666666666,佐賀,厳重警戒
2023-08-13 13:00:00,8月13日 13時時点,74447,30.7,32.92,132.695,宿毛,厳重警戒
2023-08-13 13:00:00,8月13日 13時時点,74456,30.8,32.99,132.92,中村,厳重警戒
2023-08-13 13:00:00,8月13日 13時時点,74516,30.8,32.721666666666664,133.01,清水,厳重警戒
2023-08-13 13:00:00,8月13日 13時時点,82046,31.3,33.80833333333333,130.53833333333333,宗像,危険
2023-08-13 13:00:00,8月13日 13時時点,82056,28.5,33.85166666666667,130.74333333333334,八幡,厳重警戒
2023-08-13 13:00:00,8月13日 13時時点,82101,30.7,33.71333333333333,130.975,行橋,厳重警戒
2023-08-13 13:00:00,8月13日 13時時点,82136,29.9,33.651666666666664,130.69333333333333,飯塚,厳重警戒
2023-08-13 13:00:00,8月13日 13時時点,82171,29.3,33.56,130.19,前原,厳重警戒
2023-08-13 13:00:00,8月13日 13時時点,82182,29.1,33.58166666666666,130.375,福岡,厳重警戒
2023-08-13 13:00:00,8月13日 13時時点,82191,29.8,33.49666666666667,130.49,太宰府,厳重警戒
2023-08-13 13:00:00,8月13日 13時時点,82206,28.7,33.55833333333333,130.855,添田,厳重警戒
2023-08-13 13:00:00,8月13日 13時時点,82261,30.7,33.406666666666666,130.695,朝倉,厳重警戒
2023-08-13 13:00:00,8月13日 13時時点,82306,30.8,33.303333333333335,130.49333333333334,久留米,厳重警戒
2023-08-13 13:00:00,8月13日 13時時点,82317,31.1,33.225,130.645,黒木,危険
2023-08-13 13:00:00,8月13日 13時時点,82361,30.9,33.00666666666667,130.46666666666667,大牟田,厳重警戒
2023-08-13 13:00:00,8月13日 13時時点,83021,31.0,33.678333333333335,131.575,国見,危険
2023-08-13 13:00:00,8月13日 13時時点,83051,30.7,33.586666666666666,131.245,中津,厳重警戒
2023-08-13 13:00:00,8月13日 13時時点,83061,30.2,33.57,131.43333333333334,豊後高田,厳重警戒
2023-08-13 13:00:00,8月13日 13時時点,83106,30.9,33.42,131.31666666666666,院内,厳重警戒
2023-08-13 13:00:00,8月13日 13時時点,83121,31.1,33.416666666666664,131.59666666666666,杵築,危険
2023-08-13 13:00:00,8月13日 13時時点,83137,31.0,33.321666666666665,130.92833333333334,日田,危険
2023-08-13 13:00:00,8月13日 13時時点,83191,29.9,33.291666666666664,131.155,玖珠,厳重警戒
2023-08-13 13:00:00,8月13日 13時時点,83201,27.4,33.25333333333333,131.34666666666666,湯布院,警戒
2023-08-13 13:00:00,8月13日 13時時点,83216,31.1,33.235,131.61833333333334,大分,危険
2023-08-13 13:00:00,8月13日 13時時点,83341,32.5,33.065,131.63166666666666,犬飼,危険
2023-08-13 13:00:00,8月13日 13時時点,83371,31.6,32.973333333333336,131.39833333333334,竹田,危険
2023-08-13 13:00:00,8月13日 13時時点,83401,29.9,32.95,131.90166666666667,佐伯,厳重警戒
2023-08-13 13:00:00,8月13日 13時時点,83431,30.7,32.845,131.675,宇目,厳重警戒
2023-08-13 13:00:00,8月13日 13時時点,83476,31.8,32.795,131.92333333333335,蒲江,危険
2023-08-13 13:00:00,8月13日 13時時点,84012,27.8,34.69833333333333,129.445,鰐浦,警戒
2023-08-13 13:00:00,8月13日 13時時点,84072,28.5,34.196666666666665,129.29166666666666,厳原,厳重警戒
2023-08-13 13:00:00,8月13日 13時時点,84121,27.9,33.8,129.72166666666666,芦辺,警戒
2023-08-13 13:00:00,8月13日 13時時点,84171,29.2,33.36,129.55,平戸,厳重警戒
2023-08-13 13:00:00,8月13日 13時時点,84183,29.0,33.34166666666667,129.71166666666667,松浦,厳重警戒
2023-08-13 13:00:00,8月13日 13時時点,84266,30.0,33.15833333333333,129.72666666666666,佐世保,厳重警戒
2023-08-13 13:00:00,8月13日 13時時点,84306,29.5,33.013333333333335,129.65166666666667,西海,厳重警戒
2023-08-13 13:00:00,8月13日 13時時点,84341,30.9,32.98166666666667,129.11833333333334,有川,厳重警戒
2023-08-13 13:00:00,8月13日 13時時点,84496,29.2,32.733333333333334,129.86666666666667,長崎,厳重警戒
2023-08-13 13:00:00,8月13日 13時時点,84519,26.7,32.736666666666665,130.26166666666666,雲仙岳,警戒
2023-08-13 13:00:00,8月13日 13時時点,84523,30.7,32.76,130.36166666666668,島原,厳重警戒
2023-08-13 13:00:00,8月13日 13時時点,84536,29.9,32.693333333333335,128.82666666666665,福江,厳重警戒
2023-08-13 13:00:00,8月13日 13時時点,84561,30.4,32.611666666666665,130.19333333333333,口之津,厳重警戒
2023-08-13 13:00:00,8月13日 13時時点,84597,29.8,32.58166666666666,129.77666666666667,脇岬,厳重警戒
2023-08-13 13:00:00,8月13日 13時時点,85033,30.6,33.458333333333336,129.955,唐津,厳重警戒
2023-08-13 13:00:00,8月13日 13時時点,85116,28.5,33.266666666666666,129.87833333333333,伊万里,厳重警戒
2023-08-13 13:00:00,8月13日 13時時点,85142,30.8,33.265,130.305,佐賀,厳重警戒
2023-08-13 13:00:00,8月13日 13時時点,85161,30.6,33.11666666666667,129.995,嬉野,厳重警戒
2023-08-13 13:00:00,8月13日 13時時点,85166,30.7,33.18333333333333,130.14833333333334,白石,厳重警戒
2023-08-13 13:00:00,8月13日 13時時点,86006,30.6,33.115,130.69166666666666,鹿北,厳重警戒
2023-08-13 13:00:00,8月13日 13時時点,86066,27.7,33.10333333333333,131.06666666666666,南小国,警戒
2023-08-13 13:00:00,8月13日 13時時点,86086,31.0,32.915,130.51166666666666,岱明,危険
2023-08-13 13:00:00,8月13日 13時時点,86101,31.6,32.945,130.78166666666667,菊池,危険
2023-08-13 13:00:00,8月13日 13時時点,86111,27.6,32.946666666666665,131.04,阿蘇乙姫,警戒
2023-08-13 13:00:00,8月13日 13時時点,86141,30.8,32.81333333333333,130.70666666666668,熊本,厳重警戒
2023-08-13 13:00:00,8月13日 13時時点,86157,30.0,32.83166666666666,131.01333333333332,南阿蘇,厳重警戒
2023-08-13 13:00:00,8月13日 13時時点,86161,28.8,32.821666666666665,131.125,高森,厳重警戒
2023-08-13 13:00:00,8月13日 13時時点,86216,29.7,32.611666666666665,130.47833333333332,三角,厳重警戒
2023-08-13 13:00:00,8月13日 13時時点,86236,33.4,32.67166666666667,130.81666666666666,甲佐,危険
2023-08-13 13:00:00,8月13日 13時時点,86271,29.7,32.515,130.44666666666666,松島,厳重警戒
2023-08-13 13:00:00,8月13日 13時時点,86316,30.1,32.468333333333334,130.18,本渡,厳重警戒
2023-08-13 13:00:00,8月13日 13時時点,86336,30.3,32.473333333333336,130.60666666666665,八代,厳重警戒
2023-08-13 13:00:00,8月13日 13時時点,86451,30.2,32.205,130.40666666666667,水俣,厳重警戒
2023-08-13 13:00:00,8月13日 13時時点,86467,30.4,32.21666666666667,130.755,人吉,厳重警戒
2023-08-13 13:00:00,8月13日 13時時点,86477,31.3,32.225,130.905,上,危険
2023-08-13 13:00:00,8月13日 13時時点,86491,29.6,32.196666666666665,130.02666666666667,牛深,厳重警戒
2023-08-13 13:00:00,8月13日 13時時点,87041,29.2,32.711666666666666,131.29,高千穂,厳重警戒
2023-08-13 13:00:00,8月13日 13時時点,87066,31.0,32.711666666666666,131.82,古江,危険
2023-08-13 13:00:00,8月13日 13時時点,87071,28.5,32.64333333333333,131.15666666666667,鞍岡,厳重警戒
2023-08-13 13:00:00,8月13日 13時時点,87141,31.0,32.58166666666666,131.65666666666667,延岡,危険
2023-08-13 13:00:00,8月13日 13時時点,87181,31.8,32.40833333333333,131.6,日向,危険
2023-08-13 13:00:00,8月13日 13時時点,87206,30.0,32.385,131.33166666666668,神門,厳重警戒
2023-08-13 13:00:00,8月13日 13時時点,87231,29.9,32.24,131.15166666666667,西米良,厳重警戒
2023-08-13 13:00:00,8月13日 13時時点,87293,31.6,32.123333333333335,131.475,高鍋,危険
2023-08-13 13:00:00,8月13日 13時時点,87301,30.0,32.04666666666667,130.81,加久藤,厳重警戒
2023-08-13 13:00:00,8月13日 13時時点,87331,31.4,32.06333333333333,131.41333333333333,西都,危険
2023-08-13 13:00:00,8月13日 13時時点,87352,30.3,32.0,130.95333333333335,小林,厳重警戒
2023-08-13 13:00:00,8月13日 13時時点,87376,30.3,31.938333333333333,131.41333333333333,宮崎,厳重警戒
2023-08-13 13:00:00,8月13日 13時時点,87406,30.5,31.843333333333334,131.30833333333334,田野,厳重警戒
2023-08-13 13:00:00,8月13日 13時時点,87426,31.1,31.73,131.08166666666668,都城,危険
2023-08-13 13:00:00,8月13日 13時時点,87492,30.7,31.578333333333333,131.40666666666667,油津,厳重警戒
2023-08-13 13:00:00,8月13日 13時時点,87501,30.5,31.465,131.22,串間,厳重警戒
2023-08-13 13:00:00,8月13日 13時時点,88061,29.0,32.026666666666664,130.2,阿久根,厳重警戒
2023-08-13 13:00:00,8月13日 13時時点,88081,30.8,32.04666666666667,130.62666666666667,大口,厳重警戒
2023-08-13 13:00:00,8月13日 13時時点,88107,31.5,31.916666666666668,130.455,さつま柏原,危険
2023-08-13 13:00:00,8月13日 13時時点,88131,28.7,31.835,129.86666666666667,中甑,厳重警戒
2023-08-13 13:00:00,8月13日 13時時点,88151,29.7,31.833333333333332,130.315,川内,厳重警戒
2023-08-13 13:00:00,8月13日 13時時点,88261,30.1,31.668333333333333,130.32833333333335,東市来,厳重警戒
2023-08-13 13:00:00,8月13日 13時時点,88286,29.0,31.661666666666665,130.84333333333333,牧之原,厳重警戒
2023-08-13 13:00:00,8月13日 13時時点,88317,31.2,31.555,130.54666666666665,鹿児島,危険
2023-08-13 13:00:00,8月13日 13時時点,88331,29.2,31.588333333333335,130.855,輝北,厳重警戒
2023-08-13 13:00:00,8月13日 13時時点,88371,29.0,31.415,130.325,加世田,厳重警戒
2023-08-13 13:00:00,8月13日 13時時点,88406,30.4,31.47833333333333,131.095,志布志,厳重警戒
2023-08-13 13:00:00,8月13日 13時時点,88432,30.0,31.386666666666667,130.54,喜入,厳重警戒
2023-08-13 13:00:00,8月13日 13時時点,88442,30.8,31.391666666666666,130.86333333333334,鹿屋,厳重警戒
2023-08-13 13:00:00,8月13日 13時時点,88447,30.2,31.34,130.93833333333333,肝付前田,厳重警戒
2023-08-13 13:00:00,8月13日 13時時点,88466,30.5,31.27166666666667,130.29166666666666,枕崎,厳重警戒
2023-08-13 13:00:00,8月13日 13時時点,88486,31.2,31.25,130.63666666666666,指宿,危険
2023-08-13 13:00:00,8月13日 13時時点,88506,29.3,31.276666666666667,131.055,内之浦,厳重警戒
2023-08-13 13:00:00,8月13日 13時時点,88536,29.3,31.198333333333334,130.84333333333333,田代,厳重警戒
2023-08-13 13:00:00,8月13日 13時時点,88612,30.0,30.72,130.98166666666665,種子島,厳重警戒
2023-08-13 13:00:00,8月13日 13時時点,88666,30.8,30.406666666666666,130.90166666666667,上中,厳重警戒
2023-08-13 13:00:00,8月13日 13時時点,88686,29.6,30.385,130.65833333333333,屋久島,厳重警戒
2023-08-13 13:00:00,8月13日 13時時点,88706,31.9,30.235,130.555,尾之間,危険
2023-08-13 13:00:00,8月13日 13時時点,88736,29.3,29.84,129.86666666666667,中之島,厳重警戒
2023-08-13 13:00:00,8月13日 13時時点,88836,29.5,28.378333333333334,129.495,名瀬,厳重警戒
2023-08-13 13:00:00,8月13日 13時時点,88901,29.9,28.143333333333334,129.315,古仁屋,厳重警戒
2023-08-13 13:00:00,8月13日 13時時点,88956,30.0,27.676666666666666,128.97333333333333,伊仙,厳重警戒
2023-08-13 13:00:00,8月13日 13時時点,88971,30.0,27.431666666666665,128.705,沖永良部,厳重警戒
2023-08-13 13:00:00,8月13日 13時時点,91011,29.6,26.948333333333334,127.94,伊是名,厳重警戒
2023-08-13 13:00:00,8月13日 13時時点,91021,29.5,26.835,128.27166666666668,奥,厳重警戒
2023-08-13 13:00:00,8月13日 13時時点,91107,30.6,26.593333333333334,127.965,名護,厳重警戒
2023-08-13 13:00:00,8月13日 13時時点,91146,30.7,26.336666666666666,126.80333333333333,久米島,厳重警戒
2023-08-13 13:00:00,8月13日 13時時点,91166,30.4,26.363333333333333,127.97166666666666,宮城島,厳重警戒
2023-08-13 13:00:00,8月13日 13時時点,91181,28.3,26.21,127.36333333333333,渡嘉敷,厳重警戒
2023-08-13 13:00:00,8月13日 13時時点,91197,30.0,26.206666666666667,127.68666666666667,那覇,厳重警戒
2023-08-13 13:00:00,8月13日 13時時点,91241,30.4,26.153333333333332,127.765,糸数,厳重警戒
2023-08-13 13:00:00,8月13日 13時時点,92011,31.2,25.828333333333333,131.22833333333332,南大東,危険
2023-08-13 13:00:00,8月13日 13時時点,93041,29.6,24.793333333333333,125.27833333333334,宮古島,厳重警戒
2023-08-13 13:00:00,8月13日 13時時点,94001,32.1,24.506666666666668,124.28,伊原間,危険
2023-08-13 13:00:00,8月13日 13時時点,94017,31.7,24.466666666666665,123.01,与那国島,危険
2023-08-13 13:00:00,8月13日 13時時点,94062,33.1,24.426666666666666,123.765,西表島,危険
2023-08-13 13:00:00,8月13日 13時時点,94081,31.3,24.336666666666666,124.16333333333333,石垣島,危険
2023-08-13 13:00:00,8月13日 13時時点,94101,31.6,24.265,123.87166666666667,大原,危険
2023-08-13 13:00:00,8月13日 13時時点,94116,29.0,24.055,123.76666666666667,波照間,厳重警戒
