date_dt,date_popup,amdno,wbgt,lat,lon,kjName,guideline
2023-08-14 13:00:00,8月14日 13時時点,11001,19.8,45.52,141.935,宗谷岬,ほぼ安全
2023-08-14 13:00:00,8月14日 13時時点,11016,20.2,45.415,141.67833333333334,稚内,ほぼ安全
2023-08-14 13:00:00,8月14日 13時時点,11046,21.5,45.305,141.045,礼文,注意
2023-08-14 13:00:00,8月14日 13時時点,11076,18.7,45.335,142.17,浜鬼志別,ほぼ安全
2023-08-14 13:00:00,8月14日 13時時点,11121,20.4,45.248333333333335,141.85166666666666,沼川,ほぼ安全
2023-08-14 13:00:00,8月14日 13時時点,11151,24.4,45.178333333333335,141.13833333333332,沓形,注意
2023-08-14 13:00:00,8月14日 13時時点,11176,22.2,45.10166666666667,141.78,豊富,注意
2023-08-14 13:00:00,8月14日 13時時点,11206,19.8,45.125,142.35,浜頓別,ほぼ安全
2023-08-14 13:00:00,8月14日 13時時点,11276,25.4,44.965,142.28,中頓別,警戒
2023-08-14 13:00:00,8月14日 13時時点,11291,20.3,44.94,142.585,北見枝幸,ほぼ安全
2023-08-14 13:00:00,8月14日 13時時点,11316,22.5,44.84166666666667,142.48,歌登,注意
2023-08-14 13:00:00,8月14日 13時時点,12011,22.9,44.82833333333333,142.07666666666665,中川,注意
2023-08-14 13:00:00,8月14日 13時時点,12041,23.1,44.72666666666667,142.265,音威子府,注意
2023-08-14 13:00:00,8月14日 13時時点,12141,25.5,44.48,142.34166666666667,美深,警戒
2023-08-14 13:00:00,8月14日 13時時点,12181,27.6,44.37,142.45666666666668,名寄,警戒
2023-08-14 13:00:00,8月14日 13時時点,12231,24.1,44.295,142.63666666666666,下川,注意
2023-08-14 13:00:00,8月14日 13時時点,12261,26.2,44.18666666666667,142.41666666666666,士別,警戒
2023-08-14 13:00:00,8月14日 13時時点,12266,27.5,44.11833333333333,142.595,朝日,警戒
2023-08-14 13:00:00,8月14日 13時時点,12301,27.0,44.028333333333336,142.41,和寒,警戒
2023-08-14 13:00:00,8月14日 13時時点,12386,27.2,43.87,142.26,江丹別,警戒
2023-08-14 13:00:00,8月14日 13時時点,12396,26.7,43.87,142.47,比布,警戒
2023-08-14 13:00:00,8月14日 13時時点,12411,25.8,43.846666666666664,142.75333333333333,上川,警戒
2023-08-14 13:00:00,8月14日 13時時点,12442,26.2,43.75666666666667,142.37166666666667,旭川,警戒
2023-08-14 13:00:00,8月14日 13時時点,12451,26.0,43.70166666666667,142.50833333333333,東川,警戒
2023-08-14 13:00:00,8月14日 13時時点,12512,25.0,43.64333333333333,142.58166666666668,志比内,警戒
2023-08-14 13:00:00,8月14日 13時時点,12551,24.8,43.58833333333333,142.49333333333334,美瑛,注意
2023-08-14 13:00:00,8月14日 13時時点,12596,25.1,43.455,142.465,上富良野,警戒
2023-08-14 13:00:00,8月14日 13時時点,12626,24.5,43.333333333333336,142.4,富良野,注意
2023-08-14 13:00:00,8月14日 13時時点,12632,23.2,43.30166666666667,142.52166666666668,麓郷,注意
2023-08-14 13:00:00,8月14日 13時時点,12691,19.5,43.16833333333334,142.56833333333333,幾寅,ほぼ安全
2023-08-14 13:00:00,8月14日 13時時点,12746,23.6,42.97833333333333,142.395,占冠,注意
2023-08-14 13:00:00,8月14日 13時時点,15041,24.7,44.281666666666666,142.16166666666666,朱鞠内,注意
2023-08-14 13:00:00,8月14日 13時時点,15076,26.6,44.01,142.16,幌加内,警戒
2023-08-14 13:00:00,8月14日 13時時点,13061,26.1,44.89333333333333,141.76166666666666,天塩,警戒
2023-08-14 13:00:00,8月14日 13時時点,13086,26.1,44.718333333333334,141.80666666666667,遠別,警戒
2023-08-14 13:00:00,8月14日 13時時点,13121,27.8,44.52333333333333,141.77,初山別,警戒
2023-08-14 13:00:00,8月14日 13時時点,13146,26.3,44.428333333333335,141.42166666666665,焼尻,警戒
2023-08-14 13:00:00,8月14日 13時時点,13181,28.2,44.36333333333334,141.7,羽幌,厳重警戒
2023-08-14 13:00:00,8月14日 13時時点,13261,29.8,44.04833333333333,141.85666666666665,達布,厳重警戒
2023-08-14 13:00:00,8月14日 13時時点,13277,28.5,43.945,141.63166666666666,留萌,厳重警戒
2023-08-14 13:00:00,8月14日 13時時点,13311,28.3,43.848333333333336,141.51,増毛,厳重警戒
2023-08-14 13:00:00,8月14日 13時時点,13321,29.0,43.85333333333333,141.76,幌糠,厳重警戒
2023-08-14 13:00:00,8月14日 13時時点,14026,25.9,43.58166666666666,141.38666666666666,浜益,警戒
2023-08-14 13:00:00,8月14日 13時時点,14071,27.3,43.39666666666667,141.43666666666667,厚田,警戒
2023-08-14 13:00:00,8月14日 13時時点,14101,29.3,43.22,141.645,新篠津,厳重警戒
2023-08-14 13:00:00,8月14日 13時時点,14116,31.7,43.14833333333333,141.22166666666666,山口,危険
2023-08-14 13:00:00,8月14日 13時時点,14121,29.2,43.193333333333335,141.37,石狩,厳重警戒
2023-08-14 13:00:00,8月14日 13時時点,14136,29.2,43.11,141.60166666666666,江別,厳重警戒
2023-08-14 13:00:00,8月14日 13時時点,14163,27.2,43.06,141.32833333333335,札幌,警戒
2023-08-14 13:00:00,8月14日 13時時点,14206,27.9,42.92666666666667,141.565,恵庭島松,警戒
2023-08-14 13:00:00,8月14日 13時時点,14286,24.8,42.77166666666667,141.40666666666667,支笏湖畔,注意
2023-08-14 13:00:00,8月14日 13時時点,15116,28.4,43.815,141.92666666666668,石狩沼田,厳重警戒
2023-08-14 13:00:00,8月14日 13時時点,15156,29.1,43.78,141.96166666666667,秩父別,厳重警戒
2023-08-14 13:00:00,8月14日 13時時点,15161,27.4,43.718333333333334,142.07333333333332,深川,警戒
2023-08-14 13:00:00,8月14日 13時時点,15231,28.5,43.595,141.73166666666665,空知吉野,厳重警戒
2023-08-14 13:00:00,8月14日 13時時点,15241,27.3,43.57,141.93833333333333,滝川,警戒
2023-08-14 13:00:00,8月14日 13時時点,15251,25.8,43.52,142.19,芦別,警戒
2023-08-14 13:00:00,8月14日 13時時点,15311,27.4,43.33,141.61666666666667,月形,警戒
2023-08-14 13:00:00,8月14日 13時時点,15321,26.7,43.36333333333334,141.82666666666665,美唄,警戒
2023-08-14 13:00:00,8月14日 13時時点,15356,27.4,43.211666666666666,141.785,岩見沢,警戒
2023-08-14 13:00:00,8月14日 13時時点,15431,28.7,43.01166666666666,141.69333333333333,長沼,厳重警戒
2023-08-14 13:00:00,8月14日 13時時点,15442,27.6,43.038333333333334,141.95666666666668,夕張,警戒
2023-08-14 13:00:00,8月14日 13時時点,16026,26.8,43.27166666666667,140.56333333333333,美国,警戒
2023-08-14 13:00:00,8月14日 13時時点,16061,29.3,43.145,140.42333333333335,神恵内,厳重警戒
2023-08-14 13:00:00,8月14日 13時時点,16076,27.1,43.181666666666665,140.75833333333333,余市,警戒
2023-08-14 13:00:00,8月14日 13時時点,16091,28.0,43.181666666666665,141.015,小樽,厳重警戒
2023-08-14 13:00:00,8月14日 13時時点,16156,30.4,42.98,140.60333333333332,共和,厳重警戒
2023-08-14 13:00:00,8月14日 13時時点,16206,26.8,42.81,140.54166666666666,蘭越,警戒
2023-08-14 13:00:00,8月14日 13時時点,16217,26.1,42.9,140.75666666666666,倶知安,警戒
2023-08-14 13:00:00,8月14日 13時時点,16252,24.0,42.795,140.22333333333333,寿都,注意
2023-08-14 13:00:00,8月14日 13時時点,16281,19.6,42.775,140.88,真狩,ほぼ安全
2023-08-14 13:00:00,8月14日 13時時点,16286,24.1,42.79333333333334,140.94833333333332,喜茂別,注意
2023-08-14 13:00:00,8月14日 13時時点,16321,23.3,42.663333333333334,140.31,黒松内,注意
2023-08-14 13:00:00,8月14日 13時時点,17036,21.0,44.58,142.96333333333334,雄武,注意
2023-08-14 13:00:00,8月14日 13時時点,17076,22.1,44.47,143.10833333333332,興部,注意
2023-08-14 13:00:00,8月14日 13時時点,17091,19.8,44.33166666666666,142.935,西興部,ほぼ安全
2023-08-14 13:00:00,8月14日 13時時点,17112,22.1,44.345,143.355,紋別,注意
2023-08-14 13:00:00,8月14日 13時時点,17166,22.8,44.21333333333333,143.61833333333334,湧別,注意
2023-08-14 13:00:00,8月14日 13時時点,17196,21.4,44.17666666666667,143.06166666666667,滝上,注意
2023-08-14 13:00:00,8月14日 13時時点,17246,24.3,44.115,144.03666666666666,常呂,注意
2023-08-14 13:00:00,8月14日 13時時点,17306,25.8,44.053333333333335,143.54,遠軽,警戒
2023-08-14 13:00:00,8月14日 13時時点,17316,25.0,44.01833333333333,143.76,佐呂間,警戒
2023-08-14 13:00:00,8月14日 13時時点,17341,21.8,44.016666666666666,144.27833333333334,網走,注意
2023-08-14 13:00:00,8月14日 13時時点,17351,21.9,44.05166666666667,144.98166666666665,宇登呂,注意
2023-08-14 13:00:00,8月14日 13時時点,17482,26.1,43.865,143.15333333333334,白滝,警戒
2023-08-14 13:00:00,8月14日 13時時点,17501,25.4,43.916666666666664,143.53166666666667,生田原,警戒
2023-08-14 13:00:00,8月14日 13時時点,17521,24.0,43.776666666666664,143.84166666666667,北見,注意
2023-08-14 13:00:00,8月14日 13時時点,17546,23.0,43.84166666666667,144.485,小清水,注意
2023-08-14 13:00:00,8月14日 13時時点,17561,22.1,43.885,144.7,斜里,注意
2023-08-14 13:00:00,8月14日 13時時点,17596,22.3,43.74166666666667,143.45,留辺蘂,注意
2023-08-14 13:00:00,8月14日 13時時点,17607,24.3,43.70666666666666,143.64333333333335,境野,注意
2023-08-14 13:00:00,8月14日 13時時点,17631,21.3,43.77,144.17166666666665,美幌,注意
2023-08-14 13:00:00,8月14日 13時時点,17717,24.6,43.70166666666667,144.03333333333333,津別,注意
2023-08-14 13:00:00,8月14日 13時時点,18038,18.4,44.02333333333333,145.18666666666667,羅臼,ほぼ安全
2023-08-14 13:00:00,8月14日 13時時点,18136,15.9,43.66166666666667,145.13166666666666,標津,ほぼ安全
2023-08-14 13:00:00,8月14日 13時時点,18161,16.0,43.52,144.74666666666667,上標津,ほぼ安全
2023-08-14 13:00:00,8月14日 13時時点,18171,16.5,43.54333333333334,144.97833333333332,中標津,ほぼ安全
2023-08-14 13:00:00,8月14日 13時時点,18256,16.5,43.38166666666667,145.11833333333334,別海,ほぼ安全
2023-08-14 13:00:00,8月14日 13時時点,18273,16.2,43.33,145.585,根室,ほぼ安全
2023-08-14 13:00:00,8月14日 13時時点,18281,15.8,43.39333333333333,145.75833333333333,納沙布,ほぼ安全
2023-08-14 13:00:00,8月14日 13時時点,18311,16.5,43.221666666666664,145.22666666666666,厚床,ほぼ安全
2023-08-14 13:00:00,8月14日 13時時点,19021,19.2,43.61666666666667,144.45666666666668,川湯,ほぼ安全
2023-08-14 13:00:00,8月14日 13時時点,19051,14.5,43.51,144.46666666666667,弟子屈,ほぼ安全
2023-08-14 13:00:00,8月14日 13時時点,19076,19.3,43.43666666666667,144.08333333333334,阿寒湖畔,ほぼ安全
2023-08-14 13:00:00,8月14日 13時時点,19151,15.1,43.291666666666664,144.58666666666667,標茶,ほぼ安全
2023-08-14 13:00:00,8月14日 13時時点,19191,14.8,43.23166666666667,144.325,鶴居,ほぼ安全
2023-08-14 13:00:00,8月14日 13時時点,19261,16.2,43.19833333333333,144.14166666666668,中徹別,ほぼ安全
2023-08-14 13:00:00,8月14日 13時時点,19311,16.8,43.12,145.11,榊町,ほぼ安全
2023-08-14 13:00:00,8月14日 13時時点,19376,14.8,43.09,144.77833333333334,太田,ほぼ安全
2023-08-14 13:00:00,8月14日 13時時点,19416,16.2,42.97,144.06166666666667,白糠,ほぼ安全
2023-08-14 13:00:00,8月14日 13時時点,19432,16.9,42.985,144.37666666666667,釧路,ほぼ安全
2023-08-14 13:00:00,8月14日 13時時点,19451,17.2,42.93833333333333,144.735,知方学,ほぼ安全
2023-08-14 13:00:00,8月14日 13時時点,20146,22.3,43.471666666666664,143.75333333333333,陸別,注意
2023-08-14 13:00:00,8月14日 13時時点,20186,19.7,43.36666666666667,143.19166666666666,ぬかびら源泉郷,ほぼ安全
2023-08-14 13:00:00,8月14日 13時時点,20266,19.4,43.24166666666667,143.295,上士幌,ほぼ安全
2023-08-14 13:00:00,8月14日 13時時点,20276,24.1,43.24333333333333,143.55333333333334,足寄,注意
2023-08-14 13:00:00,8月14日 13時時点,20341,20.1,43.13166666666667,143.6,本別,ほぼ安全
2023-08-14 13:00:00,8月14日 13時時点,20356,18.1,43.07666666666667,142.84,新得,ほぼ安全
2023-08-14 13:00:00,8月14日 13時時点,20361,18.8,43.10333333333333,142.995,鹿追,ほぼ安全
2023-08-14 13:00:00,8月14日 13時時点,20371,17.6,43.05,143.18333333333334,駒場,ほぼ安全
2023-08-14 13:00:00,8月14日 13時時点,20421,18.7,42.9,143.04333333333332,芽室,ほぼ安全
2023-08-14 13:00:00,8月14日 13時時点,20432,20.8,42.92166666666667,143.21166666666667,帯広,ほぼ安全
2023-08-14 13:00:00,8月14日 13時時点,20441,18.6,42.92,143.45833333333334,池田,ほぼ安全
2023-08-14 13:00:00,8月14日 13時時点,20506,17.4,42.80833333333333,143.65666666666667,浦幌,ほぼ安全
2023-08-14 13:00:00,8月14日 13時時点,20556,17.2,42.78666666666667,143.32833333333335,糠内,ほぼ安全
2023-08-14 13:00:00,8月14日 13時時点,20601,18.0,42.641666666666666,143.09666666666666,上札内,ほぼ安全
2023-08-14 13:00:00,8月14日 13時時点,20606,18.1,42.651666666666664,143.195,更別,ほぼ安全
2023-08-14 13:00:00,8月14日 13時時点,20631,16.9,42.68666666666667,143.64666666666668,大津,ほぼ安全
2023-08-14 13:00:00,8月14日 13時時点,20696,16.3,42.5,143.27333333333334,大樹,ほぼ安全
2023-08-14 13:00:00,8月14日 13時時点,20751,18.1,42.29333333333334,143.31666666666666,広尾,ほぼ安全
2023-08-14 13:00:00,8月14日 13時時点,21111,28.6,42.73,141.88833333333332,厚真,厳重警戒
2023-08-14 13:00:00,8月14日 13時時点,21126,31.0,42.76166666666667,142.14333333333335,穂別,危険
2023-08-14 13:00:00,8月14日 13時時点,21161,24.4,42.67,141.07833333333335,大滝,注意
2023-08-14 13:00:00,8月14日 13時時点,21171,24.3,42.63,141.24666666666667,森野,注意
2023-08-14 13:00:00,8月14日 13時時点,21187,23.7,42.623333333333335,141.54666666666665,苫小牧,注意
2023-08-14 13:00:00,8月14日 13時時点,21226,24.0,42.59,140.64333333333335,大岸,注意
2023-08-14 13:00:00,8月14日 13時時点,21261,25.5,42.54333333333334,141.35166666666666,白老,警戒
2023-08-14 13:00:00,8月14日 13時時点,21276,23.7,42.59,141.93333333333334,鵡川,注意
2023-08-14 13:00:00,8月14日 13時時点,21297,23.3,42.475,140.84833333333333,伊達,注意
2023-08-14 13:00:00,8月14日 13時時点,21312,22.4,42.458333333333336,141.11833333333334,登別,注意
2023-08-14 13:00:00,8月14日 13時時点,21323,22.9,42.31166666666667,140.975,室蘭,注意
2023-08-14 13:00:00,8月14日 13時時点,22036,25.6,42.876666666666665,142.44166666666666,日高,警戒
2023-08-14 13:00:00,8月14日 13時時点,22141,24.9,42.49666666666667,142.05333333333334,日高門別,注意
2023-08-14 13:00:00,8月14日 13時時点,22156,28.8,42.54333333333334,142.33333333333334,新和,厳重警戒
2023-08-14 13:00:00,8月14日 13時時点,22241,23.7,42.343333333333334,142.36166666666668,静内,注意
2023-08-14 13:00:00,8月14日 13時時点,22291,26.0,42.245,142.66166666666666,三石,警戒
2023-08-14 13:00:00,8月14日 13時時点,22306,26.2,42.223333333333336,142.94833333333332,中杵臼,警戒
2023-08-14 13:00:00,8月14日 13時時点,22327,24.3,42.16166666666667,142.77666666666667,浦河,注意
2023-08-14 13:00:00,8月14日 13時時点,22391,17.3,41.925,143.24333333333334,えりも岬,ほぼ安全
2023-08-14 13:00:00,8月14日 13時時点,23031,21.7,42.52333333333333,140.38166666666666,長万部,注意
2023-08-14 13:00:00,8月14日 13時時点,23086,23.0,42.251666666666665,140.27166666666668,八雲,注意
2023-08-14 13:00:00,8月14日 13時時点,23166,24.6,42.06666666666667,140.58833333333334,森,注意
2023-08-14 13:00:00,8月14日 13時時点,23206,23.1,41.905,140.97,川汲,注意
2023-08-14 13:00:00,8月14日 13時時点,23226,22.6,41.88666666666667,140.65333333333334,北斗,注意
2023-08-14 13:00:00,8月14日 13時時点,23232,23.1,41.81666666666667,140.75333333333333,函館,注意
2023-08-14 13:00:00,8月14日 13時時点,23326,21.7,41.68,140.43666666666667,木古内,注意
2023-08-14 13:00:00,8月14日 13時時点,23376,25.4,41.42333333333333,140.08666666666667,松前,警戒
2023-08-14 13:00:00,8月14日 13時時点,24141,29.2,42.12833333333333,139.985,熊石,厳重警戒
2023-08-14 13:00:00,8月14日 13時時点,24041,27.4,42.45,139.85166666666666,せたな,警戒
2023-08-14 13:00:00,8月14日 13時時点,24051,27.3,42.428333333333335,140.00833333333333,今金,警戒
2023-08-14 13:00:00,8月14日 13時時点,24101,27.7,42.248333333333335,139.55666666666667,奥尻,警戒
2023-08-14 13:00:00,8月14日 13時時点,24201,21.9,41.93,140.31166666666667,鶉,注意
2023-08-14 13:00:00,8月14日 13時時点,24217,25.3,41.86666666666667,140.12333333333333,江差,警戒
2023-08-14 13:00:00,8月14日 13時時点,31001,22.1,41.526666666666664,140.91166666666666,大間,注意
2023-08-14 13:00:00,8月14日 13時時点,31111,21.5,41.28333333333333,141.21,むつ,注意
2023-08-14 13:00:00,8月14日 13時時点,31121,20.8,41.235,141.39666666666668,小田野沢,ほぼ安全
2023-08-14 13:00:00,8月14日 13時時点,31136,21.1,41.18,140.48166666666665,今別,注意
2023-08-14 13:00:00,8月14日 13時時点,31156,19.8,41.145,140.82166666666666,脇野沢,ほぼ安全
2023-08-14 13:00:00,8月14日 13時時点,31186,25.3,41.056666666666665,140.34666666666666,市浦,警戒
2023-08-14 13:00:00,8月14日 13時時点,31201,21.9,41.045,140.63333333333333,蟹田,注意
2023-08-14 13:00:00,8月14日 13時時点,31296,27.3,40.80833333333333,140.45833333333334,五所川原,警戒
2023-08-14 13:00:00,8月14日 13時時点,31312,26.2,40.821666666666665,140.76833333333335,青森,警戒
2023-08-14 13:00:00,8月14日 13時時点,31332,21.1,40.885,141.16,野辺地,注意
2023-08-14 13:00:00,8月14日 13時時点,31336,20.2,40.885,141.27166666666668,六ケ所,ほぼ安全
2023-08-14 13:00:00,8月14日 13時時点,31366,27.0,40.776666666666664,140.205,鰺ケ沢,警戒
2023-08-14 13:00:00,8月14日 13時時点,31436,30.9,40.645,139.93166666666667,深浦,厳重警戒
2023-08-14 13:00:00,8月14日 13時時点,31461,27.7,40.611666666666665,140.455,弘前,警戒
2023-08-14 13:00:00,8月14日 13時時点,31466,27.6,40.666666666666664,140.585,黒石,警戒
2023-08-14 13:00:00,8月14日 13時時点,31482,17.6,40.64833333333333,140.84833333333333,酸ケ湯,ほぼ安全
2023-08-14 13:00:00,8月14日 13時時点,31506,22.1,40.675,141.375,三沢,注意
2023-08-14 13:00:00,8月14日 13時時点,31586,22.1,40.60666666666667,141.23333333333332,十和田,注意
2023-08-14 13:00:00,8月14日 13時時点,31602,23.2,40.526666666666664,141.52166666666668,八戸,注意
2023-08-14 13:00:00,8月14日 13時時点,31646,27.1,40.48166666666667,140.62,碇ケ関,警戒
2023-08-14 13:00:00,8月14日 13時時点,31662,22.7,40.42666666666667,140.89833333333334,休屋,注意
2023-08-14 13:00:00,8月14日 13時時点,31721,24.0,40.38333333333333,141.25666666666666,三戸,注意
2023-08-14 13:00:00,8月14日 13時時点,32056,30.6,40.413333333333334,139.94833333333332,八森,厳重警戒
2023-08-14 13:00:00,8月14日 13時時点,32111,29.7,40.19833333333333,140.03166666666667,能代,厳重警戒
2023-08-14 13:00:00,8月14日 13時時点,32126,29.2,40.22666666666667,140.37166666666667,鷹巣,厳重警戒
2023-08-14 13:00:00,8月14日 13時時点,32136,29.1,40.251666666666665,140.505,大館,厳重警戒
2023-08-14 13:00:00,8月14日 13時時点,32146,29.8,40.215,140.78666666666666,鹿角,厳重警戒
2023-08-14 13:00:00,8月14日 13時時点,32206,29.4,40.12,140.84,湯瀬,厳重警戒
2023-08-14 13:00:00,8月14日 13時時点,32266,22.2,40.013333333333335,140.80166666666668,八幡平,注意
2023-08-14 13:00:00,8月14日 13時時点,32286,29.9,39.91166666666667,139.9,男鹿,厳重警戒
2023-08-14 13:00:00,8月14日 13時時点,32287,31.9,40.0,139.95,大潟,危険
2023-08-14 13:00:00,8月14日 13時時点,32296,31.8,39.93833333333333,140.115,五城目,危険
2023-08-14 13:00:00,8月14日 13時時点,32311,27.8,39.99333333333333,140.40333333333334,阿仁合,警戒
2023-08-14 13:00:00,8月14日 13時時点,32402,32.1,39.71666666666667,140.09833333333333,秋田,危険
2023-08-14 13:00:00,8月14日 13時時点,32407,31.5,39.70666666666666,140.28666666666666,岩見三内,危険
2023-08-14 13:00:00,8月14日 13時時点,32466,30.5,39.60333333333333,140.55666666666667,角館,厳重警戒
2023-08-14 13:00:00,8月14日 13時時点,32476,28.7,39.69833333333333,140.73166666666665,田沢湖,厳重警戒
2023-08-14 13:00:00,8月14日 13時時点,32496,31.4,39.526666666666664,140.23333333333332,大正寺,危険
2023-08-14 13:00:00,8月14日 13時時点,32551,32.1,39.49,140.495,大曲,危険
2023-08-14 13:00:00,8月14日 13時時点,32571,31.8,39.36,140.055,本荘,危険
2023-08-14 13:00:00,8月14日 13時時点,32581,31.6,39.305,140.28833333333333,東由利,危険
2023-08-14 13:00:00,8月14日 13時時点,32596,33.7,39.32,140.555,横手,危険
2023-08-14 13:00:00,8月14日 13時時点,32616,32.7,39.255,139.91333333333333,にかほ,危険
2023-08-14 13:00:00,8月14日 13時時点,32626,30.3,39.235,140.13666666666666,矢島,厳重警戒
2023-08-14 13:00:00,8月14日 13時時点,32691,32.1,39.18666666666667,140.46333333333334,湯沢,危険
2023-08-14 13:00:00,8月14日 13時時点,32771,29.6,38.96,140.52833333333334,湯の岱,厳重警戒
2023-08-14 13:00:00,8月14日 13時時点,33006,23.2,40.403333333333336,141.7,種市,注意
2023-08-14 13:00:00,8月14日 13時時点,33026,24.9,40.325,141.46666666666667,軽米,注意
2023-08-14 13:00:00,8月14日 13時時点,33071,25.3,40.29833333333333,141.29833333333335,二戸,警戒
2023-08-14 13:00:00,8月14日 13時時点,33136,24.5,40.14833333333333,141.57166666666666,山形,注意
2023-08-14 13:00:00,8月14日 13時時点,33146,24.7,40.16833333333334,141.74833333333333,久慈,注意
2023-08-14 13:00:00,8月14日 13時時点,33166,24.7,40.10333333333333,141.05,荒屋,注意
2023-08-14 13:00:00,8月14日 13時時点,33176,25.9,40.06,141.225,奥中山,警戒
2023-08-14 13:00:00,8月14日 13時時点,33186,26.1,40.04,141.45666666666668,葛巻,警戒
2023-08-14 13:00:00,8月14日 13時時点,33206,25.8,40.00333333333333,141.88333333333333,普代,警戒
2023-08-14 13:00:00,8月14日 13時時点,33226,27.6,39.95166666666667,141.065,岩手松尾,警戒
2023-08-14 13:00:00,8月14日 13時時点,33296,30.0,39.86833333333333,141.16666666666666,好摩,厳重警戒
2023-08-14 13:00:00,8月14日 13時時点,33326,26.5,39.846666666666664,141.795,岩泉,警戒
2023-08-14 13:00:00,8月14日 13時時点,33336,26.2,39.846666666666664,141.96333333333334,小本,警戒
2023-08-14 13:00:00,8月14日 13時時点,33371,26.7,39.78333333333333,141.32833333333335,薮川,警戒
2023-08-14 13:00:00,8月14日 13時時点,33421,28.2,39.696666666666665,140.975,雫石,厳重警戒
2023-08-14 13:00:00,8月14日 13時時点,33431,28.1,39.69833333333333,141.165,盛岡,厳重警戒
2023-08-14 13:00:00,8月14日 13時時点,33441,24.0,39.65,141.35333333333332,区界,注意
2023-08-14 13:00:00,8月14日 13時時点,33472,26.4,39.64666666666667,141.965,宮古,警戒
2023-08-14 13:00:00,8月14日 13時時点,33486,26.4,39.54833333333333,140.84333333333333,沢内,警戒
2023-08-14 13:00:00,8月14日 13時時点,33501,26.3,39.54666666666667,141.12666666666667,紫波,警戒
2023-08-14 13:00:00,8月14日 13時時点,33526,26.7,39.598333333333336,141.68166666666667,川井,警戒
2023-08-14 13:00:00,8月14日 13時時点,33581,26.8,39.47,141.27833333333334,大迫,警戒
2023-08-14 13:00:00,8月14日 13時時点,33616,27.3,39.45,141.95666666666668,山田,警戒
2023-08-14 13:00:00,8月14日 13時時点,33631,31.0,39.31,140.77666666666667,湯田,危険
2023-08-14 13:00:00,8月14日 13時時点,33671,30.9,39.33833333333333,141.54333333333332,遠野,厳重警戒
2023-08-14 13:00:00,8月14日 13時時点,33716,27.2,39.288333333333334,141.11,北上,警戒
2023-08-14 13:00:00,8月14日 13時時点,33751,27.4,39.27,141.87833333333333,釜石,警戒
2023-08-14 13:00:00,8月14日 13時時点,33776,28.1,39.14,141.06333333333333,若柳,厳重警戒
2023-08-14 13:00:00,8月14日 13時時点,33781,28.6,39.18333333333333,141.16166666666666,江刺,厳重警戒
2023-08-14 13:00:00,8月14日 13時時点,33801,29.1,39.141666666666666,141.57333333333332,住田,厳重警戒
2023-08-14 13:00:00,8月14日 13時時点,33877,29.4,39.06333333333333,141.71333333333334,大船渡,厳重警戒
2023-08-14 13:00:00,8月14日 13時時点,33911,30.9,38.93333333333333,141.125,一関,厳重警戒
2023-08-14 13:00:00,8月14日 13時時点,33921,30.3,38.92166666666667,141.33,千厩,厳重警戒
2023-08-14 13:00:00,8月14日 13時時点,34012,23.1,38.913333333333334,140.82833333333335,駒ノ湯,注意
2023-08-14 13:00:00,8月14日 13時時点,34026,30.2,38.906666666666666,141.55666666666667,気仙沼,厳重警戒
2023-08-14 13:00:00,8月14日 13時時点,34096,30.7,38.74333333333333,140.76,川渡,厳重警戒
2023-08-14 13:00:00,8月14日 13時時点,34111,30.5,38.735,141.005,築館,厳重警戒
2023-08-14 13:00:00,8月14日 13時時点,34171,31.2,38.626666666666665,141.18833333333333,米山,危険
2023-08-14 13:00:00,8月14日 13時時点,34186,27.4,38.681666666666665,141.44833333333332,志津川,警戒
2023-08-14 13:00:00,8月14日 13時時点,34216,31.2,38.598333333333336,140.91166666666666,古川,危険
2023-08-14 13:00:00,8月14日 13時時点,34266,31.0,38.473333333333336,140.88833333333332,大衡,危険
2023-08-14 13:00:00,8月14日 13時時点,34276,28.5,38.46,141.09166666666667,鹿島台,厳重警戒
2023-08-14 13:00:00,8月14日 13時時点,34292,31.2,38.42666666666667,141.29833333333335,石巻,危険
2023-08-14 13:00:00,8月14日 13時時点,34296,26.7,38.446666666666665,141.45,女川,警戒
2023-08-14 13:00:00,8月14日 13時時点,34311,28.2,38.303333333333335,140.63666666666666,新川,厳重警戒
2023-08-14 13:00:00,8月14日 13時時点,34331,31.7,38.33833333333333,141.01333333333332,塩釜,危険
2023-08-14 13:00:00,8月14日 13時時点,34392,30.6,38.26166666666666,140.89666666666668,仙台,厳重警戒
2023-08-14 13:00:00,8月14日 13時時点,34461,30.6,38.015,140.61166666666668,白石,厳重警戒
2023-08-14 13:00:00,8月14日 13時時点,34462,30.7,38.126666666666665,140.68,蔵王,厳重警戒
2023-08-14 13:00:00,8月14日 13時時点,34471,29.9,38.025,140.85833333333332,亘理,厳重警戒
2023-08-14 13:00:00,8月14日 13時時点,34506,28.4,37.931666666666665,140.77833333333334,丸森,厳重警戒
2023-08-14 13:00:00,8月14日 13時時点,35002,32.2,39.18333333333333,139.54333333333332,飛島,危険
2023-08-14 13:00:00,8月14日 13時時点,35052,29.9,38.90833333333333,139.84333333333333,酒田,厳重警戒
2023-08-14 13:00:00,8月14日 13時時点,35071,30.1,38.91833333333334,140.2,差首鍋,厳重警戒
2023-08-14 13:00:00,8月14日 13時時点,35116,31.1,38.87833333333333,140.33166666666668,金山,危険
2023-08-14 13:00:00,8月14日 13時時点,35141,33.0,38.735,139.82833333333335,鶴岡,危険
2023-08-14 13:00:00,8月14日 13時時点,35146,31.7,38.8,139.97333333333333,狩川,危険
2023-08-14 13:00:00,8月14日 13時時点,35162,31.2,38.75666666666667,140.31166666666667,新庄,危険
2023-08-14 13:00:00,8月14日 13時時点,35176,26.5,38.75833333333333,140.51666666666668,向町,警戒
2023-08-14 13:00:00,8月14日 13時時点,35216,28.9,38.60666666666667,140.16333333333333,肘折,厳重警戒
2023-08-14 13:00:00,8月14日 13時時点,35231,31.3,38.608333333333334,140.41166666666666,尾花沢,危険
2023-08-14 13:00:00,8月14日 13時時点,35246,33.7,38.56666666666667,139.55166666666668,鼠ケ関,危険
2023-08-14 13:00:00,8月14日 13時時点,35332,29.0,38.46,140.34833333333333,村山,厳重警戒
2023-08-14 13:00:00,8月14日 13時時点,35361,26.1,38.39,139.99333333333334,大井沢,警戒
2023-08-14 13:00:00,8月14日 13時時点,35376,29.0,38.37,140.19166666666666,左沢,厳重警戒
2023-08-14 13:00:00,8月14日 13時時点,35426,30.1,38.255,140.345,山形,厳重警戒
2023-08-14 13:00:00,8月14日 13時時点,35456,28.6,38.105,140.015,長井,厳重警戒
2023-08-14 13:00:00,8月14日 13時時点,35486,31.9,38.07833333333333,139.735,小国,危険
2023-08-14 13:00:00,8月14日 13時時点,35511,30.4,38.00333333333333,140.20666666666668,高畠,厳重警戒
2023-08-14 13:00:00,8月14日 13時時点,35541,30.8,37.99,139.95333333333335,高峰,厳重警戒
2023-08-14 13:00:00,8月14日 13時時点,35552,28.9,37.91166666666667,140.14333333333335,米沢,厳重警戒
2023-08-14 13:00:00,8月14日 13時時点,36056,26.5,37.891666666666666,140.43666666666667,茂庭,警戒
2023-08-14 13:00:00,8月14日 13時時点,36066,27.0,37.85166666666667,140.58833333333334,梁川,警戒
2023-08-14 13:00:00,8月14日 13時時点,36106,26.7,37.721666666666664,140.05833333333334,桧原,警戒
2023-08-14 13:00:00,8月14日 13時時点,36127,30.1,37.75833333333333,140.47,福島,厳重警戒
2023-08-14 13:00:00,8月14日 13時時点,36151,29.6,37.78333333333333,140.925,相馬,厳重警戒
2023-08-14 13:00:00,8月14日 13時時点,36176,29.6,37.65833333333333,139.86333333333334,喜多方,厳重警戒
2023-08-14 13:00:00,8月14日 13時時点,36196,23.1,37.66833333333334,140.26,鷲倉,注意
2023-08-14 13:00:00,8月14日 13時時点,36221,26.8,37.665,140.72666666666666,飯舘,警戒
2023-08-14 13:00:00,8月14日 13時時点,36251,28.6,37.58833333333333,139.65666666666667,西会津,厳重警戒
2023-08-14 13:00:00,8月14日 13時時点,36276,30.2,37.55166666666667,140.10833333333332,猪苗代,厳重警戒
2023-08-14 13:00:00,8月14日 13時時点,36291,26.5,37.583333333333336,140.43,二本松,警戒
2023-08-14 13:00:00,8月14日 13時時点,36342,29.9,37.473333333333336,139.52833333333334,金山,厳重警戒
2023-08-14 13:00:00,8月14日 13時時点,36361,31.1,37.48833333333334,139.91,若松,危険
2023-08-14 13:00:00,8月14日 13時時点,36391,27.7,37.435,140.57666666666665,船引,警戒
2023-08-14 13:00:00,8月14日 13時時点,36411,31.1,37.49166666666667,140.965,浪江,危険
2023-08-14 13:00:00,8月14日 13時時点,36426,31.1,37.343333333333334,139.31333333333333,只見,危険
2023-08-14 13:00:00,8月14日 13時時点,36476,28.2,37.36833333333333,140.33,郡山,厳重警戒
2023-08-14 13:00:00,8月14日 13時時点,36501,27.2,37.336666666666666,140.80833333333334,川内,警戒
2023-08-14 13:00:00,8月14日 13時時点,36536,29.4,37.265,139.53666666666666,南郷,厳重警戒
2023-08-14 13:00:00,8月14日 13時時点,36562,25.6,37.276666666666664,140.06333333333333,湯本,警戒
2023-08-14 13:00:00,8月14日 13時時点,36591,26.5,37.28666666666667,140.625,小野新町,警戒
2023-08-14 13:00:00,8月14日 13時時点,36611,30.5,37.233333333333334,141.0,広野,厳重警戒
2023-08-14 13:00:00,8月14日 13時時点,36641,27.9,37.20666666666666,139.795,田島,警戒
2023-08-14 13:00:00,8月14日 13時時点,36667,29.8,37.13166666666667,140.215,白河,厳重警戒
2023-08-14 13:00:00,8月14日 13時時点,36676,29.0,37.14666666666667,140.46,石川,厳重警戒
2023-08-14 13:00:00,8月14日 13時時点,36716,24.6,37.01,139.375,桧枝岐,注意
2023-08-14 13:00:00,8月14日 13時時点,36821,30.8,36.93833333333333,140.40833333333333,東白川,厳重警戒
2023-08-14 13:00:00,8月14日 13時時点,36836,31.2,36.93333333333333,140.73333333333332,山田,危険
2023-08-14 13:00:00,8月14日 13時時点,36846,31.1,36.946666666666665,140.90333333333334,小名浜,危険
2023-08-14 13:00:00,8月14日 13時時点,40046,32.2,36.833333333333336,140.77166666666668,北茨城,危険
2023-08-14 13:00:00,8月14日 13時時点,40061,30.9,36.778333333333336,140.345,大子,厳重警戒
2023-08-14 13:00:00,8月14日 13時時点,40091,30.5,36.60666666666667,140.325,常陸大宮,厳重警戒
2023-08-14 13:00:00,8月14日 13時時点,40136,31.2,36.58,140.645,日立,危険
2023-08-14 13:00:00,8月14日 13時時点,40191,31.9,36.395,140.24,笠間,危険
2023-08-14 13:00:00,8月14日 13時時点,40201,31.1,36.38,140.46666666666667,水戸,危険
2023-08-14 13:00:00,8月14日 13時時点,40221,28.2,36.20166666666667,139.71666666666667,古河,厳重警戒
2023-08-14 13:00:00,8月14日 13時時点,40231,29.5,36.281666666666666,139.98833333333334,下館,厳重警戒
2023-08-14 13:00:00,8月14日 13時時点,40281,27.9,36.16833333333334,139.945,下妻,警戒
2023-08-14 13:00:00,8月14日 13時時点,40311,32.7,36.16833333333334,140.52666666666667,鉾田,危険
2023-08-14 13:00:00,8月14日 13時時点,40336,31.4,36.056666666666665,140.125,つくば,危険
2023-08-14 13:00:00,8月14日 13時時点,40341,27.4,36.10333333333333,140.22,土浦,警戒
2023-08-14 13:00:00,8月14日 13時時点,40406,28.4,35.96333333333333,140.62166666666667,鹿嶋,厳重警戒
2023-08-14 13:00:00,8月14日 13時時点,40426,30.8,35.89,140.21166666666667,龍ケ崎,厳重警戒
2023-08-14 13:00:00,8月14日 13時時点,41011,25.6,37.123333333333335,140.035,那須高原,警戒
2023-08-14 13:00:00,8月14日 13時時点,41076,25.9,36.92166666666667,139.695,五十里,警戒
2023-08-14 13:00:00,8月14日 13時時点,41091,31.0,36.98166666666667,140.01833333333335,黒磯,危険
2023-08-14 13:00:00,8月14日 13時時点,41116,27.3,36.891666666666666,139.56833333333333,土呂部,警戒
2023-08-14 13:00:00,8月14日 13時時点,41141,31.2,36.84,140.035,大田原,危険
2023-08-14 13:00:00,8月14日 13時時点,41166,24.0,36.73833333333333,139.5,奥日光,注意
2023-08-14 13:00:00,8月14日 13時時点,41172,26.8,36.75,139.615,日光東町,警戒
2023-08-14 13:00:00,8月14日 13時時点,41181,28.3,36.75666666666667,139.88333333333333,塩谷,厳重警戒
2023-08-14 13:00:00,8月14日 13時時点,41247,30.6,36.641666666666666,140.11666666666667,那須烏山,厳重警戒
2023-08-14 13:00:00,8月14日 13時時点,41271,30.8,36.59166666666667,139.735,鹿沼,厳重警戒
2023-08-14 13:00:00,8月14日 13時時点,41277,31.6,36.54833333333333,139.86833333333334,宇都宮,危険
2023-08-14 13:00:00,8月14日 13時時点,41331,31.8,36.47666666666667,139.98666666666668,真岡,危険
2023-08-14 13:00:00,8月14日 13時時点,41361,29.8,36.36333333333334,139.57,佐野,厳重警戒
2023-08-14 13:00:00,8月14日 13時時点,41376,31.0,36.33833333333333,139.83,小山,危険
2023-08-14 13:00:00,8月14日 13時時点,42046,29.0,36.86333333333333,139.05833333333334,藤原,厳重警戒
2023-08-14 13:00:00,8月14日 13時時点,42091,30.3,36.77333333333333,138.965,みなかみ,厳重警戒
2023-08-14 13:00:00,8月14日 13時時点,42121,20.3,36.61666666666667,138.59166666666667,草津,ほぼ安全
2023-08-14 13:00:00,8月14日 13時時点,42146,31.1,36.66833333333334,139.02166666666668,沼田,危険
2023-08-14 13:00:00,8月14日 13時時点,42186,25.7,36.586666666666666,138.85,中之条,警戒
2023-08-14 13:00:00,8月14日 13時時点,42221,21.0,36.46333333333333,138.46333333333334,田代,注意
2023-08-14 13:00:00,8月14日 13時時点,42251,28.0,36.405,139.06,前橋,厳重警戒
2023-08-14 13:00:00,8月14日 13時時点,42266,29.7,36.41,139.325,桐生,厳重警戒
2023-08-14 13:00:00,8月14日 13時時点,42286,27.1,36.376666666666665,138.895,上里見,警戒
2023-08-14 13:00:00,8月14日 13時時点,42302,26.2,36.33166666666666,139.165,伊勢崎,警戒
2023-08-14 13:00:00,8月14日 13時時点,42326,24.6,36.245,138.70666666666668,西野牧,注意
2023-08-14 13:00:00,8月14日 13時時点,42366,25.3,36.24,139.51333333333332,館林,警戒
2023-08-14 13:00:00,8月14日 13時時点,42396,22.9,36.108333333333334,138.89666666666668,神流,注意
2023-08-14 13:00:00,8月14日 13時時点,43051,23.8,36.105,139.18333333333334,寄居,注意
2023-08-14 13:00:00,8月14日 13時時点,43056,28.2,36.15,139.38,熊谷,厳重警戒
2023-08-14 13:00:00,8月14日 13時時点,43126,27.7,36.086666666666666,139.635,久喜,警戒
2023-08-14 13:00:00,8月14日 13時時点,43156,26.9,35.99,139.07333333333332,秩父,警戒
2023-08-14 13:00:00,8月14日 13時時点,43171,26.7,35.985,139.335,鳩山,警戒
2023-08-14 13:00:00,8月14日 13時時点,43241,31.7,35.875,139.58666666666667,さいたま,危険
2023-08-14 13:00:00,8月14日 13時時点,43256,29.8,35.88333333333333,139.75666666666666,越谷,厳重警戒
2023-08-14 13:00:00,8月14日 13時時点,43266,28.1,35.77333333333333,139.41333333333333,所沢,厳重警戒
2023-08-14 13:00:00,8月14日 13時時点,44046,25.0,35.791666666666664,139.05,小河内,警戒
2023-08-14 13:00:00,8月14日 13時時点,44056,27.4,35.788333333333334,139.31166666666667,青梅,警戒
2023-08-14 13:00:00,8月14日 13時時点,44071,28.7,35.73833333333333,139.59166666666667,練馬,厳重警戒
2023-08-14 13:00:00,8月14日 13時時点,44112,28.1,35.666666666666664,139.31666666666666,八王子,厳重警戒
2023-08-14 13:00:00,8月14日 13時時点,44116,26.9,35.68333333333333,139.48333333333332,府中,警戒
2023-08-14 13:00:00,8月14日 13時時点,44132,31.8,35.69166666666667,139.75,東京,危険
2023-08-14 13:00:00,8月14日 13時時点,44136,31.3,35.638333333333335,139.86333333333334,江戸川臨海,危険
2023-08-14 13:00:00,8月14日 13時時点,44172,28.9,34.748333333333335,139.36166666666668,大島,厳重警戒
2023-08-14 13:00:00,8月14日 13時時点,44226,29.1,34.123333333333335,139.52,三宅島,厳重警戒
2023-08-14 13:00:00,8月14日 13時時点,44263,29.9,33.12166666666667,139.77833333333334,八丈島,厳重警戒
2023-08-14 13:00:00,8月14日 13時時点,44301,31.4,27.091666666666665,142.19,父島,危険
2023-08-14 13:00:00,8月14日 13時時点,45061,32.5,35.86333333333333,140.11,我孫子,危険
2023-08-14 13:00:00,8月14日 13時時点,45081,27.9,35.858333333333334,140.50166666666667,香取,警戒
2023-08-14 13:00:00,8月14日 13時時点,45106,32.8,35.711666666666666,140.04333333333332,船橋,危険
2023-08-14 13:00:00,8月14日 13時時点,45116,33.7,35.72833333333333,140.21166666666667,佐倉,危険
2023-08-14 13:00:00,8月14日 13時時点,45147,29.7,35.73833333333333,140.85666666666665,銚子,厳重警戒
2023-08-14 13:00:00,8月14日 13時時点,45181,30.5,35.655,140.505,横芝光,厳重警戒
2023-08-14 13:00:00,8月14日 13時時点,45212,30.7,35.60166666666667,140.10333333333332,千葉,厳重警戒
2023-08-14 13:00:00,8月14日 13時時点,45261,31.5,35.43666666666667,140.29333333333332,茂原,危険
2023-08-14 13:00:00,8月14日 13時時点,45282,30.7,35.361666666666665,139.94,木更津,厳重警戒
2023-08-14 13:00:00,8月14日 13時時点,45291,31.4,35.39666666666667,140.14833333333334,牛久,危険
2023-08-14 13:00:00,8月14日 13時時点,45326,31.1,35.235,140.09833333333333,坂畑,危険
2023-08-14 13:00:00,8月14日 13時時点,45361,32.7,35.111666666666665,140.1,鴨川,危険
2023-08-14 13:00:00,8月14日 13時時点,45371,31.8,35.15,140.31166666666667,勝浦,危険
2023-08-14 13:00:00,8月14日 13時時点,45401,31.2,34.986666666666665,139.865,館山,危険
2023-08-14 13:00:00,8月14日 13時時点,46091,30.2,35.43333333333333,139.38666666666666,海老名,厳重警戒
2023-08-14 13:00:00,8月14日 13時時点,46106,30.2,35.43833333333333,139.65166666666667,横浜,厳重警戒
2023-08-14 13:00:00,8月14日 13時時点,46141,34.0,35.32,139.45,辻堂,危険
2023-08-14 13:00:00,8月14日 13時時点,46166,32.7,35.276666666666664,139.155,小田原,危険
2023-08-14 13:00:00,8月14日 13時時点,46211,31.3,35.178333333333335,139.63,三浦,危険
2023-08-14 13:00:00,8月14日 13時時点,48031,27.7,36.91166666666667,138.44166666666666,野沢温泉,警戒
2023-08-14 13:00:00,8月14日 13時時点,48061,28.8,36.80833333333333,138.19666666666666,信濃町,厳重警戒
2023-08-14 13:00:00,8月14日 13時時点,48066,30.9,36.875,138.375,飯山,厳重警戒
2023-08-14 13:00:00,8月14日 13時時点,48141,24.1,36.69833333333333,137.86166666666668,白馬,注意
2023-08-14 13:00:00,8月14日 13時時点,48156,29.9,36.66166666666667,138.19166666666666,長野,厳重警戒
2023-08-14 13:00:00,8月14日 13時時点,48191,25.1,36.52333333333333,137.83166666666668,大町,警戒
2023-08-14 13:00:00,8月14日 13時時点,48196,28.2,36.54833333333333,137.99666666666667,信州新町,厳重警戒
2023-08-14 13:00:00,8月14日 13時時点,48216,24.8,36.531666666666666,138.325,菅平,注意
2023-08-14 13:00:00,8月14日 13時時点,48256,26.9,36.4,138.265,上田,警戒
2023-08-14 13:00:00,8月14日 13時時点,48296,28.6,36.343333333333334,137.88166666666666,穂高,厳重警戒
2023-08-14 13:00:00,8月14日 13時時点,48321,24.2,36.38333333333333,138.38333333333333,東御,注意
2023-08-14 13:00:00,8月14日 13時時点,48331,24.7,36.34166666666667,138.54666666666665,軽井沢,注意
2023-08-14 13:00:00,8月14日 13時時点,48361,28.7,36.24666666666667,137.97,松本,厳重警戒
2023-08-14 13:00:00,8月14日 13時時点,48381,24.8,36.27166666666667,138.31333333333333,立科,注意
2023-08-14 13:00:00,8月14日 13時時点,48386,26.1,36.24666666666667,138.47666666666666,佐久,警戒
2023-08-14 13:00:00,8月14日 13時時点,48466,26.7,36.08833333333333,137.68333333333334,奈川,警戒
2023-08-14 13:00:00,8月14日 13時時点,48491,25.4,36.045,138.10833333333332,諏訪,警戒
2023-08-14 13:00:00,8月14日 13時時点,48531,24.5,35.93833333333333,137.60166666666666,開田高原,注意
2023-08-14 13:00:00,8月14日 13時時点,48536,23.2,35.93666666666667,137.78666666666666,木祖薮原,注意
2023-08-14 13:00:00,8月14日 13時時点,48546,24.9,35.983333333333334,137.98333333333332,辰野,注意
2023-08-14 13:00:00,8月14日 13時時点,48561,21.2,35.97,138.22,原村,注意
2023-08-14 13:00:00,8月14日 13時時点,48571,20.0,35.94833333333333,138.47166666666666,野辺山,ほぼ安全
2023-08-14 13:00:00,8月14日 13時時点,48606,26.5,35.84,137.68833333333333,木曽福島,警戒
2023-08-14 13:00:00,8月14日 13時時点,48621,25.4,35.825,137.955,伊那,警戒
2023-08-14 13:00:00,8月14日 13時時点,48717,24.7,35.61,137.62,南木曽,注意
2023-08-14 13:00:00,8月14日 13時時点,48731,25.5,35.653333333333336,137.89833333333334,飯島,警戒
2023-08-14 13:00:00,8月14日 13時時点,48767,29.5,35.52333333333333,137.82166666666666,飯田,厳重警戒
2023-08-14 13:00:00,8月14日 13時時点,48826,24.4,35.373333333333335,137.69166666666666,浪合,注意
2023-08-14 13:00:00,8月14日 13時時点,48841,33.4,35.321666666666665,137.93166666666667,南信濃,危険
2023-08-14 13:00:00,8月14日 13時時点,49036,22.0,35.861666666666665,138.38666666666666,大泉,注意
2023-08-14 13:00:00,8月14日 13時時点,49086,28.9,35.693333333333335,138.44833333333332,韮崎,厳重警戒
2023-08-14 13:00:00,8月14日 13時時点,49142,30.0,35.666666666666664,138.55333333333334,甲府,厳重警戒
2023-08-14 13:00:00,8月14日 13時時点,49151,29.7,35.663333333333334,138.725,勝沼,厳重警戒
2023-08-14 13:00:00,8月14日 13時時点,49161,28.9,35.608333333333334,138.93833333333333,大月,厳重警戒
2023-08-14 13:00:00,8月14日 13時時点,49196,26.1,35.528333333333336,138.615,古関,警戒
2023-08-14 13:00:00,8月14日 13時時点,49236,25.6,35.46666666666667,138.44166666666666,切石,警戒
2023-08-14 13:00:00,8月14日 13時時点,49251,26.2,35.5,138.76,河口湖,警戒
2023-08-14 13:00:00,8月14日 13時時点,49256,24.2,35.43666666666667,138.83666666666667,山中,注意
2023-08-14 13:00:00,8月14日 13時時点,49316,28.2,35.288333333333334,138.445,南部,厳重警戒
2023-08-14 13:00:00,8月14日 13時時点,50106,24.9,35.21666666666667,138.22166666666666,井川,注意
2023-08-14 13:00:00,8月14日 13時時点,50136,28.8,35.305,138.92666666666668,御殿場,厳重警戒
2023-08-14 13:00:00,8月14日 13時時点,50196,31.0,35.185,138.66333333333333,富士,危険
2023-08-14 13:00:00,8月14日 13時時点,50206,30.9,35.11333333333334,138.925,三島,厳重警戒
2023-08-14 13:00:00,8月14日 13時時点,50226,31.0,35.056666666666665,137.76166666666666,佐久間,危険
2023-08-14 13:00:00,8月14日 13時時点,50241,27.3,35.10166666666667,138.12833333333333,川根本町,警戒
2023-08-14 13:00:00,8月14日 13時時点,50261,29.1,35.053333333333335,138.52166666666668,清水,厳重警戒
2023-08-14 13:00:00,8月14日 13時時点,50281,29.9,35.045,139.09166666666667,網代,厳重警戒
2023-08-14 13:00:00,8月14日 13時時点,50331,29.0,34.975,138.40333333333334,静岡,厳重警戒
2023-08-14 13:00:00,8月14日 13時時点,50386,30.3,34.89,137.81333333333333,天竜,厳重警戒
2023-08-14 13:00:00,8月14日 13時時点,50456,30.4,34.75333333333333,137.71166666666667,浜松,厳重警戒
2023-08-14 13:00:00,8月14日 13時時点,50476,27.3,34.785,138.13833333333332,菊川牧之原,警戒
2023-08-14 13:00:00,8月14日 13時時点,50491,29.6,34.755,138.78333333333333,松崎,厳重警戒
2023-08-14 13:00:00,8月14日 13時時点,50506,28.0,34.781666666666666,139.04833333333335,稲取,厳重警戒
2023-08-14 13:00:00,8月14日 13時時点,50536,28.0,34.69166666666667,137.88,磐田,厳重警戒
2023-08-14 13:00:00,8月14日 13時時点,50551,29.0,34.60333333333333,138.21333333333334,御前崎,厳重警戒
2023-08-14 13:00:00,8月14日 13時時点,50561,29.1,34.60333333333333,138.84166666666667,石廊崎,厳重警戒
2023-08-14 13:00:00,8月14日 13時時点,51031,29.5,35.21666666666667,136.69833333333332,愛西,厳重警戒
2023-08-14 13:00:00,8月14日 13時時点,51071,29.8,35.211666666666666,137.50666666666666,稲武,厳重警戒
2023-08-14 13:00:00,8月14日 13時時点,51106,31.1,35.166666666666664,136.965,名古屋,危険
2023-08-14 13:00:00,8月14日 13時時点,51116,32.4,35.13166666666667,137.17666666666668,豊田,危険
2023-08-14 13:00:00,8月14日 13時時点,51216,31.6,34.995,136.94333333333333,大府,危険
2023-08-14 13:00:00,8月14日 13時時点,51226,30.0,34.91833333333334,137.19333333333333,岡崎,厳重警戒
2023-08-14 13:00:00,8月14日 13時時点,51247,31.0,34.906666666666666,137.51833333333335,新城,危険
2023-08-14 13:00:00,8月14日 13時時点,51281,32.1,34.845,137.21666666666667,蒲郡,危険
2023-08-14 13:00:00,8月14日 13時時点,51311,29.0,34.74,136.93833333333333,南知多,厳重警戒
2023-08-14 13:00:00,8月14日 13時時点,51331,30.8,34.75,137.34166666666667,豊橋,厳重警戒
2023-08-14 13:00:00,8月14日 13時時点,51346,28.9,34.62833333333333,137.09333333333333,伊良湖,厳重警戒
2023-08-14 13:00:00,8月14日 13時時点,52041,29.8,36.305,137.1,河合,厳重警戒
2023-08-14 13:00:00,8月14日 13時時点,52051,30.5,36.321666666666665,137.30833333333334,神岡,厳重警戒
2023-08-14 13:00:00,8月14日 13時時点,52081,30.6,36.27333333333333,136.89666666666668,白川,厳重警戒
2023-08-14 13:00:00,8月14日 13時時点,52111,30.2,36.248333333333335,137.50333333333333,栃尾,厳重警戒
2023-08-14 13:00:00,8月14日 13時時点,52146,30.2,36.155,137.25333333333333,高山,厳重警戒
2023-08-14 13:00:00,8月14日 13時時点,52181,28.1,36.06,137.035,六厩,厳重警戒
2023-08-14 13:00:00,8月14日 13時時点,52196,30.1,36.015,137.38833333333332,宮之前,厳重警戒
2023-08-14 13:00:00,8月14日 13時時点,52221,31.3,35.92333333333333,136.83166666666668,長滝,危険
2023-08-14 13:00:00,8月14日 13時時点,52286,31.5,35.888333333333335,137.20666666666668,萩原,危険
2023-08-14 13:00:00,8月14日 13時時点,52331,32.3,35.75666666666667,136.97833333333332,八幡,危険
2023-08-14 13:00:00,8月14日 13時時点,52346,30.4,35.763333333333335,137.28833333333333,宮地,厳重警戒
2023-08-14 13:00:00,8月14日 13時時点,52381,32.3,35.638333333333335,136.60166666666666,樽見,危険
2023-08-14 13:00:00,8月14日 13時時点,52406,29.9,35.66166666666667,137.16,金山,厳重警戒
2023-08-14 13:00:00,8月14日 13時時点,52461,29.7,35.555,136.91,美濃,厳重警戒
2023-08-14 13:00:00,8月14日 13時時点,52482,25.9,35.598333333333336,137.31833333333333,黒川,警戒
2023-08-14 13:00:00,8月14日 13時時点,52511,33.2,35.485,136.56666666666666,揖斐川,危険
2023-08-14 13:00:00,8月14日 13時時点,52536,31.3,35.445,137.005,美濃加茂,危険
2023-08-14 13:00:00,8月14日 13時時点,52556,31.6,35.446666666666665,137.40333333333334,恵那,危険
2023-08-14 13:00:00,8月14日 13時時点,52557,31.8,35.47666666666667,137.48666666666668,中津川,危険
2023-08-14 13:00:00,8月14日 13時時点,52571,31.9,35.36333333333334,136.46666666666667,関ケ原,危険
2023-08-14 13:00:00,8月14日 13時時点,52581,33.3,35.346666666666664,136.62,大垣,危険
2023-08-14 13:00:00,8月14日 13時時点,52586,32.6,35.4,136.76166666666666,岐阜,危険
2023-08-14 13:00:00,8月14日 13時時点,52606,30.5,35.346666666666664,137.10833333333332,多治見,厳重警戒
2023-08-14 13:00:00,8月14日 13時時点,53041,29.8,35.05,136.69333333333333,桑名,厳重警戒
2023-08-14 13:00:00,8月14日 13時時点,53061,29.7,34.94,136.58,四日市,厳重警戒
2023-08-14 13:00:00,8月14日 13時時点,53091,29.6,34.87,136.45333333333335,亀山,厳重警戒
2023-08-14 13:00:00,8月14日 13時時点,53112,28.0,34.76166666666667,136.14166666666668,上野,厳重警戒
2023-08-14 13:00:00,8月14日 13時時点,53133,29.9,34.733333333333334,136.51833333333335,津,厳重警戒
2023-08-14 13:00:00,8月14日 13時時点,53196,28.2,34.528333333333336,136.665,小俣,厳重警戒
2023-08-14 13:00:00,8月14日 13時時点,53231,26.8,34.44833333333333,136.39,粥見,警戒
2023-08-14 13:00:00,8月14日 13時時点,53257,28.3,34.48166666666667,136.825,鳥羽,厳重警戒
2023-08-14 13:00:00,8月14日 13時時点,53296,27.3,34.345,136.68166666666667,南伊勢,警戒
2023-08-14 13:00:00,8月14日 13時時点,53326,27.5,34.208333333333336,136.32666666666665,紀伊長島,警戒
2023-08-14 13:00:00,8月14日 13時時点,53378,26.9,34.068333333333335,136.19333333333333,尾鷲,警戒
2023-08-14 13:00:00,8月14日 13時時点,53401,27.0,33.931666666666665,136.13833333333332,熊野新鹿,警戒
2023-08-14 13:00:00,8月14日 13時時点,54012,32.6,38.465,139.25333333333333,粟島,危険
2023-08-14 13:00:00,8月14日 13時時点,54041,29.5,38.33,138.51166666666666,弾崎,厳重警戒
2023-08-14 13:00:00,8月14日 13時時点,54086,33.1,38.22666666666667,139.47833333333332,村上,危険
2023-08-14 13:00:00,8月14日 13時時点,54157,32.0,38.028333333333336,138.24,相川,危険
2023-08-14 13:00:00,8月14日 13時時点,54166,31.2,38.07333333333333,138.44,両津,危険
2023-08-14 13:00:00,8月14日 13時時点,54181,34.6,38.07666666666667,139.38833333333332,中条,危険
2023-08-14 13:00:00,8月14日 13時時点,54191,32.1,38.09166666666667,139.56333333333333,下関,危険
2023-08-14 13:00:00,8月14日 13時時点,54232,31.7,37.89333333333333,139.01833333333335,新潟,危険
2023-08-14 13:00:00,8月14日 13時時点,54271,33.3,37.84166666666667,138.31333333333333,羽茂,危険
2023-08-14 13:00:00,8月14日 13時時点,54296,32.7,37.791666666666664,139.08666666666667,新津,危険
2023-08-14 13:00:00,8月14日 13時時点,54341,33.3,37.76833333333333,138.91333333333333,巻,危険
2023-08-14 13:00:00,8月14日 13時時点,54387,34.6,37.64,138.76666666666668,寺泊,危険
2023-08-14 13:00:00,8月14日 13時時点,54396,36.3,37.64,138.955,三条,危険
2023-08-14 13:00:00,8月14日 13時時点,54421,32.1,37.67166666666667,139.44666666666666,津川,危険
2023-08-14 13:00:00,8月14日 13時時点,54501,35.2,37.45,138.82333333333332,長岡,危険
2023-08-14 13:00:00,8月14日 13時時点,54541,33.1,37.35166666666667,138.55333333333334,柏崎,危険
2023-08-14 13:00:00,8月14日 13時時点,54566,33.4,37.346666666666664,139.04333333333332,守門,危険
2023-08-14 13:00:00,8月14日 13時時点,54586,32.8,37.225,138.325,大潟,危険
2023-08-14 13:00:00,8月14日 13時時点,54616,35.7,37.22666666666667,138.96333333333334,小出,危険
2023-08-14 13:00:00,8月14日 13時時点,54651,34.1,37.10666666666667,138.24666666666667,高田,危険
2023-08-14 13:00:00,8月14日 13時時点,54661,33.6,37.10666666666667,138.45666666666668,安塚,危険
2023-08-14 13:00:00,8月14日 13時時点,54676,33.2,37.14333333333333,138.72666666666666,十日町,危険
2023-08-14 13:00:00,8月14日 13時時点,54711,30.7,37.04333333333334,137.875,糸魚川,厳重警戒
2023-08-14 13:00:00,8月14日 13時時点,54721,29.8,37.083333333333336,138.02333333333334,能生,厳重警戒
2023-08-14 13:00:00,8月14日 13時時点,54816,29.7,36.93333333333333,138.22166666666666,関山,厳重警戒
2023-08-14 13:00:00,8月14日 13時時点,54836,31.5,36.99666666666667,138.68333333333334,津南,危険
2023-08-14 13:00:00,8月14日 13時時点,54841,32.3,36.94166666666667,138.81,湯沢,危険
2023-08-14 13:00:00,8月14日 13時時点,55022,31.7,36.93666666666667,137.56333333333333,朝日,危険
2023-08-14 13:00:00,8月14日 13時時点,55041,31.2,36.86333333333333,136.96,氷見,危険
2023-08-14 13:00:00,8月14日 13時時点,55056,30.7,36.821666666666665,137.42833333333334,魚津,厳重警戒
2023-08-14 13:00:00,8月14日 13時時点,55091,31.7,36.791666666666664,137.055,伏木,危険
2023-08-14 13:00:00,8月14日 13時時点,55102,31.2,36.708333333333336,137.20166666666665,富山,危険
2023-08-14 13:00:00,8月14日 13時時点,55141,32.3,36.61,136.955,砺波,危険
2023-08-14 13:00:00,8月14日 13時時点,55166,28.8,36.67,137.42333333333335,上市,厳重警戒
2023-08-14 13:00:00,8月14日 13時時点,55191,29.6,36.545,136.87166666666667,南砺高宮,厳重警戒
2023-08-14 13:00:00,8月14日 13時時点,55206,29.5,36.57,137.15833333333333,八尾,厳重警戒
2023-08-14 13:00:00,8月14日 13時時点,56036,32.2,37.446666666666665,137.28666666666666,珠洲,危険
2023-08-14 13:00:00,8月14日 13時時点,56052,31.6,37.39,136.895,輪島,危険
2023-08-14 13:00:00,8月14日 13時時点,56116,33.0,37.14333333333333,136.725,志賀,危険
2023-08-14 13:00:00,8月14日 13時時点,56146,31.4,37.03,136.99166666666667,七尾,危険
2023-08-14 13:00:00,8月14日 13時時点,56176,32.4,36.89333333333333,136.77666666666667,羽咋,危険
2023-08-14 13:00:00,8月14日 13時時点,56186,28.6,36.711666666666666,136.69166666666666,かほく,厳重警戒
2023-08-14 13:00:00,8月14日 13時時点,56227,31.5,36.58833333333333,136.63333333333333,金沢,危険
2023-08-14 13:00:00,8月14日 13時時点,56276,30.5,36.38166666666667,136.435,小松,厳重警戒
2023-08-14 13:00:00,8月14日 13時時点,56286,31.7,36.39666666666667,136.62,白山河内,危険
2023-08-14 13:00:00,8月14日 13時時点,56301,27.9,36.26166666666666,136.39666666666668,加賀中津原,警戒
2023-08-14 13:00:00,8月14日 13時時点,57001,31.5,36.24333333333333,136.17333333333335,三国,危険
2023-08-14 13:00:00,8月14日 13時時点,57051,29.6,36.01166666666666,135.99,越廼,厳重警戒
2023-08-14 13:00:00,8月14日 13時時点,57066,28.1,36.055,136.22166666666666,福井,厳重警戒
2023-08-14 13:00:00,8月14日 13時時点,57082,27.8,36.038333333333334,136.52166666666668,勝山,警戒
2023-08-14 13:00:00,8月14日 13時時点,57121,28.1,35.971666666666664,136.49666666666667,大野,厳重警戒
2023-08-14 13:00:00,8月14日 13時時点,57206,27.5,35.766666666666666,136.2,今庄,警戒
2023-08-14 13:00:00,8月14日 13時時点,57248,28.8,35.653333333333336,136.06166666666667,敦賀,厳重警戒
2023-08-14 13:00:00,8月14日 13時時点,57286,28.2,35.6,135.91666666666666,美浜,厳重警戒
2023-08-14 13:00:00,8月14日 13時時点,57317,29.1,35.483333333333334,135.78166666666667,小浜,厳重警戒
2023-08-14 13:00:00,8月14日 13時時点,60051,31.1,35.41166666666667,136.02833333333334,今津,危険
2023-08-14 13:00:00,8月14日 13時時点,60061,29.2,35.42333333333333,136.24166666666667,長浜,厳重警戒
2023-08-14 13:00:00,8月14日 13時時点,60102,28.8,35.38333333333333,136.34333333333333,米原,厳重警戒
2023-08-14 13:00:00,8月14日 13時時点,60116,28.9,35.235,135.95666666666668,南小松,厳重警戒
2023-08-14 13:00:00,8月14日 13時時点,60131,30.2,35.275,136.24333333333334,彦根,厳重警戒
2023-08-14 13:00:00,8月14日 13時時点,60196,28.4,35.06166666666667,136.19,東近江,厳重警戒
2023-08-14 13:00:00,8月14日 13時時点,60216,28.3,34.99166666666667,135.91166666666666,大津,厳重警戒
2023-08-14 13:00:00,8月14日 13時時点,60226,27.0,34.913333333333334,136.08,信楽,警戒
2023-08-14 13:00:00,8月14日 13時時点,60236,28.3,34.93833333333333,136.27833333333334,土山,厳重警戒
2023-08-14 13:00:00,8月14日 13時時点,61001,30.5,35.736666666666665,135.08666666666667,間人,厳重警戒
2023-08-14 13:00:00,8月14日 13時時点,61076,31.5,35.55,135.235,宮津,危険
2023-08-14 13:00:00,8月14日 13時時点,61111,29.8,35.45,135.31666666666666,舞鶴,厳重警戒
2023-08-14 13:00:00,8月14日 13時時点,61187,29.5,35.31166666666667,135.11333333333334,福知山,厳重警戒
2023-08-14 13:00:00,8月14日 13時時点,61206,27.5,35.275,135.55,美山,警戒
2023-08-14 13:00:00,8月14日 13時時点,61242,28.8,35.108333333333334,135.455,園部,厳重警戒
2023-08-14 13:00:00,8月14日 13時時点,61286,28.7,35.013333333333335,135.73166666666665,京都,厳重警戒
2023-08-14 13:00:00,8月14日 13時時点,61326,29.0,34.83,135.76,京田辺,厳重警戒
2023-08-14 13:00:00,8月14日 13時時点,62016,28.9,34.94833333333333,135.455,能勢,厳重警戒
2023-08-14 13:00:00,8月14日 13時時点,62046,29.6,34.80833333333333,135.67166666666665,枚方,厳重警戒
2023-08-14 13:00:00,8月14日 13時時点,62078,28.4,34.681666666666665,135.51833333333335,大阪,厳重警戒
2023-08-14 13:00:00,8月14日 13時時点,62081,25.8,34.675,135.67666666666668,生駒山,警戒
2023-08-14 13:00:00,8月14日 13時時点,62091,29.4,34.555,135.485,堺,厳重警戒
2023-08-14 13:00:00,8月14日 13時時点,62131,28.3,34.385,135.35,熊取,厳重警戒
2023-08-14 13:00:00,8月14日 13時時点,63016,29.6,35.625,134.62666666666667,香住,厳重警戒
2023-08-14 13:00:00,8月14日 13時時点,63051,30.4,35.535,134.82166666666666,豊岡,厳重警戒
2023-08-14 13:00:00,8月14日 13時時点,63071,25.9,35.431666666666665,134.58333333333334,兎和野高原,警戒
2023-08-14 13:00:00,8月14日 13時時点,63121,27.8,35.32333333333333,134.84833333333333,和田山,警戒
2023-08-14 13:00:00,8月14日 13時時点,63201,26.4,35.166666666666664,134.79166666666666,生野,警戒
2023-08-14 13:00:00,8月14日 13時時点,63216,28.1,35.13666666666666,135.065,柏原,厳重警戒
2023-08-14 13:00:00,8月14日 13時時点,63251,29.3,35.096666666666664,134.585,一宮,厳重警戒
2023-08-14 13:00:00,8月14日 13時時点,63321,27.9,34.95,134.74833333333333,福崎,警戒
2023-08-14 13:00:00,8月14日 13時時点,63331,27.8,34.998333333333335,134.99666666666667,西脇,警戒
2023-08-14 13:00:00,8月14日 13時時点,63366,28.1,34.858333333333334,134.37333333333333,上郡,厳重警戒
2023-08-14 13:00:00,8月14日 13時時点,63383,28.2,34.83833333333333,134.67,姫路,厳重警戒
2023-08-14 13:00:00,8月14日 13時時点,63411,27.7,34.895,135.21166666666667,三田,警戒
2023-08-14 13:00:00,8月14日 13時時点,63461,27.6,34.776666666666664,135.01333333333332,三木,警戒
2023-08-14 13:00:00,8月14日 13時時点,63491,27.5,34.67166666666667,134.52666666666667,家島,警戒
2023-08-14 13:00:00,8月14日 13時時点,63496,28.0,34.68666666666667,134.87666666666667,明石,厳重警戒
2023-08-14 13:00:00,8月14日 13時時点,63518,28.8,34.696666666666665,135.21166666666667,神戸,厳重警戒
2023-08-14 13:00:00,8月14日 13時時点,63551,29.3,34.46666666666667,134.84833333333333,郡家,厳重警戒
2023-08-14 13:00:00,8月14日 13時時点,63571,27.6,34.31,134.84833333333333,洲本,警戒
2023-08-14 13:00:00,8月14日 13時時点,63588,26.9,34.218333333333334,134.72,南淡,警戒
2023-08-14 13:00:00,8月14日 13時時点,64036,27.9,34.67333333333333,135.83666666666667,奈良,警戒
2023-08-14 13:00:00,8月14日 13時時点,64041,27.3,34.605,135.95166666666665,針,警戒
2023-08-14 13:00:00,8月14日 13時時点,64101,27.0,34.48833333333334,135.93166666666667,大宇陀,警戒
2023-08-14 13:00:00,8月14日 13時時点,64127,28.2,34.38,135.73,五條,厳重警戒
2023-08-14 13:00:00,8月14日 13時時点,64206,25.2,34.13666666666666,136.005,上北山,警戒
2023-08-14 13:00:00,8月14日 13時時点,64227,25.5,34.045,135.78666666666666,風屋,警戒
2023-08-14 13:00:00,8月14日 13時時点,65026,27.2,34.31,135.52833333333334,かつらぎ,警戒
2023-08-14 13:00:00,8月14日 13時時点,65036,27.6,34.28,134.99833333333333,友ケ島,警戒
2023-08-14 13:00:00,8月14日 13時時点,65042,28.4,34.22833333333333,135.16333333333333,和歌山,厳重警戒
2023-08-14 13:00:00,8月14日 13時時点,65061,23.4,34.221666666666664,135.59,高野山,注意
2023-08-14 13:00:00,8月14日 13時時点,65121,26.2,34.086666666666666,135.425,清水,警戒
2023-08-14 13:00:00,8月14日 13時時点,65162,25.9,33.945,135.55666666666667,龍神,警戒
2023-08-14 13:00:00,8月14日 13時時点,65201,27.1,33.89333333333333,135.21666666666667,川辺,警戒
2023-08-14 13:00:00,8月14日 13時時点,65256,27.0,33.791666666666664,135.51333333333332,栗栖川,警戒
2023-08-14 13:00:00,8月14日 13時時点,65276,26.7,33.68666666666667,135.97,新宮,警戒
2023-08-14 13:00:00,8月14日 13時時点,65306,25.9,33.638333333333335,135.71,西川,警戒
2023-08-14 13:00:00,8月14日 13時時点,65356,26.5,33.45,135.75666666666666,潮岬,警戒
2023-08-14 13:00:00,8月14日 13時時点,66046,28.4,35.29666666666667,133.725,上長田,厳重警戒
2023-08-14 13:00:00,8月14日 13時時点,66091,26.6,35.10333333333333,133.435,千屋,警戒
2023-08-14 13:00:00,8月14日 13時時点,66127,27.1,35.111666666666665,134.17,奈義,警戒
2023-08-14 13:00:00,8月14日 13時時点,66136,26.8,35.098333333333336,134.325,今岡,警戒
2023-08-14 13:00:00,8月14日 13時時点,66171,27.5,35.068333333333335,133.75333333333333,久世,警戒
2023-08-14 13:00:00,8月14日 13時時点,66186,27.3,35.06333333333333,134.00833333333333,津山,警戒
2023-08-14 13:00:00,8月14日 13時時点,66221,29.0,34.943333333333335,133.51833333333335,新見,厳重警戒
2023-08-14 13:00:00,8月14日 13時時点,66296,27.5,34.86666666666667,133.90333333333334,福渡,警戒
2023-08-14 13:00:00,8月14日 13時時点,66306,28.2,34.815,134.18333333333334,和気,厳重警戒
2023-08-14 13:00:00,8月14日 13時時点,66336,29.4,34.791666666666664,133.61,高梁,厳重警戒
2023-08-14 13:00:00,8月14日 13時時点,66408,28.3,34.685,133.925,岡山,厳重警戒
2023-08-14 13:00:00,8月14日 13時時点,66421,28.3,34.681666666666665,134.20666666666668,虫明,厳重警戒
2023-08-14 13:00:00,8月14日 13時時点,66446,28.2,34.59,133.76833333333335,倉敷,厳重警戒
2023-08-14 13:00:00,8月14日 13時時点,66481,28.4,34.501666666666665,133.495,笠岡,厳重警戒
2023-08-14 13:00:00,8月14日 13時時点,66501,28.3,34.486666666666665,133.95,玉野,厳重警戒
2023-08-14 13:00:00,8月14日 13時時点,67016,25.1,35.03333333333333,132.90166666666667,高野,警戒
2023-08-14 13:00:00,8月14日 13時時点,67106,27.0,34.81166666666667,132.85,三次,警戒
2023-08-14 13:00:00,8月14日 13時時点,67116,25.8,34.86,133.02333333333334,庄原,警戒
2023-08-14 13:00:00,8月14日 13時時点,67151,26.0,34.76833333333333,132.46333333333334,大朝,警戒
2023-08-14 13:00:00,8月14日 13時時点,67191,25.0,34.763333333333335,133.27833333333334,油木,警戒
2023-08-14 13:00:00,8月14日 13時時点,67212,28.5,34.61,132.32,加計,厳重警戒
2023-08-14 13:00:00,8月14日 13時時点,67292,27.4,34.545,132.53,三入,警戒
2023-08-14 13:00:00,8月14日 13時時点,67316,26.0,34.583333333333336,133.05,世羅,警戒
2023-08-14 13:00:00,8月14日 13時時点,67326,27.4,34.56166666666667,133.23166666666665,府中,警戒
2023-08-14 13:00:00,8月14日 13時時点,67376,26.9,34.416666666666664,132.7,東広島,警戒
2023-08-14 13:00:00,8月14日 13時時点,67401,29.3,34.446666666666665,133.24666666666667,福山,厳重警戒
2023-08-14 13:00:00,8月14日 13時時点,67421,29.1,34.365,132.19,廿日市津田,厳重警戒
2023-08-14 13:00:00,8月14日 13時時点,67437,27.9,34.39833333333333,132.46166666666667,広島,警戒
2023-08-14 13:00:00,8月14日 13時時点,67461,27.1,34.33,132.98166666666665,竹原,警戒
2023-08-14 13:00:00,8月14日 13時時点,67471,27.6,34.278333333333336,133.12333333333333,生口島,警戒
2023-08-14 13:00:00,8月14日 13時時点,67496,30.1,34.221666666666664,132.22,大竹,厳重警戒
2023-08-14 13:00:00,8月14日 13時時点,67511,28.3,34.24,132.55,呉,厳重警戒
2023-08-14 13:00:00,8月14日 13時時点,67576,26.7,34.165,132.74833333333333,呉市蒲刈,警戒
2023-08-14 13:00:00,8月14日 13時時点,68022,28.7,36.20333333333333,133.33333333333334,西郷,厳重警戒
2023-08-14 13:00:00,8月14日 13時時点,68056,29.8,36.096666666666664,133.09666666666666,海士,厳重警戒
2023-08-14 13:00:00,8月14日 13時時点,68091,28.2,35.52,132.98333333333332,鹿島,厳重警戒
2023-08-14 13:00:00,8月14日 13時時点,68132,28.9,35.45666666666666,133.065,松江,厳重警戒
2023-08-14 13:00:00,8月14日 13時時点,68156,27.5,35.33166666666666,132.73,出雲,警戒
2023-08-14 13:00:00,8月14日 13時時点,68246,27.9,35.19,132.49666666666667,大田,警戒
2023-08-14 13:00:00,8月14日 13時時点,68261,26.8,35.196666666666665,132.815,掛合,警戒
2023-08-14 13:00:00,8月14日 13時時点,68276,25.5,35.17333333333333,133.10333333333332,横田,警戒
2023-08-14 13:00:00,8月14日 13時時点,68306,25.9,35.001666666666665,132.71166666666667,赤名,警戒
2023-08-14 13:00:00,8月14日 13時時点,68351,26.5,34.97666666666667,132.49166666666667,川本,警戒
2023-08-14 13:00:00,8月14日 13時時点,68376,30.7,34.89666666666667,132.07,浜田,厳重警戒
2023-08-14 13:00:00,8月14日 13時時点,68401,26.2,34.85333333333333,132.53,瑞穂,警戒
2023-08-14 13:00:00,8月14日 13時時点,68431,27.5,34.776666666666664,132.10833333333332,弥栄,警戒
2023-08-14 13:00:00,8月14日 13時時点,68462,31.1,34.67666666666667,131.84333333333333,益田,危険
2023-08-14 13:00:00,8月14日 13時時点,68516,29.2,34.461666666666666,131.77,津和野,厳重警戒
2023-08-14 13:00:00,8月14日 13時時点,68541,28.4,34.391666666666666,131.89333333333335,吉賀,厳重警戒
2023-08-14 13:00:00,8月14日 13時時点,69006,28.1,35.54333333333334,133.235,境,厳重警戒
2023-08-14 13:00:00,8月14日 13時時点,69021,30.3,35.52333333333333,133.56666666666666,塩津,厳重警戒
2023-08-14 13:00:00,8月14日 13時時点,69041,29.8,35.52,133.99666666666667,青谷,厳重警戒
2023-08-14 13:00:00,8月14日 13時時点,69061,28.4,35.55833333333333,134.36,岩井,厳重警戒
2023-08-14 13:00:00,8月14日 13時時点,69076,28.7,35.43333333333333,133.33833333333334,米子,厳重警戒
2023-08-14 13:00:00,8月14日 13時時点,69101,29.3,35.473333333333336,133.83833333333334,倉吉,厳重警戒
2023-08-14 13:00:00,8月14日 13時時点,69122,31.2,35.486666666666665,134.23833333333334,鳥取,危険
2023-08-14 13:00:00,8月14日 13時時点,69246,27.1,35.263333333333335,134.24,智頭,警戒
2023-08-14 13:00:00,8月14日 13時時点,69271,25.6,35.18666666666667,133.23,茶屋,警戒
2023-08-14 13:00:00,8月14日 13時時点,81011,29.1,34.615,131.62333333333333,須佐,厳重警戒
2023-08-14 13:00:00,8月14日 13時時点,81071,30.5,34.41,131.405,萩,厳重警戒
2023-08-14 13:00:00,8月14日 13時時点,81116,29.7,34.37,131.055,油谷,厳重警戒
2023-08-14 13:00:00,8月14日 13時時点,81151,28.4,34.39833333333333,131.725,徳佐,厳重警戒
2023-08-14 13:00:00,8月14日 13時時点,81196,28.5,34.235,131.30666666666667,秋吉台,厳重警戒
2023-08-14 13:00:00,8月14日 13時時点,81231,31.1,34.26166666666666,131.95166666666665,広瀬,危険
2023-08-14 13:00:00,8月14日 13時時点,81266,29.7,34.18666666666667,131.07666666666665,豊田,厳重警戒
2023-08-14 13:00:00,8月14日 13時時点,81286,30.5,34.16166666666667,131.46166666666667,山口,厳重警戒
2023-08-14 13:00:00,8月14日 13時時点,81321,31.3,34.155,132.17833333333334,岩国,危険
2023-08-14 13:00:00,8月14日 13時時点,81371,30.7,34.04,131.53333333333333,防府,厳重警戒
2023-08-14 13:00:00,8月14日 13時時点,81386,30.7,34.01,131.87166666666667,下松,厳重警戒
2023-08-14 13:00:00,8月14日 13時時点,81397,31.0,34.095,132.075,玖珂,危険
2023-08-14 13:00:00,8月14日 13時時点,81428,30.7,33.94833333333333,130.925,下関,厳重警戒
2023-08-14 13:00:00,8月14日 13時時点,81481,30.6,33.958333333333336,132.11333333333334,柳井,厳重警戒
2023-08-14 13:00:00,8月14日 13時時点,81486,29.8,33.903333333333336,132.29333333333332,安下庄,厳重警戒
2023-08-14 13:00:00,8月14日 13時時点,71066,26.6,34.02333333333333,133.795,池田,警戒
2023-08-14 13:00:00,8月14日 13時時点,71087,27.5,34.04,134.15666666666667,穴吹,警戒
2023-08-14 13:00:00,8月14日 13時時点,71106,27.5,34.06666666666667,134.57333333333332,徳島,警戒
2023-08-14 13:00:00,8月14日 13時時点,71191,23.7,33.86666666666667,133.90333333333334,京上,注意
2023-08-14 13:00:00,8月14日 13時時点,71231,26.8,33.836666666666666,134.74166666666667,蒲生田,警戒
2023-08-14 13:00:00,8月14日 13時時点,71251,24.7,33.77166666666667,134.19833333333332,木頭,注意
2023-08-14 13:00:00,8月14日 13時時点,71266,26.9,33.73166666666667,134.53833333333333,日和佐,警戒
2023-08-14 13:00:00,8月14日 13時時点,71291,26.6,33.611666666666665,134.355,海陽,警戒
2023-08-14 13:00:00,8月14日 13時時点,72061,28.3,34.471666666666664,134.27333333333334,内海,厳重警戒
2023-08-14 13:00:00,8月14日 13時時点,72086,27.8,34.318333333333335,134.05333333333334,高松,警戒
2023-08-14 13:00:00,8月14日 13時時点,72111,27.8,34.275,133.75166666666667,多度津,警戒
2023-08-14 13:00:00,8月14日 13時時点,72121,27.7,34.236666666666665,133.92333333333335,滝宮,警戒
2023-08-14 13:00:00,8月14日 13時時点,72146,27.9,34.21333333333333,134.40666666666667,引田,警戒
2023-08-14 13:00:00,8月14日 13時時点,72161,27.5,34.12,133.77166666666668,財田,警戒
2023-08-14 13:00:00,8月14日 13時時点,73001,28.0,34.25,133.00666666666666,大三島,厳重警戒
2023-08-14 13:00:00,8月14日 13時時点,73076,26.8,34.053333333333335,132.975,今治,警戒
2023-08-14 13:00:00,8月14日 13時時点,73126,27.6,33.915,133.08,西条,警戒
2023-08-14 13:00:00,8月14日 13時時点,73141,27.0,33.93666666666667,133.33833333333334,新居浜,警戒
2023-08-14 13:00:00,8月14日 13時時点,73151,26.9,33.98166666666667,133.58166666666668,四国中央,警戒
2023-08-14 13:00:00,8月14日 13時時点,73166,30.7,33.843333333333334,132.77666666666667,松山,厳重警戒
2023-08-14 13:00:00,8月14日 13時時点,73256,27.9,33.61666666666667,132.48,長浜,警戒
2023-08-14 13:00:00,8月14日 13時時点,73276,25.6,33.663333333333334,132.895,久万,警戒
2023-08-14 13:00:00,8月14日 13時時点,73306,28.6,33.50833333333333,132.535,大洲,厳重警戒
2023-08-14 13:00:00,8月14日 13時時点,73341,27.8,33.446666666666665,132.25666666666666,瀬戸,警戒
2023-08-14 13:00:00,8月14日 13時時点,73406,28.8,33.36666666666667,132.50333333333333,宇和,厳重警戒
2023-08-14 13:00:00,8月14日 13時時点,73442,31.4,33.22666666666667,132.55166666666668,宇和島,危険
2023-08-14 13:00:00,8月14日 13時時点,73446,31.0,33.25333333333333,132.675,近永,危険
2023-08-14 13:00:00,8月14日 13時時点,73516,30.0,32.96333333333333,132.57,御荘,厳重警戒
2023-08-14 13:00:00,8月14日 13時時点,74056,24.1,33.765,133.33833333333334,本川,注意
2023-08-14 13:00:00,8月14日 13時時点,74071,25.7,33.75333333333333,133.575,本山,警戒
2023-08-14 13:00:00,8月14日 13時時点,74136,25.8,33.69833333333333,133.875,大栃,警戒
2023-08-14 13:00:00,8月14日 13時時点,74182,26.4,33.56666666666667,133.54833333333335,高知,警戒
2023-08-14 13:00:00,8月14日 13時時点,74187,26.6,33.59,133.64333333333335,後免,警戒
2023-08-14 13:00:00,8月14日 13時時点,74271,29.0,33.48833333333334,133.93333333333334,安芸,厳重警戒
2023-08-14 13:00:00,8月14日 13時時点,74296,29.6,33.39,132.92166666666665,梼原,厳重警戒
2023-08-14 13:00:00,8月14日 13時時点,74311,30.1,33.385,133.27666666666667,須崎,厳重警戒
2023-08-14 13:00:00,8月14日 13時時点,74361,29.8,33.20666666666666,133.12833333333333,窪川,厳重警戒
2023-08-14 13:00:00,8月14日 13時時点,74372,26.0,33.251666666666665,134.17666666666668,室戸岬,警戒
2023-08-14 13:00:00,8月14日 13時時点,74381,30.9,33.17,132.79166666666666,江川崎,厳重警戒
2023-08-14 13:00:00,8月14日 13時時点,74436,29.8,33.07833333333333,133.10166666666666,佐賀,厳重警戒
2023-08-14 13:00:00,8月14日 13時時点,74447,31.5,32.92,132.695,宿毛,危険
2023-08-14 13:00:00,8月14日 13時時点,74456,29.3,32.99,132.92,中村,厳重警戒
2023-08-14 13:00:00,8月14日 13時時点,74516,32.2,32.721666666666664,133.01,清水,危険
2023-08-14 13:00:00,8月14日 13時時点,82046,32.3,33.80833333333333,130.53833333333333,宗像,危険
2023-08-14 13:00:00,8月14日 13時時点,82056,31.1,33.85166666666667,130.74333333333334,八幡,危険
2023-08-14 13:00:00,8月14日 13時時点,82101,30.4,33.71333333333333,130.975,行橋,厳重警戒
2023-08-14 13:00:00,8月14日 13時時点,82136,30.7,33.651666666666664,130.69333333333333,飯塚,厳重警戒
2023-08-14 13:00:00,8月14日 13時時点,82171,31.4,33.56,130.19,前原,危険
2023-08-14 13:00:00,8月14日 13時時点,82182,31.5,33.58166666666666,130.375,福岡,危険
2023-08-14 13:00:00,8月14日 13時時点,82191,30.9,33.49666666666667,130.49,太宰府,厳重警戒
2023-08-14 13:00:00,8月14日 13時時点,82206,30.5,33.55833333333333,130.855,添田,厳重警戒
2023-08-14 13:00:00,8月14日 13時時点,82261,30.4,33.406666666666666,130.695,朝倉,厳重警戒
2023-08-14 13:00:00,8月14日 13時時点,82306,31.7,33.303333333333335,130.49333333333334,久留米,危険
2023-08-14 13:00:00,8月14日 13時時点,82317,31.6,33.225,130.645,黒木,危険
2023-08-14 13:00:00,8月14日 13時時点,82361,31.2,33.00666666666667,130.46666666666667,大牟田,危険
2023-08-14 13:00:00,8月14日 13時時点,83021,30.4,33.678333333333335,131.575,国見,厳重警戒
2023-08-14 13:00:00,8月14日 13時時点,83051,30.7,33.586666666666666,131.245,中津,厳重警戒
2023-08-14 13:00:00,8月14日 13時時点,83061,31.1,33.57,131.43333333333334,豊後高田,危険
2023-08-14 13:00:00,8月14日 13時時点,83106,30.2,33.42,131.31666666666666,院内,厳重警戒
2023-08-14 13:00:00,8月14日 13時時点,83121,30.4,33.416666666666664,131.59666666666666,杵築,厳重警戒
2023-08-14 13:00:00,8月14日 13時時点,83137,31.6,33.321666666666665,130.92833333333334,日田,危険
2023-08-14 13:00:00,8月14日 13時時点,83191,29.2,33.291666666666664,131.155,玖珠,厳重警戒
2023-08-14 13:00:00,8月14日 13時時点,83201,28.6,33.25333333333333,131.34666666666666,湯布院,厳重警戒
2023-08-14 13:00:00,8月14日 13時時点,83216,30.4,33.235,131.61833333333334,大分,厳重警戒
2023-08-14 13:00:00,8月14日 13時時点,83341,31.0,33.065,131.63166666666666,犬飼,危険
2023-08-14 13:00:00,8月14日 13時時点,83371,31.3,32.973333333333336,131.39833333333334,竹田,危険
2023-08-14 13:00:00,8月14日 13時時点,83401,30.7,32.95,131.90166666666667,佐伯,厳重警戒
2023-08-14 13:00:00,8月14日 13時時点,83431,30.5,32.845,131.675,宇目,厳重警戒
2023-08-14 13:00:00,8月14日 13時時点,83476,30.7,32.795,131.92333333333335,蒲江,厳重警戒
2023-08-14 13:00:00,8月14日 13時時点,84012,28.5,34.69833333333333,129.445,鰐浦,厳重警戒
2023-08-14 13:00:00,8月14日 13時時点,84072,30.0,34.196666666666665,129.29166666666666,厳原,厳重警戒
2023-08-14 13:00:00,8月14日 13時時点,84121,29.4,33.8,129.72166666666666,芦辺,厳重警戒
2023-08-14 13:00:00,8月14日 13時時点,84171,30.5,33.36,129.55,平戸,厳重警戒
2023-08-14 13:00:00,8月14日 13時時点,84183,29.8,33.34166666666667,129.71166666666667,松浦,厳重警戒
2023-08-14 13:00:00,8月14日 13時時点,84266,30.0,33.15833333333333,129.72666666666666,佐世保,厳重警戒
2023-08-14 13:00:00,8月14日 13時時点,84306,30.8,33.013333333333335,129.65166666666667,西海,厳重警戒
2023-08-14 13:00:00,8月14日 13時時点,84341,31.1,32.98166666666667,129.11833333333334,有川,危険
2023-08-14 13:00:00,8月14日 13時時点,84496,30.6,32.733333333333334,129.86666666666667,長崎,厳重警戒
2023-08-14 13:00:00,8月14日 13時時点,84519,27.8,32.736666666666665,130.26166666666666,雲仙岳,警戒
2023-08-14 13:00:00,8月14日 13時時点,84523,30.7,32.76,130.36166666666668,島原,厳重警戒
2023-08-14 13:00:00,8月14日 13時時点,84536,30.3,32.693333333333335,128.82666666666665,福江,厳重警戒
2023-08-14 13:00:00,8月14日 13時時点,84561,32.2,32.611666666666665,130.19333333333333,口之津,危険
2023-08-14 13:00:00,8月14日 13時時点,84597,30.7,32.58166666666666,129.77666666666667,脇岬,厳重警戒
2023-08-14 13:00:00,8月14日 13時時点,85033,31.5,33.458333333333336,129.955,唐津,危険
2023-08-14 13:00:00,8月14日 13時時点,85116,30.1,33.266666666666666,129.87833333333333,伊万里,厳重警戒
2023-08-14 13:00:00,8月14日 13時時点,85142,30.8,33.265,130.305,佐賀,厳重警戒
2023-08-14 13:00:00,8月14日 13時時点,85161,31.2,33.11666666666667,129.995,嬉野,危険
2023-08-14 13:00:00,8月14日 13時時点,85166,31.8,33.18333333333333,130.14833333333334,白石,危険
2023-08-14 13:00:00,8月14日 13時時点,86006,30.8,33.115,130.69166666666666,鹿北,厳重警戒
2023-08-14 13:00:00,8月14日 13時時点,86066,29.3,33.10333333333333,131.06666666666666,南小国,厳重警戒
2023-08-14 13:00:00,8月14日 13時時点,86086,31.5,32.915,130.51166666666666,岱明,危険
2023-08-14 13:00:00,8月14日 13時時点,86101,32.0,32.945,130.78166666666667,菊池,危険
2023-08-14 13:00:00,8月14日 13時時点,86111,28.1,32.946666666666665,131.04,阿蘇乙姫,厳重警戒
2023-08-14 13:00:00,8月14日 13時時点,86141,30.2,32.81333333333333,130.70666666666668,熊本,厳重警戒
2023-08-14 13:00:00,8月14日 13時時点,86157,29.5,32.83166666666666,131.01333333333332,南阿蘇,厳重警戒
2023-08-14 13:00:00,8月14日 13時時点,86161,29.1,32.821666666666665,131.125,高森,厳重警戒
2023-08-14 13:00:00,8月14日 13時時点,86216,30.5,32.611666666666665,130.47833333333332,三角,厳重警戒
2023-08-14 13:00:00,8月14日 13時時点,86236,33.0,32.67166666666667,130.81666666666666,甲佐,危険
2023-08-14 13:00:00,8月14日 13時時点,86271,30.3,32.515,130.44666666666666,松島,厳重警戒
2023-08-14 13:00:00,8月14日 13時時点,86316,31.0,32.468333333333334,130.18,本渡,危険
2023-08-14 13:00:00,8月14日 13時時点,86336,31.2,32.473333333333336,130.60666666666665,八代,危険
2023-08-14 13:00:00,8月14日 13時時点,86451,30.5,32.205,130.40666666666667,水俣,厳重警戒
2023-08-14 13:00:00,8月14日 13時時点,86467,31.1,32.21666666666667,130.755,人吉,危険
2023-08-14 13:00:00,8月14日 13時時点,86477,31.3,32.225,130.905,上,危険
2023-08-14 13:00:00,8月14日 13時時点,86491,30.7,32.196666666666665,130.02666666666667,牛深,厳重警戒
2023-08-14 13:00:00,8月14日 13時時点,87041,31.0,32.711666666666666,131.29,高千穂,危険
2023-08-14 13:00:00,8月14日 13時時点,87066,31.8,32.711666666666666,131.82,古江,危険
2023-08-14 13:00:00,8月14日 13時時点,87071,28.7,32.64333333333333,131.15666666666667,鞍岡,厳重警戒
2023-08-14 13:00:00,8月14日 13時時点,87141,32.8,32.58166666666666,131.65666666666667,延岡,危険
2023-08-14 13:00:00,8月14日 13時時点,87181,31.8,32.40833333333333,131.6,日向,危険
2023-08-14 13:00:00,8月14日 13時時点,87206,31.1,32.385,131.33166666666668,神門,危険
2023-08-14 13:00:00,8月14日 13時時点,87231,30.8,32.24,131.15166666666667,西米良,厳重警戒
2023-08-14 13:00:00,8月14日 13時時点,87293,32.3,32.123333333333335,131.475,高鍋,危険
2023-08-14 13:00:00,8月14日 13時時点,87301,31.0,32.04666666666667,130.81,加久藤,危険
2023-08-14 13:00:00,8月14日 13時時点,87331,32.3,32.06333333333333,131.41333333333333,西都,危険
2023-08-14 13:00:00,8月14日 13時時点,87352,30.9,32.0,130.95333333333335,小林,厳重警戒
2023-08-14 13:00:00,8月14日 13時時点,87376,31.7,31.938333333333333,131.41333333333333,宮崎,危険
2023-08-14 13:00:00,8月14日 13時時点,87406,31.1,31.843333333333334,131.30833333333334,田野,危険
2023-08-14 13:00:00,8月14日 13時時点,87426,32.2,31.73,131.08166666666668,都城,危険
2023-08-14 13:00:00,8月14日 13時時点,87492,31.5,31.578333333333333,131.40666666666667,油津,危険
2023-08-14 13:00:00,8月14日 13時時点,87501,31.5,31.465,131.22,串間,危険
2023-08-14 13:00:00,8月14日 13時時点,88061,30.9,32.026666666666664,130.2,阿久根,厳重警戒
2023-08-14 13:00:00,8月14日 13時時点,88081,30.6,32.04666666666667,130.62666666666667,大口,厳重警戒
2023-08-14 13:00:00,8月14日 13時時点,88107,31.7,31.916666666666668,130.455,さつま柏原,危険
2023-08-14 13:00:00,8月14日 13時時点,88131,30.5,31.835,129.86666666666667,中甑,厳重警戒
2023-08-14 13:00:00,8月14日 13時時点,88151,30.5,31.833333333333332,130.315,川内,厳重警戒
2023-08-14 13:00:00,8月14日 13時時点,88261,30.9,31.668333333333333,130.32833333333335,東市来,厳重警戒
2023-08-14 13:00:00,8月14日 13時時点,88286,29.8,31.661666666666665,130.84333333333333,牧之原,厳重警戒
2023-08-14 13:00:00,8月14日 13時時点,88317,32.4,31.555,130.54666666666665,鹿児島,危険
2023-08-14 13:00:00,8月14日 13時時点,88331,30.3,31.588333333333335,130.855,輝北,厳重警戒
2023-08-14 13:00:00,8月14日 13時時点,88371,30.5,31.415,130.325,加世田,厳重警戒
2023-08-14 13:00:00,8月14日 13時時点,88406,32.2,31.47833333333333,131.095,志布志,危険
2023-08-14 13:00:00,8月14日 13時時点,88432,31.8,31.386666666666667,130.54,喜入,危険
2023-08-14 13:00:00,8月14日 13時時点,88442,31.4,31.391666666666666,130.86333333333334,鹿屋,危険
2023-08-14 13:00:00,8月14日 13時時点,88447,32.1,31.34,130.93833333333333,肝付前田,危険
2023-08-14 13:00:00,8月14日 13時時点,88466,31.5,31.27166666666667,130.29166666666666,枕崎,危険
2023-08-14 13:00:00,8月14日 13時時点,88486,32.5,31.25,130.63666666666666,指宿,危険
2023-08-14 13:00:00,8月14日 13時時点,88506,31.9,31.276666666666667,131.055,内之浦,危険
2023-08-14 13:00:00,8月14日 13時時点,88536,30.5,31.198333333333334,130.84333333333333,田代,厳重警戒
2023-08-14 13:00:00,8月14日 13時時点,88612,30.3,30.72,130.98166666666665,種子島,厳重警戒
2023-08-14 13:00:00,8月14日 13時時点,88666,30.0,30.406666666666666,130.90166666666667,上中,厳重警戒
2023-08-14 13:00:00,8月14日 13時時点,88686,29.2,30.385,130.65833333333333,屋久島,厳重警戒
2023-08-14 13:00:00,8月14日 13時時点,88706,29.2,30.235,130.555,尾之間,厳重警戒
2023-08-14 13:00:00,8月14日 13時時点,88736,29.2,29.84,129.86666666666667,中之島,厳重警戒
2023-08-14 13:00:00,8月14日 13時時点,88836,30.2,28.378333333333334,129.495,名瀬,厳重警戒
2023-08-14 13:00:00,8月14日 13時時点,88901,28.8,28.143333333333334,129.315,古仁屋,厳重警戒
2023-08-14 13:00:00,8月14日 13時時点,88956,27.8,27.676666666666666,128.97333333333333,伊仙,警戒
2023-08-14 13:00:00,8月14日 13時時点,88971,30.7,27.431666666666665,128.705,沖永良部,厳重警戒
2023-08-14 13:00:00,8月14日 13時時点,91011,31.7,26.948333333333334,127.94,伊是名,危険
2023-08-14 13:00:00,8月14日 13時時点,91021,31.0,26.835,128.27166666666668,奥,危険
2023-08-14 13:00:00,8月14日 13時時点,91107,32.7,26.593333333333334,127.965,名護,危険
2023-08-14 13:00:00,8月14日 13時時点,91146,31.7,26.336666666666666,126.80333333333333,久米島,危険
2023-08-14 13:00:00,8月14日 13時時点,91166,31.5,26.363333333333333,127.97166666666666,宮城島,危険
2023-08-14 13:00:00,8月14日 13時時点,91181,30.2,26.21,127.36333333333333,渡嘉敷,厳重警戒
2023-08-14 13:00:00,8月14日 13時時点,91197,31.2,26.206666666666667,127.68666666666667,那覇,危険
2023-08-14 13:00:00,8月14日 13時時点,91241,30.4,26.153333333333332,127.765,糸数,厳重警戒
2023-08-14 13:00:00,8月14日 13時時点,92011,29.3,25.828333333333333,131.22833333333332,南大東,厳重警戒
2023-08-14 13:00:00,8月14日 13時時点,93041,31.8,24.793333333333333,125.27833333333334,宮古島,危険
2023-08-14 13:00:00,8月14日 13時時点,94001,31.6,24.506666666666668,124.28,伊原間,危険
2023-08-14 13:00:00,8月14日 13時時点,94017,32.2,24.466666666666665,123.01,与那国島,危険
2023-08-14 13:00:00,8月14日 13時時点,94062,32.6,24.426666666666666,123.765,西表島,危険
2023-08-14 13:00:00,8月14日 13時時点,94081,32.1,24.336666666666666,124.16333333333333,石垣島,危険
2023-08-14 13:00:00,8月14日 13時時点,94101,29.5,24.265,123.87166666666667,大原,厳重警戒
2023-08-14 13:00:00,8月14日 13時時点,94116,32.1,24.055,123.76666666666667,波照間,危険
