date_dt,date_popup,amdno,wbgt,lat,lon,kjName,guideline
2023-08-17 11:00:00,8月17日 11時時点,11001,20.2,45.52,141.935,宗谷岬,ほぼ安全
2023-08-17 11:00:00,8月17日 11時時点,11016,26.3,45.415,141.67833333333334,稚内,警戒
2023-08-17 11:00:00,8月17日 11時時点,11046,24.1,45.305,141.045,礼文,注意
2023-08-17 11:00:00,8月17日 11時時点,11076,20.2,45.335,142.17,浜鬼志別,ほぼ安全
2023-08-17 11:00:00,8月17日 11時時点,11121,28.9,45.248333333333335,141.85166666666666,沼川,厳重警戒
2023-08-17 11:00:00,8月17日 11時時点,11151,29.2,45.178333333333335,141.13833333333332,沓形,厳重警戒
2023-08-17 11:00:00,8月17日 11時時点,11176,29.2,45.10166666666667,141.78,豊富,厳重警戒
2023-08-17 11:00:00,8月17日 11時時点,11206,27.1,45.125,142.35,浜頓別,警戒
2023-08-17 11:00:00,8月17日 11時時点,11276,33.2,44.965,142.28,中頓別,危険
2023-08-17 11:00:00,8月17日 11時時点,11291,25.3,44.94,142.585,北見枝幸,警戒
2023-08-17 11:00:00,8月17日 11時時点,11316,27.1,44.84166666666667,142.48,歌登,警戒
2023-08-17 11:00:00,8月17日 11時時点,12011,32.1,44.82833333333333,142.07666666666665,中川,危険
2023-08-17 11:00:00,8月17日 11時時点,12041,31.4,44.72666666666667,142.265,音威子府,危険
2023-08-17 11:00:00,8月17日 11時時点,12141,30.4,44.48,142.34166666666667,美深,厳重警戒
2023-08-17 11:00:00,8月17日 11時時点,12181,30.8,44.37,142.45666666666668,名寄,厳重警戒
2023-08-17 11:00:00,8月17日 11時時点,12231,32.0,44.295,142.63666666666666,下川,危険
2023-08-17 11:00:00,8月17日 11時時点,12261,29.0,44.18666666666667,142.41666666666666,士別,厳重警戒
2023-08-17 11:00:00,8月17日 11時時点,12266,31.5,44.11833333333333,142.595,朝日,危険
2023-08-17 11:00:00,8月17日 11時時点,12301,30.0,44.028333333333336,142.41,和寒,厳重警戒
2023-08-17 11:00:00,8月17日 11時時点,12386,28.1,43.87,142.26,江丹別,厳重警戒
2023-08-17 11:00:00,8月17日 11時時点,12396,27.3,43.87,142.47,比布,警戒
2023-08-17 11:00:00,8月17日 11時時点,12411,30.8,43.846666666666664,142.75333333333333,上川,厳重警戒
2023-08-17 11:00:00,8月17日 11時時点,12442,27.6,43.75666666666667,142.37166666666667,旭川,警戒
2023-08-17 11:00:00,8月17日 11時時点,12451,29.6,43.70166666666667,142.50833333333333,東川,厳重警戒
2023-08-17 11:00:00,8月17日 11時時点,12512,30.9,43.64333333333333,142.58166666666668,志比内,厳重警戒
2023-08-17 11:00:00,8月17日 11時時点,12551,29.9,43.58833333333333,142.49333333333334,美瑛,厳重警戒
2023-08-17 11:00:00,8月17日 11時時点,12596,30.8,43.455,142.465,上富良野,厳重警戒
2023-08-17 11:00:00,8月17日 11時時点,12626,30.1,43.333333333333336,142.4,富良野,厳重警戒
2023-08-17 11:00:00,8月17日 11時時点,12632,28.0,43.30166666666667,142.52166666666668,麓郷,厳重警戒
2023-08-17 11:00:00,8月17日 11時時点,12691,26.4,43.16833333333334,142.56833333333333,幾寅,警戒
2023-08-17 11:00:00,8月17日 11時時点,12746,26.0,42.97833333333333,142.395,占冠,警戒
2023-08-17 11:00:00,8月17日 11時時点,15041,28.9,44.281666666666666,142.16166666666666,朱鞠内,厳重警戒
2023-08-17 11:00:00,8月17日 11時時点,15076,26.5,44.01,142.16,幌加内,警戒
2023-08-17 11:00:00,8月17日 11時時点,13061,30.8,44.89333333333333,141.76166666666666,天塩,厳重警戒
2023-08-17 11:00:00,8月17日 11時時点,13086,30.9,44.718333333333334,141.80666666666667,遠別,厳重警戒
2023-08-17 11:00:00,8月17日 11時時点,13121,29.6,44.52333333333333,141.77,初山別,厳重警戒
2023-08-17 11:00:00,8月17日 11時時点,13146,27.2,44.428333333333335,141.42166666666665,焼尻,警戒
2023-08-17 11:00:00,8月17日 11時時点,13181,29.7,44.36333333333334,141.7,羽幌,厳重警戒
2023-08-17 11:00:00,8月17日 11時時点,13261,29.8,44.04833333333333,141.85666666666665,達布,厳重警戒
2023-08-17 11:00:00,8月17日 11時時点,13277,28.7,43.945,141.63166666666666,留萌,厳重警戒
2023-08-17 11:00:00,8月17日 11時時点,13311,26.7,43.848333333333336,141.51,増毛,警戒
2023-08-17 11:00:00,8月17日 11時時点,13321,26.0,43.85333333333333,141.76,幌糠,警戒
2023-08-17 11:00:00,8月17日 11時時点,14026,29.6,43.58166666666666,141.38666666666666,浜益,厳重警戒
2023-08-17 11:00:00,8月17日 11時時点,14071,29.1,43.39666666666667,141.43666666666667,厚田,厳重警戒
2023-08-17 11:00:00,8月17日 11時時点,14101,28.9,43.22,141.645,新篠津,厳重警戒
2023-08-17 11:00:00,8月17日 11時時点,14116,27.8,43.14833333333333,141.22166666666666,山口,警戒
2023-08-17 11:00:00,8月17日 11時時点,14121,27.1,43.193333333333335,141.37,石狩,警戒
2023-08-17 11:00:00,8月17日 11時時点,14136,28.4,43.11,141.60166666666666,江別,厳重警戒
2023-08-17 11:00:00,8月17日 11時時点,14163,28.4,43.06,141.32833333333335,札幌,厳重警戒
2023-08-17 11:00:00,8月17日 11時時点,14206,25.5,42.92666666666667,141.565,恵庭島松,警戒
2023-08-17 11:00:00,8月17日 11時時点,14286,24.6,42.77166666666667,141.40666666666667,支笏湖畔,注意
2023-08-17 11:00:00,8月17日 11時時点,15116,29.0,43.815,141.92666666666668,石狩沼田,厳重警戒
2023-08-17 11:00:00,8月17日 11時時点,15156,29.0,43.78,141.96166666666667,秩父別,厳重警戒
2023-08-17 11:00:00,8月17日 11時時点,15161,27.7,43.718333333333334,142.07333333333332,深川,警戒
2023-08-17 11:00:00,8月17日 11時時点,15231,28.4,43.595,141.73166666666665,空知吉野,厳重警戒
2023-08-17 11:00:00,8月17日 11時時点,15241,27.0,43.57,141.93833333333333,滝川,警戒
2023-08-17 11:00:00,8月17日 11時時点,15251,31.3,43.52,142.19,芦別,危険
2023-08-17 11:00:00,8月17日 11時時点,15311,29.4,43.33,141.61666666666667,月形,厳重警戒
2023-08-17 11:00:00,8月17日 11時時点,15321,29.5,43.36333333333334,141.82666666666665,美唄,厳重警戒
2023-08-17 11:00:00,8月17日 11時時点,15356,28.8,43.211666666666666,141.785,岩見沢,厳重警戒
2023-08-17 11:00:00,8月17日 11時時点,15431,27.3,43.01166666666666,141.69333333333333,長沼,警戒
2023-08-17 11:00:00,8月17日 11時時点,15442,26.2,43.038333333333334,141.95666666666668,夕張,警戒
2023-08-17 11:00:00,8月17日 11時時点,16026,29.5,43.27166666666667,140.56333333333333,美国,厳重警戒
2023-08-17 11:00:00,8月17日 11時時点,16061,25.9,43.145,140.42333333333335,神恵内,警戒
2023-08-17 11:00:00,8月17日 11時時点,16076,28.0,43.181666666666665,140.75833333333333,余市,厳重警戒
2023-08-17 11:00:00,8月17日 11時時点,16091,26.5,43.181666666666665,141.015,小樽,警戒
2023-08-17 11:00:00,8月17日 11時時点,16156,30.5,42.98,140.60333333333332,共和,厳重警戒
2023-08-17 11:00:00,8月17日 11時時点,16206,26.1,42.81,140.54166666666666,蘭越,警戒
2023-08-17 11:00:00,8月17日 11時時点,16217,27.4,42.9,140.75666666666666,倶知安,警戒
2023-08-17 11:00:00,8月17日 11時時点,16252,24.2,42.795,140.22333333333333,寿都,注意
2023-08-17 11:00:00,8月17日 11時時点,16281,23.1,42.775,140.88,真狩,注意
2023-08-17 11:00:00,8月17日 11時時点,16286,24.6,42.79333333333334,140.94833333333332,喜茂別,注意
2023-08-17 11:00:00,8月17日 11時時点,16321,23.6,42.663333333333334,140.31,黒松内,注意
2023-08-17 11:00:00,8月17日 11時時点,17036,25.9,44.58,142.96333333333334,雄武,警戒
2023-08-17 11:00:00,8月17日 11時時点,17076,30.5,44.47,143.10833333333332,興部,厳重警戒
2023-08-17 11:00:00,8月17日 11時時点,17091,32.4,44.33166666666666,142.935,西興部,危険
2023-08-17 11:00:00,8月17日 11時時点,17112,29.4,44.345,143.355,紋別,厳重警戒
2023-08-17 11:00:00,8月17日 11時時点,17166,28.3,44.21333333333333,143.61833333333334,湧別,厳重警戒
2023-08-17 11:00:00,8月17日 11時時点,17196,32.0,44.17666666666667,143.06166666666667,滝上,危険
2023-08-17 11:00:00,8月17日 11時時点,17246,30.0,44.115,144.03666666666666,常呂,厳重警戒
2023-08-17 11:00:00,8月17日 11時時点,17306,28.5,44.053333333333335,143.54,遠軽,厳重警戒
2023-08-17 11:00:00,8月17日 11時時点,17316,29.6,44.01833333333333,143.76,佐呂間,厳重警戒
2023-08-17 11:00:00,8月17日 11時時点,17341,28.5,44.016666666666666,144.27833333333334,網走,厳重警戒
2023-08-17 11:00:00,8月17日 11時時点,17351,26.7,44.05166666666667,144.98166666666665,宇登呂,警戒
2023-08-17 11:00:00,8月17日 11時時点,17482,30.9,43.865,143.15333333333334,白滝,厳重警戒
2023-08-17 11:00:00,8月17日 11時時点,17501,26.7,43.916666666666664,143.53166666666667,生田原,警戒
2023-08-17 11:00:00,8月17日 11時時点,17521,29.0,43.776666666666664,143.84166666666667,北見,厳重警戒
2023-08-17 11:00:00,8月17日 11時時点,17546,26.5,43.84166666666667,144.485,小清水,警戒
2023-08-17 11:00:00,8月17日 11時時点,17561,27.3,43.885,144.7,斜里,警戒
2023-08-17 11:00:00,8月17日 11時時点,17596,29.7,43.74166666666667,143.45,留辺蘂,厳重警戒
2023-08-17 11:00:00,8月17日 11時時点,17607,26.0,43.70666666666666,143.64333333333335,境野,警戒
2023-08-17 11:00:00,8月17日 11時時点,17631,30.5,43.77,144.17166666666665,美幌,厳重警戒
2023-08-17 11:00:00,8月17日 11時時点,17717,30.1,43.70166666666667,144.03333333333333,津別,厳重警戒
2023-08-17 11:00:00,8月17日 11時時点,18038,23.3,44.02333333333333,145.18666666666667,羅臼,注意
2023-08-17 11:00:00,8月17日 11時時点,18136,26.2,43.66166666666667,145.13166666666666,標津,警戒
2023-08-17 11:00:00,8月17日 11時時点,18161,25.4,43.52,144.74666666666667,上標津,警戒
2023-08-17 11:00:00,8月17日 11時時点,18171,26.0,43.54333333333334,144.97833333333332,中標津,警戒
2023-08-17 11:00:00,8月17日 11時時点,18256,25.7,43.38166666666667,145.11833333333334,別海,警戒
2023-08-17 11:00:00,8月17日 11時時点,18273,24.0,43.33,145.585,根室,注意
2023-08-17 11:00:00,8月17日 11時時点,18281,25.3,43.39333333333333,145.75833333333333,納沙布,警戒
2023-08-17 11:00:00,8月17日 11時時点,18311,24.4,43.221666666666664,145.22666666666666,厚床,注意
2023-08-17 11:00:00,8月17日 11時時点,19021,23.9,43.61666666666667,144.45666666666668,川湯,注意
2023-08-17 11:00:00,8月17日 11時時点,19051,24.0,43.51,144.46666666666667,弟子屈,注意
2023-08-17 11:00:00,8月17日 11時時点,19076,23.2,43.43666666666667,144.08333333333334,阿寒湖畔,注意
2023-08-17 11:00:00,8月17日 11時時点,19151,25.8,43.291666666666664,144.58666666666667,標茶,警戒
2023-08-17 11:00:00,8月17日 11時時点,19191,24.8,43.23166666666667,144.325,鶴居,注意
2023-08-17 11:00:00,8月17日 11時時点,19261,24.3,43.19833333333333,144.14166666666668,中徹別,注意
2023-08-17 11:00:00,8月17日 11時時点,19311,24.5,43.12,145.11,榊町,注意
2023-08-17 11:00:00,8月17日 11時時点,19376,23.6,43.09,144.77833333333334,太田,注意
2023-08-17 11:00:00,8月17日 11時時点,19416,23.1,42.97,144.06166666666667,白糠,注意
2023-08-17 11:00:00,8月17日 11時時点,19432,23.5,42.985,144.37666666666667,釧路,注意
2023-08-17 11:00:00,8月17日 11時時点,19451,22.7,42.93833333333333,144.735,知方学,注意
2023-08-17 11:00:00,8月17日 11時時点,20146,26.8,43.471666666666664,143.75333333333333,陸別,警戒
2023-08-17 11:00:00,8月17日 11時時点,20186,23.9,43.36666666666667,143.19166666666666,ぬかびら源泉郷,注意
2023-08-17 11:00:00,8月17日 11時時点,20266,25.7,43.24166666666667,143.295,上士幌,警戒
2023-08-17 11:00:00,8月17日 11時時点,20276,27.1,43.24333333333333,143.55333333333334,足寄,警戒
2023-08-17 11:00:00,8月17日 11時時点,20341,26.9,43.13166666666667,143.6,本別,警戒
2023-08-17 11:00:00,8月17日 11時時点,20356,24.7,43.07666666666667,142.84,新得,注意
2023-08-17 11:00:00,8月17日 11時時点,20361,25.8,43.10333333333333,142.995,鹿追,警戒
2023-08-17 11:00:00,8月17日 11時時点,20371,26.5,43.05,143.18333333333334,駒場,警戒
2023-08-17 11:00:00,8月17日 11時時点,20421,26.4,42.9,143.04333333333332,芽室,警戒
2023-08-17 11:00:00,8月17日 11時時点,20432,28.4,42.92166666666667,143.21166666666667,帯広,厳重警戒
2023-08-17 11:00:00,8月17日 11時時点,20441,26.0,42.92,143.45833333333334,池田,警戒
2023-08-17 11:00:00,8月17日 11時時点,20506,26.5,42.80833333333333,143.65666666666667,浦幌,警戒
2023-08-17 11:00:00,8月17日 11時時点,20556,30.9,42.78666666666667,143.32833333333335,糠内,厳重警戒
2023-08-17 11:00:00,8月17日 11時時点,20601,30.4,42.641666666666666,143.09666666666666,上札内,厳重警戒
2023-08-17 11:00:00,8月17日 11時時点,20606,27.0,42.651666666666664,143.195,更別,警戒
2023-08-17 11:00:00,8月17日 11時時点,20631,27.1,42.68666666666667,143.64666666666668,大津,警戒
2023-08-17 11:00:00,8月17日 11時時点,20696,26.4,42.5,143.27333333333334,大樹,警戒
2023-08-17 11:00:00,8月17日 11時時点,20751,26.0,42.29333333333334,143.31666666666666,広尾,警戒
2023-08-17 11:00:00,8月17日 11時時点,21111,27.9,42.73,141.88833333333332,厚真,警戒
2023-08-17 11:00:00,8月17日 11時時点,21126,28.4,42.76166666666667,142.14333333333335,穂別,厳重警戒
2023-08-17 11:00:00,8月17日 11時時点,21161,24.4,42.67,141.07833333333335,大滝,注意
2023-08-17 11:00:00,8月17日 11時時点,21171,24.8,42.63,141.24666666666667,森野,注意
2023-08-17 11:00:00,8月17日 11時時点,21187,27.4,42.623333333333335,141.54666666666665,苫小牧,警戒
2023-08-17 11:00:00,8月17日 11時時点,21226,26.0,42.59,140.64333333333335,大岸,警戒
2023-08-17 11:00:00,8月17日 11時時点,21261,27.5,42.54333333333334,141.35166666666666,白老,警戒
2023-08-17 11:00:00,8月17日 11時時点,21276,27.8,42.59,141.93333333333334,鵡川,警戒
2023-08-17 11:00:00,8月17日 11時時点,21297,26.8,42.475,140.84833333333333,伊達,警戒
2023-08-17 11:00:00,8月17日 11時時点,21312,28.7,42.458333333333336,141.11833333333334,登別,厳重警戒
2023-08-17 11:00:00,8月17日 11時時点,21323,25.9,42.31166666666667,140.975,室蘭,警戒
2023-08-17 11:00:00,8月17日 11時時点,22036,29.4,42.876666666666665,142.44166666666666,日高,厳重警戒
2023-08-17 11:00:00,8月17日 11時時点,22141,29.4,42.49666666666667,142.05333333333334,日高門別,厳重警戒
2023-08-17 11:00:00,8月17日 11時時点,22156,29.1,42.54333333333334,142.33333333333334,新和,厳重警戒
2023-08-17 11:00:00,8月17日 11時時点,22241,27.1,42.343333333333334,142.36166666666668,静内,警戒
2023-08-17 11:00:00,8月17日 11時時点,22291,26.7,42.245,142.66166666666666,三石,警戒
2023-08-17 11:00:00,8月17日 11時時点,22306,26.0,42.223333333333336,142.94833333333332,中杵臼,警戒
2023-08-17 11:00:00,8月17日 11時時点,22327,25.6,42.16166666666667,142.77666666666667,浦河,警戒
2023-08-17 11:00:00,8月17日 11時時点,22391,26.3,41.925,143.24333333333334,えりも岬,警戒
2023-08-17 11:00:00,8月17日 11時時点,23031,24.7,42.52333333333333,140.38166666666666,長万部,注意
2023-08-17 11:00:00,8月17日 11時時点,23086,24.2,42.251666666666665,140.27166666666668,八雲,注意
2023-08-17 11:00:00,8月17日 11時時点,23166,28.2,42.06666666666667,140.58833333333334,森,厳重警戒
2023-08-17 11:00:00,8月17日 11時時点,23206,28.6,41.905,140.97,川汲,厳重警戒
2023-08-17 11:00:00,8月17日 11時時点,23226,26.2,41.88666666666667,140.65333333333334,北斗,警戒
2023-08-17 11:00:00,8月17日 11時時点,23232,28.0,41.81666666666667,140.75333333333333,函館,厳重警戒
2023-08-17 11:00:00,8月17日 11時時点,23326,28.7,41.68,140.43666666666667,木古内,厳重警戒
2023-08-17 11:00:00,8月17日 11時時点,23376,24.6,41.42333333333333,140.08666666666667,松前,注意
2023-08-17 11:00:00,8月17日 11時時点,24141,23.1,42.12833333333333,139.985,熊石,注意
2023-08-17 11:00:00,8月17日 11時時点,24041,23.3,42.45,139.85166666666666,せたな,注意
2023-08-17 11:00:00,8月17日 11時時点,24051,23.1,42.428333333333335,140.00833333333333,今金,注意
2023-08-17 11:00:00,8月17日 11時時点,24101,24.3,42.248333333333335,139.55666666666667,奥尻,注意
2023-08-17 11:00:00,8月17日 11時時点,24201,23.8,41.93,140.31166666666667,鶉,注意
2023-08-17 11:00:00,8月17日 11時時点,24217,23.8,41.86666666666667,140.12333333333333,江差,注意
2023-08-17 11:00:00,8月17日 11時時点,31001,27.5,41.526666666666664,140.91166666666666,大間,警戒
2023-08-17 11:00:00,8月17日 11時時点,31111,28.3,41.28333333333333,141.21,むつ,厳重警戒
2023-08-17 11:00:00,8月17日 11時時点,31121,31.4,41.235,141.39666666666668,小田野沢,危険
2023-08-17 11:00:00,8月17日 11時時点,31136,28.9,41.18,140.48166666666665,今別,厳重警戒
2023-08-17 11:00:00,8月17日 11時時点,31156,25.5,41.145,140.82166666666666,脇野沢,警戒
2023-08-17 11:00:00,8月17日 11時時点,31186,28.7,41.056666666666665,140.34666666666666,市浦,厳重警戒
2023-08-17 11:00:00,8月17日 11時時点,31201,27.8,41.045,140.63333333333333,蟹田,警戒
2023-08-17 11:00:00,8月17日 11時時点,31296,30.3,40.80833333333333,140.45833333333334,五所川原,厳重警戒
2023-08-17 11:00:00,8月17日 11時時点,31312,30.2,40.821666666666665,140.76833333333335,青森,厳重警戒
2023-08-17 11:00:00,8月17日 11時時点,31332,29.6,40.885,141.16,野辺地,厳重警戒
2023-08-17 11:00:00,8月17日 11時時点,31336,28.6,40.885,141.27166666666668,六ケ所,厳重警戒
2023-08-17 11:00:00,8月17日 11時時点,31366,29.3,40.776666666666664,140.205,鰺ケ沢,厳重警戒
2023-08-17 11:00:00,8月17日 11時時点,31436,28.0,40.645,139.93166666666667,深浦,厳重警戒
2023-08-17 11:00:00,8月17日 11時時点,31461,29.8,40.611666666666665,140.455,弘前,厳重警戒
2023-08-17 11:00:00,8月17日 11時時点,31466,27.2,40.666666666666664,140.585,黒石,警戒
2023-08-17 11:00:00,8月17日 11時時点,31482,20.5,40.64833333333333,140.84833333333333,酸ケ湯,ほぼ安全
2023-08-17 11:00:00,8月17日 11時時点,31506,30.6,40.675,141.375,三沢,厳重警戒
2023-08-17 11:00:00,8月17日 11時時点,31586,24.8,40.60666666666667,141.23333333333332,十和田,注意
2023-08-17 11:00:00,8月17日 11時時点,31602,31.0,40.526666666666664,141.52166666666668,八戸,危険
2023-08-17 11:00:00,8月17日 11時時点,31646,27.7,40.48166666666667,140.62,碇ケ関,警戒
2023-08-17 11:00:00,8月17日 11時時点,31662,22.4,40.42666666666667,140.89833333333334,休屋,注意
2023-08-17 11:00:00,8月17日 11時時点,31721,30.4,40.38333333333333,141.25666666666666,三戸,厳重警戒
2023-08-17 11:00:00,8月17日 11時時点,32056,26.6,40.413333333333334,139.94833333333332,八森,警戒
2023-08-17 11:00:00,8月17日 11時時点,32111,30.1,40.19833333333333,140.03166666666667,能代,厳重警戒
2023-08-17 11:00:00,8月17日 11時時点,32126,28.9,40.22666666666667,140.37166666666667,鷹巣,厳重警戒
2023-08-17 11:00:00,8月17日 11時時点,32136,26.8,40.251666666666665,140.505,大館,警戒
2023-08-17 11:00:00,8月17日 11時時点,32146,26.5,40.215,140.78666666666666,鹿角,警戒
2023-08-17 11:00:00,8月17日 11時時点,32206,32.0,40.12,140.84,湯瀬,危険
2023-08-17 11:00:00,8月17日 11時時点,32266,25.7,40.013333333333335,140.80166666666668,八幡平,警戒
2023-08-17 11:00:00,8月17日 11時時点,32286,25.8,39.91166666666667,139.9,男鹿,警戒
2023-08-17 11:00:00,8月17日 11時時点,32287,28.1,40.0,139.95,大潟,厳重警戒
2023-08-17 11:00:00,8月17日 11時時点,32296,26.9,39.93833333333333,140.115,五城目,警戒
2023-08-17 11:00:00,8月17日 11時時点,32311,30.0,39.99333333333333,140.40333333333334,阿仁合,厳重警戒
2023-08-17 11:00:00,8月17日 11時時点,32402,30.9,39.71666666666667,140.09833333333333,秋田,厳重警戒
2023-08-17 11:00:00,8月17日 11時時点,32407,30.7,39.70666666666666,140.28666666666666,岩見三内,厳重警戒
2023-08-17 11:00:00,8月17日 11時時点,32466,26.4,39.60333333333333,140.55666666666667,角館,警戒
2023-08-17 11:00:00,8月17日 11時時点,32476,28.4,39.69833333333333,140.73166666666665,田沢湖,厳重警戒
2023-08-17 11:00:00,8月17日 11時時点,32496,31.1,39.526666666666664,140.23333333333332,大正寺,危険
2023-08-17 11:00:00,8月17日 11時時点,32551,27.3,39.49,140.495,大曲,警戒
2023-08-17 11:00:00,8月17日 11時時点,32571,30.1,39.36,140.055,本荘,厳重警戒
2023-08-17 11:00:00,8月17日 11時時点,32581,32.8,39.305,140.28833333333333,東由利,危険
2023-08-17 11:00:00,8月17日 11時時点,32596,32.3,39.32,140.555,横手,危険
2023-08-17 11:00:00,8月17日 11時時点,32616,28.7,39.255,139.91333333333333,にかほ,厳重警戒
2023-08-17 11:00:00,8月17日 11時時点,32626,28.4,39.235,140.13666666666666,矢島,厳重警戒
2023-08-17 11:00:00,8月17日 11時時点,32691,30.3,39.18666666666667,140.46333333333334,湯沢,厳重警戒
2023-08-17 11:00:00,8月17日 11時時点,32771,27.1,38.96,140.52833333333334,湯の岱,警戒
2023-08-17 11:00:00,8月17日 11時時点,33006,31.0,40.403333333333336,141.7,種市,危険
2023-08-17 11:00:00,8月17日 11時時点,33026,30.6,40.325,141.46666666666667,軽米,厳重警戒
2023-08-17 11:00:00,8月17日 11時時点,33071,30.5,40.29833333333333,141.29833333333335,二戸,厳重警戒
2023-08-17 11:00:00,8月17日 11時時点,33136,29.7,40.14833333333333,141.57166666666666,山形,厳重警戒
2023-08-17 11:00:00,8月17日 11時時点,33146,31.6,40.16833333333334,141.74833333333333,久慈,危険
2023-08-17 11:00:00,8月17日 11時時点,33166,28.6,40.10333333333333,141.05,荒屋,厳重警戒
2023-08-17 11:00:00,8月17日 11時時点,33176,27.8,40.06,141.225,奥中山,警戒
2023-08-17 11:00:00,8月17日 11時時点,33186,24.8,40.04,141.45666666666668,葛巻,注意
2023-08-17 11:00:00,8月17日 11時時点,33206,31.8,40.00333333333333,141.88333333333333,普代,危険
2023-08-17 11:00:00,8月17日 11時時点,33226,31.9,39.95166666666667,141.065,岩手松尾,危険
2023-08-17 11:00:00,8月17日 11時時点,33296,29.7,39.86833333333333,141.16666666666666,好摩,厳重警戒
2023-08-17 11:00:00,8月17日 11時時点,33326,31.4,39.846666666666664,141.795,岩泉,危険
2023-08-17 11:00:00,8月17日 11時時点,33336,32.2,39.846666666666664,141.96333333333334,小本,危険
2023-08-17 11:00:00,8月17日 11時時点,33371,24.7,39.78333333333333,141.32833333333335,薮川,注意
2023-08-17 11:00:00,8月17日 11時時点,33421,27.3,39.696666666666665,140.975,雫石,警戒
2023-08-17 11:00:00,8月17日 11時時点,33431,29.0,39.69833333333333,141.165,盛岡,厳重警戒
2023-08-17 11:00:00,8月17日 11時時点,33441,24.8,39.65,141.35333333333332,区界,注意
2023-08-17 11:00:00,8月17日 11時時点,33472,31.5,39.64666666666667,141.965,宮古,危険
2023-08-17 11:00:00,8月17日 11時時点,33486,28.4,39.54833333333333,140.84333333333333,沢内,厳重警戒
2023-08-17 11:00:00,8月17日 11時時点,33501,25.6,39.54666666666667,141.12666666666667,紫波,警戒
2023-08-17 11:00:00,8月17日 11時時点,33526,26.8,39.598333333333336,141.68166666666667,川井,警戒
2023-08-17 11:00:00,8月17日 11時時点,33581,29.6,39.47,141.27833333333334,大迫,厳重警戒
2023-08-17 11:00:00,8月17日 11時時点,33616,31.1,39.45,141.95666666666668,山田,危険
2023-08-17 11:00:00,8月17日 11時時点,33631,29.9,39.31,140.77666666666667,湯田,厳重警戒
2023-08-17 11:00:00,8月17日 11時時点,33671,28.8,39.33833333333333,141.54333333333332,遠野,厳重警戒
2023-08-17 11:00:00,8月17日 11時時点,33716,28.3,39.288333333333334,141.11,北上,厳重警戒
2023-08-17 11:00:00,8月17日 11時時点,33751,32.3,39.27,141.87833333333333,釜石,危険
2023-08-17 11:00:00,8月17日 11時時点,33776,30.5,39.14,141.06333333333333,若柳,厳重警戒
2023-08-17 11:00:00,8月17日 11時時点,33781,31.4,39.18333333333333,141.16166666666666,江刺,危険
2023-08-17 11:00:00,8月17日 11時時点,33801,31.5,39.141666666666666,141.57333333333332,住田,危険
2023-08-17 11:00:00,8月17日 11時時点,33877,30.5,39.06333333333333,141.71333333333334,大船渡,厳重警戒
2023-08-17 11:00:00,8月17日 11時時点,33911,31.8,38.93333333333333,141.125,一関,危険
2023-08-17 11:00:00,8月17日 11時時点,33921,30.9,38.92166666666667,141.33,千厩,厳重警戒
2023-08-17 11:00:00,8月17日 11時時点,34012,25.6,38.913333333333334,140.82833333333335,駒ノ湯,警戒
2023-08-17 11:00:00,8月17日 11時時点,34026,30.6,38.906666666666666,141.55666666666667,気仙沼,厳重警戒
2023-08-17 11:00:00,8月17日 11時時点,34096,30.7,38.74333333333333,140.76,川渡,厳重警戒
2023-08-17 11:00:00,8月17日 11時時点,34111,30.8,38.735,141.005,築館,厳重警戒
2023-08-17 11:00:00,8月17日 11時時点,34171,31.5,38.626666666666665,141.18833333333333,米山,危険
2023-08-17 11:00:00,8月17日 11時時点,34186,31.4,38.681666666666665,141.44833333333332,志津川,危険
2023-08-17 11:00:00,8月17日 11時時点,34216,31.1,38.598333333333336,140.91166666666666,古川,危険
2023-08-17 11:00:00,8月17日 11時時点,34266,31.8,38.473333333333336,140.88833333333332,大衡,危険
2023-08-17 11:00:00,8月17日 11時時点,34276,31.5,38.46,141.09166666666667,鹿島台,危険
2023-08-17 11:00:00,8月17日 11時時点,34292,30.6,38.42666666666667,141.29833333333335,石巻,厳重警戒
2023-08-17 11:00:00,8月17日 11時時点,34296,28.0,38.446666666666665,141.45,女川,厳重警戒
2023-08-17 11:00:00,8月17日 11時時点,34311,30.6,38.303333333333335,140.63666666666666,新川,厳重警戒
2023-08-17 11:00:00,8月17日 11時時点,34331,31.1,38.33833333333333,141.01333333333332,塩釜,危険
2023-08-17 11:00:00,8月17日 11時時点,34392,29.7,38.26166666666666,140.89666666666668,仙台,厳重警戒
2023-08-17 11:00:00,8月17日 11時時点,34461,33.5,38.015,140.61166666666668,白石,危険
2023-08-17 11:00:00,8月17日 11時時点,34462,32.7,38.126666666666665,140.68,蔵王,危険
2023-08-17 11:00:00,8月17日 11時時点,34471,29.6,38.025,140.85833333333332,亘理,厳重警戒
2023-08-17 11:00:00,8月17日 11時時点,34506,31.4,37.931666666666665,140.77833333333334,丸森,危険
2023-08-17 11:00:00,8月17日 11時時点,35002,31.0,39.18333333333333,139.54333333333332,飛島,危険
2023-08-17 11:00:00,8月17日 11時時点,35052,28.0,38.90833333333333,139.84333333333333,酒田,厳重警戒
2023-08-17 11:00:00,8月17日 11時時点,35071,30.0,38.91833333333334,140.2,差首鍋,厳重警戒
2023-08-17 11:00:00,8月17日 11時時点,35116,31.0,38.87833333333333,140.33166666666668,金山,危険
2023-08-17 11:00:00,8月17日 11時時点,35141,30.4,38.735,139.82833333333335,鶴岡,厳重警戒
2023-08-17 11:00:00,8月17日 11時時点,35146,30.9,38.8,139.97333333333333,狩川,厳重警戒
2023-08-17 11:00:00,8月17日 11時時点,35162,31.0,38.75666666666667,140.31166666666667,新庄,危険
2023-08-17 11:00:00,8月17日 11時時点,35176,30.5,38.75833333333333,140.51666666666668,向町,厳重警戒
2023-08-17 11:00:00,8月17日 11時時点,35216,24.6,38.60666666666667,140.16333333333333,肘折,注意
2023-08-17 11:00:00,8月17日 11時時点,35231,31.1,38.608333333333334,140.41166666666666,尾花沢,危険
2023-08-17 11:00:00,8月17日 11時時点,35246,31.8,38.56666666666667,139.55166666666668,鼠ケ関,危険
2023-08-17 11:00:00,8月17日 11時時点,35332,31.2,38.46,140.34833333333333,村山,危険
2023-08-17 11:00:00,8月17日 11時時点,35361,28.3,38.39,139.99333333333334,大井沢,厳重警戒
2023-08-17 11:00:00,8月17日 11時時点,35376,30.8,38.37,140.19166666666666,左沢,厳重警戒
2023-08-17 11:00:00,8月17日 11時時点,35426,30.7,38.255,140.345,山形,厳重警戒
2023-08-17 11:00:00,8月17日 11時時点,35456,29.9,38.105,140.015,長井,厳重警戒
2023-08-17 11:00:00,8月17日 11時時点,35486,31.6,38.07833333333333,139.735,小国,危険
2023-08-17 11:00:00,8月17日 11時時点,35511,31.4,38.00333333333333,140.20666666666668,高畠,危険
2023-08-17 11:00:00,8月17日 11時時点,35541,32.4,37.99,139.95333333333335,高峰,危険
2023-08-17 11:00:00,8月17日 11時時点,35552,31.0,37.91166666666667,140.14333333333335,米沢,危険
2023-08-17 11:00:00,8月17日 11時時点,36056,30.8,37.891666666666666,140.43666666666667,茂庭,厳重警戒
2023-08-17 11:00:00,8月17日 11時時点,36066,31.7,37.85166666666667,140.58833333333334,梁川,危険
2023-08-17 11:00:00,8月17日 11時時点,36106,27.9,37.721666666666664,140.05833333333334,桧原,警戒
2023-08-17 11:00:00,8月17日 11時時点,36127,31.0,37.75833333333333,140.47,福島,危険
2023-08-17 11:00:00,8月17日 11時時点,36151,30.9,37.78333333333333,140.925,相馬,厳重警戒
2023-08-17 11:00:00,8月17日 11時時点,36176,30.6,37.65833333333333,139.86333333333334,喜多方,厳重警戒
2023-08-17 11:00:00,8月17日 11時時点,36196,24.6,37.66833333333334,140.26,鷲倉,注意
2023-08-17 11:00:00,8月17日 11時時点,36221,26.9,37.665,140.72666666666666,飯舘,警戒
2023-08-17 11:00:00,8月17日 11時時点,36251,31.0,37.58833333333333,139.65666666666667,西会津,危険
2023-08-17 11:00:00,8月17日 11時時点,36276,30.5,37.55166666666667,140.10833333333332,猪苗代,厳重警戒
2023-08-17 11:00:00,8月17日 11時時点,36291,32.1,37.583333333333336,140.43,二本松,危険
2023-08-17 11:00:00,8月17日 11時時点,36342,30.4,37.473333333333336,139.52833333333334,金山,厳重警戒
2023-08-17 11:00:00,8月17日 11時時点,36361,30.9,37.48833333333334,139.91,若松,厳重警戒
2023-08-17 11:00:00,8月17日 11時時点,36391,32.8,37.435,140.57666666666665,船引,危険
2023-08-17 11:00:00,8月17日 11時時点,36411,31.6,37.49166666666667,140.965,浪江,危険
2023-08-17 11:00:00,8月17日 11時時点,36426,30.1,37.343333333333334,139.31333333333333,只見,厳重警戒
2023-08-17 11:00:00,8月17日 11時時点,36476,31.0,37.36833333333333,140.33,郡山,危険
2023-08-17 11:00:00,8月17日 11時時点,36501,31.6,37.336666666666666,140.80833333333334,川内,危険
2023-08-17 11:00:00,8月17日 11時時点,36536,29.9,37.265,139.53666666666666,南郷,厳重警戒
2023-08-17 11:00:00,8月17日 11時時点,36562,28.9,37.276666666666664,140.06333333333333,湯本,厳重警戒
2023-08-17 11:00:00,8月17日 11時時点,36591,28.8,37.28666666666667,140.625,小野新町,厳重警戒
2023-08-17 11:00:00,8月17日 11時時点,36611,29.9,37.233333333333334,141.0,広野,厳重警戒
2023-08-17 11:00:00,8月17日 11時時点,36641,30.2,37.20666666666666,139.795,田島,厳重警戒
2023-08-17 11:00:00,8月17日 11時時点,36667,30.4,37.13166666666667,140.215,白河,厳重警戒
2023-08-17 11:00:00,8月17日 11時時点,36676,31.6,37.14666666666667,140.46,石川,危険
2023-08-17 11:00:00,8月17日 11時時点,36716,27.3,37.01,139.375,桧枝岐,警戒
2023-08-17 11:00:00,8月17日 11時時点,36821,32.0,36.93833333333333,140.40833333333333,東白川,危険
2023-08-17 11:00:00,8月17日 11時時点,36836,30.1,36.93333333333333,140.73333333333332,山田,厳重警戒
2023-08-17 11:00:00,8月17日 11時時点,36846,30.9,36.946666666666665,140.90333333333334,小名浜,厳重警戒
2023-08-17 11:00:00,8月17日 11時時点,40046,32.1,36.833333333333336,140.77166666666668,北茨城,危険
2023-08-17 11:00:00,8月17日 11時時点,40061,32.2,36.778333333333336,140.345,大子,危険
2023-08-17 11:00:00,8月17日 11時時点,40091,29.5,36.60666666666667,140.325,常陸大宮,厳重警戒
2023-08-17 11:00:00,8月17日 11時時点,40136,30.5,36.58,140.645,日立,厳重警戒
2023-08-17 11:00:00,8月17日 11時時点,40191,29.3,36.395,140.24,笠間,厳重警戒
2023-08-17 11:00:00,8月17日 11時時点,40201,30.3,36.38,140.46666666666667,水戸,厳重警戒
2023-08-17 11:00:00,8月17日 11時時点,40221,31.7,36.20166666666667,139.71666666666667,古河,危険
2023-08-17 11:00:00,8月17日 11時時点,40231,31.6,36.281666666666666,139.98833333333334,下館,危険
2023-08-17 11:00:00,8月17日 11時時点,40281,28.9,36.16833333333334,139.945,下妻,厳重警戒
2023-08-17 11:00:00,8月17日 11時時点,40311,32.2,36.16833333333334,140.52666666666667,鉾田,危険
2023-08-17 11:00:00,8月17日 11時時点,40336,32.1,36.056666666666665,140.125,つくば,危険
2023-08-17 11:00:00,8月17日 11時時点,40341,30.6,36.10333333333333,140.22,土浦,厳重警戒
2023-08-17 11:00:00,8月17日 11時時点,40406,32.3,35.96333333333333,140.62166666666667,鹿嶋,危険
2023-08-17 11:00:00,8月17日 11時時点,40426,33.2,35.89,140.21166666666667,龍ケ崎,危険
2023-08-17 11:00:00,8月17日 11時時点,41011,29.5,37.123333333333335,140.035,那須高原,厳重警戒
2023-08-17 11:00:00,8月17日 11時時点,41076,29.8,36.92166666666667,139.695,五十里,厳重警戒
2023-08-17 11:00:00,8月17日 11時時点,41091,29.9,36.98166666666667,140.01833333333335,黒磯,厳重警戒
2023-08-17 11:00:00,8月17日 11時時点,41116,27.8,36.891666666666666,139.56833333333333,土呂部,警戒
2023-08-17 11:00:00,8月17日 11時時点,41141,33.7,36.84,140.035,大田原,危険
2023-08-17 11:00:00,8月17日 11時時点,41166,24.9,36.73833333333333,139.5,奥日光,注意
2023-08-17 11:00:00,8月17日 11時時点,41172,29.4,36.75,139.615,日光東町,厳重警戒
2023-08-17 11:00:00,8月17日 11時時点,41181,31.6,36.75666666666667,139.88333333333333,塩谷,危険
2023-08-17 11:00:00,8月17日 11時時点,41247,31.7,36.641666666666666,140.11666666666667,那須烏山,危険
2023-08-17 11:00:00,8月17日 11時時点,41271,31.3,36.59166666666667,139.735,鹿沼,危険
2023-08-17 11:00:00,8月17日 11時時点,41277,28.7,36.54833333333333,139.86833333333334,宇都宮,厳重警戒
2023-08-17 11:00:00,8月17日 11時時点,41331,30.1,36.47666666666667,139.98666666666668,真岡,厳重警戒
2023-08-17 11:00:00,8月17日 11時時点,41361,33.2,36.36333333333334,139.57,佐野,危険
2023-08-17 11:00:00,8月17日 11時時点,41376,29.1,36.33833333333333,139.83,小山,厳重警戒
2023-08-17 11:00:00,8月17日 11時時点,42046,29.2,36.86333333333333,139.05833333333334,藤原,厳重警戒
2023-08-17 11:00:00,8月17日 11時時点,42091,29.0,36.77333333333333,138.965,みなかみ,厳重警戒
2023-08-17 11:00:00,8月17日 11時時点,42121,24.8,36.61666666666667,138.59166666666667,草津,注意
2023-08-17 11:00:00,8月17日 11時時点,42146,30.9,36.66833333333334,139.02166666666668,沼田,厳重警戒
2023-08-17 11:00:00,8月17日 11時時点,42186,30.6,36.586666666666666,138.85,中之条,厳重警戒
2023-08-17 11:00:00,8月17日 11時時点,42221,22.4,36.46333333333333,138.46333333333334,田代,注意
2023-08-17 11:00:00,8月17日 11時時点,42251,31.2,36.405,139.06,前橋,危険
2023-08-17 11:00:00,8月17日 11時時点,42266,31.9,36.41,139.325,桐生,危険
2023-08-17 11:00:00,8月17日 11時時点,42286,31.6,36.376666666666665,138.895,上里見,危険
2023-08-17 11:00:00,8月17日 11時時点,42302,31.4,36.33166666666666,139.165,伊勢崎,危険
2023-08-17 11:00:00,8月17日 11時時点,42326,30.4,36.245,138.70666666666668,西野牧,厳重警戒
2023-08-17 11:00:00,8月17日 11時時点,42366,31.2,36.24,139.51333333333332,館林,危険
2023-08-17 11:00:00,8月17日 11時時点,42396,30.5,36.108333333333334,138.89666666666668,神流,厳重警戒
2023-08-17 11:00:00,8月17日 11時時点,43051,31.0,36.105,139.18333333333334,寄居,危険
2023-08-17 11:00:00,8月17日 11時時点,43056,30.0,36.15,139.38,熊谷,厳重警戒
2023-08-17 11:00:00,8月17日 11時時点,43126,30.0,36.086666666666666,139.635,久喜,厳重警戒
2023-08-17 11:00:00,8月17日 11時時点,43156,30.8,35.99,139.07333333333332,秩父,厳重警戒
2023-08-17 11:00:00,8月17日 11時時点,43171,32.4,35.985,139.335,鳩山,危険
2023-08-17 11:00:00,8月17日 11時時点,43241,31.5,35.875,139.58666666666667,さいたま,危険
2023-08-17 11:00:00,8月17日 11時時点,43256,32.3,35.88333333333333,139.75666666666666,越谷,危険
2023-08-17 11:00:00,8月17日 11時時点,43266,31.5,35.77333333333333,139.41333333333333,所沢,危険
2023-08-17 11:00:00,8月17日 11時時点,44046,29.6,35.791666666666664,139.05,小河内,厳重警戒
2023-08-17 11:00:00,8月17日 11時時点,44056,32.0,35.788333333333334,139.31166666666667,青梅,危険
2023-08-17 11:00:00,8月17日 11時時点,44071,32.0,35.73833333333333,139.59166666666667,練馬,危険
2023-08-17 11:00:00,8月17日 11時時点,44112,33.2,35.666666666666664,139.31666666666666,八王子,危険
2023-08-17 11:00:00,8月17日 11時時点,44116,31.7,35.68333333333333,139.48333333333332,府中,危険
2023-08-17 11:00:00,8月17日 11時時点,44132,33.0,35.69166666666667,139.75,東京,危険
2023-08-17 11:00:00,8月17日 11時時点,44136,29.5,35.638333333333335,139.86333333333334,江戸川臨海,厳重警戒
2023-08-17 11:00:00,8月17日 11時時点,44172,31.3,34.748333333333335,139.36166666666668,大島,危険
2023-08-17 11:00:00,8月17日 11時時点,44226,31.2,34.123333333333335,139.52,三宅島,危険
2023-08-17 11:00:00,8月17日 11時時点,44263,30.3,33.12166666666667,139.77833333333334,八丈島,厳重警戒
2023-08-17 11:00:00,8月17日 11時時点,44301,30.9,27.091666666666665,142.19,父島,厳重警戒
2023-08-17 11:00:00,8月17日 11時時点,45061,32.2,35.86333333333333,140.11,我孫子,危険
2023-08-17 11:00:00,8月17日 11時時点,45081,31.8,35.858333333333334,140.50166666666667,香取,危険
2023-08-17 11:00:00,8月17日 11時時点,45106,31.6,35.711666666666666,140.04333333333332,船橋,危険
2023-08-17 11:00:00,8月17日 11時時点,45116,33.9,35.72833333333333,140.21166666666667,佐倉,危険
2023-08-17 11:00:00,8月17日 11時時点,45147,31.3,35.73833333333333,140.85666666666665,銚子,危険
2023-08-17 11:00:00,8月17日 11時時点,45181,31.8,35.655,140.505,横芝光,危険
2023-08-17 11:00:00,8月17日 11時時点,45212,31.3,35.60166666666667,140.10333333333332,千葉,危険
2023-08-17 11:00:00,8月17日 11時時点,45261,31.6,35.43666666666667,140.29333333333332,茂原,危険
2023-08-17 11:00:00,8月17日 11時時点,45282,30.9,35.361666666666665,139.94,木更津,厳重警戒
2023-08-17 11:00:00,8月17日 11時時点,45291,31.3,35.39666666666667,140.14833333333334,牛久,危険
2023-08-17 11:00:00,8月17日 11時時点,45326,31.6,35.235,140.09833333333333,坂畑,危険
2023-08-17 11:00:00,8月17日 11時時点,45361,33.2,35.111666666666665,140.1,鴨川,危険
2023-08-17 11:00:00,8月17日 11時時点,45371,31.4,35.15,140.31166666666667,勝浦,危険
2023-08-17 11:00:00,8月17日 11時時点,45401,31.6,34.986666666666665,139.865,館山,危険
2023-08-17 11:00:00,8月17日 11時時点,46091,33.0,35.43333333333333,139.38666666666666,海老名,危険
2023-08-17 11:00:00,8月17日 11時時点,46106,30.9,35.43833333333333,139.65166666666667,横浜,厳重警戒
2023-08-17 11:00:00,8月17日 11時時点,46141,32.2,35.32,139.45,辻堂,危険
2023-08-17 11:00:00,8月17日 11時時点,46166,33.2,35.276666666666664,139.155,小田原,危険
2023-08-17 11:00:00,8月17日 11時時点,46211,31.1,35.178333333333335,139.63,三浦,危険
2023-08-17 11:00:00,8月17日 11時時点,48031,27.3,36.91166666666667,138.44166666666666,野沢温泉,警戒
2023-08-17 11:00:00,8月17日 11時時点,48061,28.5,36.80833333333333,138.19666666666666,信濃町,厳重警戒
2023-08-17 11:00:00,8月17日 11時時点,48066,30.8,36.875,138.375,飯山,厳重警戒
2023-08-17 11:00:00,8月17日 11時時点,48141,27.5,36.69833333333333,137.86166666666668,白馬,警戒
2023-08-17 11:00:00,8月17日 11時時点,48156,30.2,36.66166666666667,138.19166666666666,長野,厳重警戒
2023-08-17 11:00:00,8月17日 11時時点,48191,26.4,36.52333333333333,137.83166666666668,大町,警戒
2023-08-17 11:00:00,8月17日 11時時点,48196,28.7,36.54833333333333,137.99666666666667,信州新町,厳重警戒
2023-08-17 11:00:00,8月17日 11時時点,48216,24.1,36.531666666666666,138.325,菅平,注意
2023-08-17 11:00:00,8月17日 11時時点,48256,29.8,36.4,138.265,上田,厳重警戒
2023-08-17 11:00:00,8月17日 11時時点,48296,25.9,36.343333333333334,137.88166666666666,穂高,警戒
2023-08-17 11:00:00,8月17日 11時時点,48321,25.1,36.38333333333333,138.38333333333333,東御,警戒
2023-08-17 11:00:00,8月17日 11時時点,48331,26.7,36.34166666666667,138.54666666666665,軽井沢,警戒
2023-08-17 11:00:00,8月17日 11時時点,48361,28.6,36.24666666666667,137.97,松本,厳重警戒
2023-08-17 11:00:00,8月17日 11時時点,48381,27.9,36.27166666666667,138.31333333333333,立科,警戒
2023-08-17 11:00:00,8月17日 11時時点,48386,29.4,36.24666666666667,138.47666666666666,佐久,厳重警戒
2023-08-17 11:00:00,8月17日 11時時点,48466,25.4,36.08833333333333,137.68333333333334,奈川,警戒
2023-08-17 11:00:00,8月17日 11時時点,48491,27.5,36.045,138.10833333333332,諏訪,警戒
2023-08-17 11:00:00,8月17日 11時時点,48531,24.5,35.93833333333333,137.60166666666666,開田高原,注意
2023-08-17 11:00:00,8月17日 11時時点,48536,25.1,35.93666666666667,137.78666666666666,木祖薮原,警戒
2023-08-17 11:00:00,8月17日 11時時点,48546,26.8,35.983333333333334,137.98333333333332,辰野,警戒
2023-08-17 11:00:00,8月17日 11時時点,48561,24.5,35.97,138.22,原村,注意
2023-08-17 11:00:00,8月17日 11時時点,48571,24.1,35.94833333333333,138.47166666666666,野辺山,注意
2023-08-17 11:00:00,8月17日 11時時点,48606,25.9,35.84,137.68833333333333,木曽福島,警戒
2023-08-17 11:00:00,8月17日 11時時点,48621,28.7,35.825,137.955,伊那,厳重警戒
2023-08-17 11:00:00,8月17日 11時時点,48717,25.6,35.61,137.62,南木曽,警戒
2023-08-17 11:00:00,8月17日 11時時点,48731,27.3,35.653333333333336,137.89833333333334,飯島,警戒
2023-08-17 11:00:00,8月17日 11時時点,48767,27.3,35.52333333333333,137.82166666666666,飯田,警戒
2023-08-17 11:00:00,8月17日 11時時点,48826,22.9,35.373333333333335,137.69166666666666,浪合,注意
2023-08-17 11:00:00,8月17日 11時時点,48841,24.1,35.321666666666665,137.93166666666667,南信濃,注意
2023-08-17 11:00:00,8月17日 11時時点,49036,27.5,35.861666666666665,138.38666666666666,大泉,警戒
2023-08-17 11:00:00,8月17日 11時時点,49086,29.7,35.693333333333335,138.44833333333332,韮崎,厳重警戒
2023-08-17 11:00:00,8月17日 11時時点,49142,30.3,35.666666666666664,138.55333333333334,甲府,厳重警戒
2023-08-17 11:00:00,8月17日 11時時点,49151,27.1,35.663333333333334,138.725,勝沼,警戒
2023-08-17 11:00:00,8月17日 11時時点,49161,30.9,35.608333333333334,138.93833333333333,大月,厳重警戒
2023-08-17 11:00:00,8月17日 11時時点,49196,25.9,35.528333333333336,138.615,古関,警戒
2023-08-17 11:00:00,8月17日 11時時点,49236,27.3,35.46666666666667,138.44166666666666,切石,警戒
2023-08-17 11:00:00,8月17日 11時時点,49251,25.4,35.5,138.76,河口湖,警戒
2023-08-17 11:00:00,8月17日 11時時点,49256,26.7,35.43666666666667,138.83666666666667,山中,警戒
2023-08-17 11:00:00,8月17日 11時時点,49316,29.7,35.288333333333334,138.445,南部,厳重警戒
2023-08-17 11:00:00,8月17日 11時時点,50106,25.1,35.21666666666667,138.22166666666666,井川,警戒
2023-08-17 11:00:00,8月17日 11時時点,50136,28.8,35.305,138.92666666666668,御殿場,厳重警戒
2023-08-17 11:00:00,8月17日 11時時点,50196,29.1,35.185,138.66333333333333,富士,厳重警戒
2023-08-17 11:00:00,8月17日 11時時点,50206,30.6,35.11333333333334,138.925,三島,厳重警戒
2023-08-17 11:00:00,8月17日 11時時点,50226,29.9,35.056666666666665,137.76166666666666,佐久間,厳重警戒
2023-08-17 11:00:00,8月17日 11時時点,50241,28.9,35.10166666666667,138.12833333333333,川根本町,厳重警戒
2023-08-17 11:00:00,8月17日 11時時点,50261,28.4,35.053333333333335,138.52166666666668,清水,厳重警戒
2023-08-17 11:00:00,8月17日 11時時点,50281,30.5,35.045,139.09166666666667,網代,厳重警戒
2023-08-17 11:00:00,8月17日 11時時点,50331,31.3,34.975,138.40333333333334,静岡,危険
2023-08-17 11:00:00,8月17日 11時時点,50386,28.6,34.89,137.81333333333333,天竜,厳重警戒
2023-08-17 11:00:00,8月17日 11時時点,50456,30.7,34.75333333333333,137.71166666666667,浜松,厳重警戒
2023-08-17 11:00:00,8月17日 11時時点,50476,29.9,34.785,138.13833333333332,菊川牧之原,厳重警戒
2023-08-17 11:00:00,8月17日 11時時点,50491,32.0,34.755,138.78333333333333,松崎,危険
2023-08-17 11:00:00,8月17日 11時時点,50506,30.7,34.781666666666666,139.04833333333335,稲取,厳重警戒
2023-08-17 11:00:00,8月17日 11時時点,50536,30.5,34.69166666666667,137.88,磐田,厳重警戒
2023-08-17 11:00:00,8月17日 11時時点,50551,31.4,34.60333333333333,138.21333333333334,御前崎,危険
2023-08-17 11:00:00,8月17日 11時時点,50561,31.0,34.60333333333333,138.84166666666667,石廊崎,危険
2023-08-17 11:00:00,8月17日 11時時点,51031,30.5,35.21666666666667,136.69833333333332,愛西,厳重警戒
2023-08-17 11:00:00,8月17日 11時時点,51071,26.5,35.211666666666666,137.50666666666666,稲武,警戒
2023-08-17 11:00:00,8月17日 11時時点,51106,29.4,35.166666666666664,136.965,名古屋,厳重警戒
2023-08-17 11:00:00,8月17日 11時時点,51116,29.2,35.13166666666667,137.17666666666668,豊田,厳重警戒
2023-08-17 11:00:00,8月17日 11時時点,51216,30.7,34.995,136.94333333333333,大府,厳重警戒
2023-08-17 11:00:00,8月17日 11時時点,51226,28.2,34.91833333333334,137.19333333333333,岡崎,厳重警戒
2023-08-17 11:00:00,8月17日 11時時点,51247,28.4,34.906666666666666,137.51833333333335,新城,厳重警戒
2023-08-17 11:00:00,8月17日 11時時点,51281,30.4,34.845,137.21666666666667,蒲郡,厳重警戒
2023-08-17 11:00:00,8月17日 11時時点,51311,31.5,34.74,136.93833333333333,南知多,危険
2023-08-17 11:00:00,8月17日 11時時点,51331,31.9,34.75,137.34166666666667,豊橋,危険
2023-08-17 11:00:00,8月17日 11時時点,51346,30.8,34.62833333333333,137.09333333333333,伊良湖,厳重警戒
2023-08-17 11:00:00,8月17日 11時時点,52041,26.7,36.305,137.1,河合,警戒
2023-08-17 11:00:00,8月17日 11時時点,52051,30.4,36.321666666666665,137.30833333333334,神岡,厳重警戒
2023-08-17 11:00:00,8月17日 11時時点,52081,26.1,36.27333333333333,136.89666666666668,白川,警戒
2023-08-17 11:00:00,8月17日 11時時点,52111,25.1,36.248333333333335,137.50333333333333,栃尾,警戒
2023-08-17 11:00:00,8月17日 11時時点,52146,28.8,36.155,137.25333333333333,高山,厳重警戒
2023-08-17 11:00:00,8月17日 11時時点,52181,22.1,36.06,137.035,六厩,注意
2023-08-17 11:00:00,8月17日 11時時点,52196,24.8,36.015,137.38833333333332,宮之前,注意
2023-08-17 11:00:00,8月17日 11時時点,52221,24.8,35.92333333333333,136.83166666666668,長滝,注意
2023-08-17 11:00:00,8月17日 11時時点,52286,26.9,35.888333333333335,137.20666666666668,萩原,警戒
2023-08-17 11:00:00,8月17日 11時時点,52331,26.4,35.75666666666667,136.97833333333332,八幡,警戒
2023-08-17 11:00:00,8月17日 11時時点,52346,27.5,35.763333333333335,137.28833333333333,宮地,警戒
2023-08-17 11:00:00,8月17日 11時時点,52381,26.9,35.638333333333335,136.60166666666666,樽見,警戒
2023-08-17 11:00:00,8月17日 11時時点,52406,27.0,35.66166666666667,137.16,金山,警戒
2023-08-17 11:00:00,8月17日 11時時点,52461,27.5,35.555,136.91,美濃,警戒
2023-08-17 11:00:00,8月17日 11時時点,52482,28.2,35.598333333333336,137.31833333333333,黒川,厳重警戒
2023-08-17 11:00:00,8月17日 11時時点,52511,27.4,35.485,136.56666666666666,揖斐川,警戒
2023-08-17 11:00:00,8月17日 11時時点,52536,28.2,35.445,137.005,美濃加茂,厳重警戒
2023-08-17 11:00:00,8月17日 11時時点,52556,27.1,35.446666666666665,137.40333333333334,恵那,警戒
2023-08-17 11:00:00,8月17日 11時時点,52557,27.7,35.47666666666667,137.48666666666668,中津川,警戒
2023-08-17 11:00:00,8月17日 11時時点,52571,28.1,35.36333333333334,136.46666666666667,関ケ原,厳重警戒
2023-08-17 11:00:00,8月17日 11時時点,52581,29.8,35.346666666666664,136.62,大垣,厳重警戒
2023-08-17 11:00:00,8月17日 11時時点,52586,30.7,35.4,136.76166666666666,岐阜,厳重警戒
2023-08-17 11:00:00,8月17日 11時時点,52606,31.5,35.346666666666664,137.10833333333332,多治見,危険
2023-08-17 11:00:00,8月17日 11時時点,53041,31.3,35.05,136.69333333333333,桑名,危険
2023-08-17 11:00:00,8月17日 11時時点,53061,31.9,34.94,136.58,四日市,危険
2023-08-17 11:00:00,8月17日 11時時点,53091,30.8,34.87,136.45333333333335,亀山,厳重警戒
2023-08-17 11:00:00,8月17日 11時時点,53112,31.3,34.76166666666667,136.14166666666668,上野,危険
2023-08-17 11:00:00,8月17日 11時時点,53133,30.6,34.733333333333334,136.51833333333335,津,厳重警戒
2023-08-17 11:00:00,8月17日 11時時点,53196,30.8,34.528333333333336,136.665,小俣,厳重警戒
2023-08-17 11:00:00,8月17日 11時時点,53231,30.1,34.44833333333333,136.39,粥見,厳重警戒
2023-08-17 11:00:00,8月17日 11時時点,53257,31.3,34.48166666666667,136.825,鳥羽,危険
2023-08-17 11:00:00,8月17日 11時時点,53296,31.3,34.345,136.68166666666667,南伊勢,危険
2023-08-17 11:00:00,8月17日 11時時点,53326,29.8,34.208333333333336,136.32666666666665,紀伊長島,厳重警戒
2023-08-17 11:00:00,8月17日 11時時点,53378,31.5,34.068333333333335,136.19333333333333,尾鷲,危険
2023-08-17 11:00:00,8月17日 11時時点,53401,28.2,33.931666666666665,136.13833333333332,熊野新鹿,厳重警戒
2023-08-17 11:00:00,8月17日 11時時点,54012,31.4,38.465,139.25333333333333,粟島,危険
2023-08-17 11:00:00,8月17日 11時時点,54041,28.6,38.33,138.51166666666666,弾崎,厳重警戒
2023-08-17 11:00:00,8月17日 11時時点,54086,31.8,38.22666666666667,139.47833333333332,村上,危険
2023-08-17 11:00:00,8月17日 11時時点,54157,31.1,38.028333333333336,138.24,相川,危険
2023-08-17 11:00:00,8月17日 11時時点,54166,31.2,38.07333333333333,138.44,両津,危険
2023-08-17 11:00:00,8月17日 11時時点,54181,30.3,38.07666666666667,139.38833333333332,中条,厳重警戒
2023-08-17 11:00:00,8月17日 11時時点,54191,33.3,38.09166666666667,139.56333333333333,下関,危険
2023-08-17 11:00:00,8月17日 11時時点,54232,30.9,37.89333333333333,139.01833333333335,新潟,厳重警戒
2023-08-17 11:00:00,8月17日 11時時点,54271,32.5,37.84166666666667,138.31333333333333,羽茂,危険
2023-08-17 11:00:00,8月17日 11時時点,54296,32.0,37.791666666666664,139.08666666666667,新津,危険
2023-08-17 11:00:00,8月17日 11時時点,54341,31.5,37.76833333333333,138.91333333333333,巻,危険
2023-08-17 11:00:00,8月17日 11時時点,54387,32.2,37.64,138.76666666666668,寺泊,危険
2023-08-17 11:00:00,8月17日 11時時点,54396,30.8,37.64,138.955,三条,厳重警戒
2023-08-17 11:00:00,8月17日 11時時点,54421,32.1,37.67166666666667,139.44666666666666,津川,危険
2023-08-17 11:00:00,8月17日 11時時点,54501,31.8,37.45,138.82333333333332,長岡,危険
2023-08-17 11:00:00,8月17日 11時時点,54541,31.3,37.35166666666667,138.55333333333334,柏崎,危険
2023-08-17 11:00:00,8月17日 11時時点,54566,30.8,37.346666666666664,139.04333333333332,守門,厳重警戒
2023-08-17 11:00:00,8月17日 11時時点,54586,31.3,37.225,138.325,大潟,危険
2023-08-17 11:00:00,8月17日 11時時点,54616,31.8,37.22666666666667,138.96333333333334,小出,危険
2023-08-17 11:00:00,8月17日 11時時点,54651,31.7,37.10666666666667,138.24666666666667,高田,危険
2023-08-17 11:00:00,8月17日 11時時点,54661,31.0,37.10666666666667,138.45666666666668,安塚,危険
2023-08-17 11:00:00,8月17日 11時時点,54676,32.1,37.14333333333333,138.72666666666666,十日町,危険
2023-08-17 11:00:00,8月17日 11時時点,54711,30.1,37.04333333333334,137.875,糸魚川,厳重警戒
2023-08-17 11:00:00,8月17日 11時時点,54721,28.9,37.083333333333336,138.02333333333334,能生,厳重警戒
2023-08-17 11:00:00,8月17日 11時時点,54816,29.1,36.93333333333333,138.22166666666666,関山,厳重警戒
2023-08-17 11:00:00,8月17日 11時時点,54836,29.7,36.99666666666667,138.68333333333334,津南,厳重警戒
2023-08-17 11:00:00,8月17日 11時時点,54841,31.0,36.94166666666667,138.81,湯沢,危険
2023-08-17 11:00:00,8月17日 11時時点,55022,31.4,36.93666666666667,137.56333333333333,朝日,危険
2023-08-17 11:00:00,8月17日 11時時点,55041,30.2,36.86333333333333,136.96,氷見,厳重警戒
2023-08-17 11:00:00,8月17日 11時時点,55056,31.6,36.821666666666665,137.42833333333334,魚津,危険
2023-08-17 11:00:00,8月17日 11時時点,55091,30.3,36.791666666666664,137.055,伏木,厳重警戒
2023-08-17 11:00:00,8月17日 11時時点,55102,29.8,36.708333333333336,137.20166666666665,富山,厳重警戒
2023-08-17 11:00:00,8月17日 11時時点,55141,28.8,36.61,136.955,砺波,厳重警戒
2023-08-17 11:00:00,8月17日 11時時点,55166,29.8,36.67,137.42333333333335,上市,厳重警戒
2023-08-17 11:00:00,8月17日 11時時点,55191,30.9,36.545,136.87166666666667,南砺高宮,厳重警戒
2023-08-17 11:00:00,8月17日 11時時点,55206,29.2,36.57,137.15833333333333,八尾,厳重警戒
2023-08-17 11:00:00,8月17日 11時時点,56036,31.3,37.446666666666665,137.28666666666666,珠洲,危険
2023-08-17 11:00:00,8月17日 11時時点,56052,29.2,37.39,136.895,輪島,厳重警戒
2023-08-17 11:00:00,8月17日 11時時点,56116,30.7,37.14333333333333,136.725,志賀,厳重警戒
2023-08-17 11:00:00,8月17日 11時時点,56146,30.0,37.03,136.99166666666667,七尾,厳重警戒
2023-08-17 11:00:00,8月17日 11時時点,56176,31.8,36.89333333333333,136.77666666666667,羽咋,危険
2023-08-17 11:00:00,8月17日 11時時点,56186,27.6,36.711666666666666,136.69166666666666,かほく,警戒
2023-08-17 11:00:00,8月17日 11時時点,56227,30.8,36.58833333333333,136.63333333333333,金沢,厳重警戒
2023-08-17 11:00:00,8月17日 11時時点,56276,31.2,36.38166666666667,136.435,小松,危険
2023-08-17 11:00:00,8月17日 11時時点,56286,26.2,36.39666666666667,136.62,白山河内,警戒
2023-08-17 11:00:00,8月17日 11時時点,56301,29.3,36.26166666666666,136.39666666666668,加賀中津原,厳重警戒
2023-08-17 11:00:00,8月17日 11時時点,57001,26.3,36.24333333333333,136.17333333333335,三国,警戒
2023-08-17 11:00:00,8月17日 11時時点,57051,32.3,36.01166666666666,135.99,越廼,危険
2023-08-17 11:00:00,8月17日 11時時点,57066,26.9,36.055,136.22166666666666,福井,警戒
2023-08-17 11:00:00,8月17日 11時時点,57082,31.3,36.038333333333334,136.52166666666668,勝山,危険
2023-08-17 11:00:00,8月17日 11時時点,57121,30.0,35.971666666666664,136.49666666666667,大野,厳重警戒
2023-08-17 11:00:00,8月17日 11時時点,57206,30.5,35.766666666666666,136.2,今庄,厳重警戒
2023-08-17 11:00:00,8月17日 11時時点,57248,30.6,35.653333333333336,136.06166666666667,敦賀,厳重警戒
2023-08-17 11:00:00,8月17日 11時時点,57286,32.5,35.6,135.91666666666666,美浜,危険
2023-08-17 11:00:00,8月17日 11時時点,57317,30.3,35.483333333333334,135.78166666666667,小浜,厳重警戒
2023-08-17 11:00:00,8月17日 11時時点,60051,31.0,35.41166666666667,136.02833333333334,今津,危険
2023-08-17 11:00:00,8月17日 11時時点,60061,29.5,35.42333333333333,136.24166666666667,長浜,厳重警戒
2023-08-17 11:00:00,8月17日 11時時点,60102,30.2,35.38333333333333,136.34333333333333,米原,厳重警戒
2023-08-17 11:00:00,8月17日 11時時点,60116,30.9,35.235,135.95666666666668,南小松,厳重警戒
2023-08-17 11:00:00,8月17日 11時時点,60131,31.3,35.275,136.24333333333334,彦根,危険
2023-08-17 11:00:00,8月17日 11時時点,60196,30.9,35.06166666666667,136.19,東近江,厳重警戒
2023-08-17 11:00:00,8月17日 11時時点,60216,30.7,34.99166666666667,135.91166666666666,大津,厳重警戒
2023-08-17 11:00:00,8月17日 11時時点,60226,28.8,34.913333333333334,136.08,信楽,厳重警戒
2023-08-17 11:00:00,8月17日 11時時点,60236,30.2,34.93833333333333,136.27833333333334,土山,厳重警戒
2023-08-17 11:00:00,8月17日 11時時点,61001,28.1,35.736666666666665,135.08666666666667,間人,厳重警戒
2023-08-17 11:00:00,8月17日 11時時点,61076,28.4,35.55,135.235,宮津,厳重警戒
2023-08-17 11:00:00,8月17日 11時時点,61111,27.9,35.45,135.31666666666666,舞鶴,警戒
2023-08-17 11:00:00,8月17日 11時時点,61187,29.1,35.31166666666667,135.11333333333334,福知山,厳重警戒
2023-08-17 11:00:00,8月17日 11時時点,61206,27.7,35.275,135.55,美山,警戒
2023-08-17 11:00:00,8月17日 11時時点,61242,27.7,35.108333333333334,135.455,園部,警戒
2023-08-17 11:00:00,8月17日 11時時点,61286,31.0,35.013333333333335,135.73166666666665,京都,危険
2023-08-17 11:00:00,8月17日 11時時点,61326,32.3,34.83,135.76,京田辺,危険
2023-08-17 11:00:00,8月17日 11時時点,62016,28.3,34.94833333333333,135.455,能勢,厳重警戒
2023-08-17 11:00:00,8月17日 11時時点,62046,29.6,34.80833333333333,135.67166666666665,枚方,厳重警戒
2023-08-17 11:00:00,8月17日 11時時点,62078,27.9,34.681666666666665,135.51833333333335,大阪,警戒
2023-08-17 11:00:00,8月17日 11時時点,62081,28.0,34.675,135.67666666666668,生駒山,厳重警戒
2023-08-17 11:00:00,8月17日 11時時点,62091,28.7,34.555,135.485,堺,厳重警戒
2023-08-17 11:00:00,8月17日 11時時点,62131,27.4,34.385,135.35,熊取,警戒
2023-08-17 11:00:00,8月17日 11時時点,63016,27.8,35.625,134.62666666666667,香住,警戒
2023-08-17 11:00:00,8月17日 11時時点,63051,27.8,35.535,134.82166666666666,豊岡,警戒
2023-08-17 11:00:00,8月17日 11時時点,63071,25.5,35.431666666666665,134.58333333333334,兎和野高原,警戒
2023-08-17 11:00:00,8月17日 11時時点,63121,26.7,35.32333333333333,134.84833333333333,和田山,警戒
2023-08-17 11:00:00,8月17日 11時時点,63201,25.6,35.166666666666664,134.79166666666666,生野,警戒
2023-08-17 11:00:00,8月17日 11時時点,63216,26.8,35.13666666666666,135.065,柏原,警戒
2023-08-17 11:00:00,8月17日 11時時点,63251,26.2,35.096666666666664,134.585,一宮,警戒
2023-08-17 11:00:00,8月17日 11時時点,63321,27.3,34.95,134.74833333333333,福崎,警戒
2023-08-17 11:00:00,8月17日 11時時点,63331,27.5,34.998333333333335,134.99666666666667,西脇,警戒
2023-08-17 11:00:00,8月17日 11時時点,63366,27.0,34.858333333333334,134.37333333333333,上郡,警戒
2023-08-17 11:00:00,8月17日 11時時点,63383,27.1,34.83833333333333,134.67,姫路,警戒
2023-08-17 11:00:00,8月17日 11時時点,63411,27.0,34.895,135.21166666666667,三田,警戒
2023-08-17 11:00:00,8月17日 11時時点,63461,26.2,34.776666666666664,135.01333333333332,三木,警戒
2023-08-17 11:00:00,8月17日 11時時点,63491,26.7,34.67166666666667,134.52666666666667,家島,警戒
2023-08-17 11:00:00,8月17日 11時時点,63496,26.7,34.68666666666667,134.87666666666667,明石,警戒
2023-08-17 11:00:00,8月17日 11時時点,63518,27.5,34.696666666666665,135.21166666666667,神戸,警戒
2023-08-17 11:00:00,8月17日 11時時点,63551,27.0,34.46666666666667,134.84833333333333,郡家,警戒
2023-08-17 11:00:00,8月17日 11時時点,63571,26.6,34.31,134.84833333333333,洲本,警戒
2023-08-17 11:00:00,8月17日 11時時点,63588,26.1,34.218333333333334,134.72,南淡,警戒
2023-08-17 11:00:00,8月17日 11時時点,64036,30.9,34.67333333333333,135.83666666666667,奈良,厳重警戒
2023-08-17 11:00:00,8月17日 11時時点,64041,30.2,34.605,135.95166666666665,針,厳重警戒
2023-08-17 11:00:00,8月17日 11時時点,64101,29.0,34.48833333333334,135.93166666666667,大宇陀,厳重警戒
2023-08-17 11:00:00,8月17日 11時時点,64127,28.9,34.38,135.73,五條,厳重警戒
2023-08-17 11:00:00,8月17日 11時時点,64206,28.2,34.13666666666666,136.005,上北山,厳重警戒
2023-08-17 11:00:00,8月17日 11時時点,64227,27.0,34.045,135.78666666666666,風屋,警戒
2023-08-17 11:00:00,8月17日 11時時点,65026,28.5,34.31,135.52833333333334,かつらぎ,厳重警戒
2023-08-17 11:00:00,8月17日 11時時点,65036,26.0,34.28,134.99833333333333,友ケ島,警戒
2023-08-17 11:00:00,8月17日 11時時点,65042,27.0,34.22833333333333,135.16333333333333,和歌山,警戒
2023-08-17 11:00:00,8月17日 11時時点,65061,23.8,34.221666666666664,135.59,高野山,注意
2023-08-17 11:00:00,8月17日 11時時点,65121,26.7,34.086666666666666,135.425,清水,警戒
2023-08-17 11:00:00,8月17日 11時時点,65162,27.2,33.945,135.55666666666667,龍神,警戒
2023-08-17 11:00:00,8月17日 11時時点,65201,27.4,33.89333333333333,135.21666666666667,川辺,警戒
2023-08-17 11:00:00,8月17日 11時時点,65256,28.8,33.791666666666664,135.51333333333332,栗栖川,厳重警戒
2023-08-17 11:00:00,8月17日 11時時点,65276,28.7,33.68666666666667,135.97,新宮,厳重警戒
2023-08-17 11:00:00,8月17日 11時時点,65306,27.9,33.638333333333335,135.71,西川,警戒
2023-08-17 11:00:00,8月17日 11時時点,65356,28.8,33.45,135.75666666666666,潮岬,厳重警戒
2023-08-17 11:00:00,8月17日 11時時点,66046,28.5,35.29666666666667,133.725,上長田,厳重警戒
2023-08-17 11:00:00,8月17日 11時時点,66091,25.9,35.10333333333333,133.435,千屋,警戒
2023-08-17 11:00:00,8月17日 11時時点,66127,26.4,35.111666666666665,134.17,奈義,警戒
2023-08-17 11:00:00,8月17日 11時時点,66136,25.8,35.098333333333336,134.325,今岡,警戒
2023-08-17 11:00:00,8月17日 11時時点,66171,26.8,35.068333333333335,133.75333333333333,久世,警戒
2023-08-17 11:00:00,8月17日 11時時点,66186,27.1,35.06333333333333,134.00833333333333,津山,警戒
2023-08-17 11:00:00,8月17日 11時時点,66221,25.3,34.943333333333335,133.51833333333335,新見,警戒
2023-08-17 11:00:00,8月17日 11時時点,66296,27.4,34.86666666666667,133.90333333333334,福渡,警戒
2023-08-17 11:00:00,8月17日 11時時点,66306,26.9,34.815,134.18333333333334,和気,警戒
2023-08-17 11:00:00,8月17日 11時時点,66336,26.6,34.791666666666664,133.61,高梁,警戒
2023-08-17 11:00:00,8月17日 11時時点,66408,27.5,34.685,133.925,岡山,警戒
2023-08-17 11:00:00,8月17日 11時時点,66421,26.5,34.681666666666665,134.20666666666668,虫明,警戒
2023-08-17 11:00:00,8月17日 11時時点,66446,26.9,34.59,133.76833333333335,倉敷,警戒
2023-08-17 11:00:00,8月17日 11時時点,66481,26.8,34.501666666666665,133.495,笠岡,警戒
2023-08-17 11:00:00,8月17日 11時時点,66501,27.3,34.486666666666665,133.95,玉野,警戒
2023-08-17 11:00:00,8月17日 11時時点,67016,26.4,35.03333333333333,132.90166666666667,高野,警戒
2023-08-17 11:00:00,8月17日 11時時点,67106,29.1,34.81166666666667,132.85,三次,厳重警戒
2023-08-17 11:00:00,8月17日 11時時点,67116,27.8,34.86,133.02333333333334,庄原,警戒
2023-08-17 11:00:00,8月17日 11時時点,67151,27.9,34.76833333333333,132.46333333333334,大朝,警戒
2023-08-17 11:00:00,8月17日 11時時点,67191,25.4,34.763333333333335,133.27833333333334,油木,警戒
2023-08-17 11:00:00,8月17日 11時時点,67212,31.3,34.61,132.32,加計,危険
2023-08-17 11:00:00,8月17日 11時時点,67292,28.9,34.545,132.53,三入,厳重警戒
2023-08-17 11:00:00,8月17日 11時時点,67316,25.9,34.583333333333336,133.05,世羅,警戒
2023-08-17 11:00:00,8月17日 11時時点,67326,27.2,34.56166666666667,133.23166666666665,府中,警戒
2023-08-17 11:00:00,8月17日 11時時点,67376,27.5,34.416666666666664,132.7,東広島,警戒
2023-08-17 11:00:00,8月17日 11時時点,67401,27.9,34.446666666666665,133.24666666666667,福山,警戒
2023-08-17 11:00:00,8月17日 11時時点,67421,28.6,34.365,132.19,廿日市津田,厳重警戒
2023-08-17 11:00:00,8月17日 11時時点,67437,28.7,34.39833333333333,132.46166666666667,広島,厳重警戒
2023-08-17 11:00:00,8月17日 11時時点,67461,27.0,34.33,132.98166666666665,竹原,警戒
2023-08-17 11:00:00,8月17日 11時時点,67471,27.3,34.278333333333336,133.12333333333333,生口島,警戒
2023-08-17 11:00:00,8月17日 11時時点,67496,30.2,34.221666666666664,132.22,大竹,厳重警戒
2023-08-17 11:00:00,8月17日 11時時点,67511,30.9,34.24,132.55,呉,厳重警戒
2023-08-17 11:00:00,8月17日 11時時点,67576,29.2,34.165,132.74833333333333,呉市蒲刈,厳重警戒
2023-08-17 11:00:00,8月17日 11時時点,68022,27.5,36.20333333333333,133.33333333333334,西郷,警戒
2023-08-17 11:00:00,8月17日 11時時点,68056,27.2,36.096666666666664,133.09666666666666,海士,警戒
2023-08-17 11:00:00,8月17日 11時時点,68091,28.2,35.52,132.98333333333332,鹿島,厳重警戒
2023-08-17 11:00:00,8月17日 11時時点,68132,28.2,35.45666666666666,133.065,松江,厳重警戒
2023-08-17 11:00:00,8月17日 11時時点,68156,28.4,35.33166666666666,132.73,出雲,厳重警戒
2023-08-17 11:00:00,8月17日 11時時点,68246,27.8,35.19,132.49666666666667,大田,警戒
2023-08-17 11:00:00,8月17日 11時時点,68261,27.0,35.196666666666665,132.815,掛合,警戒
2023-08-17 11:00:00,8月17日 11時時点,68276,25.1,35.17333333333333,133.10333333333332,横田,警戒
2023-08-17 11:00:00,8月17日 11時時点,68306,27.2,35.001666666666665,132.71166666666667,赤名,警戒
2023-08-17 11:00:00,8月17日 11時時点,68351,27.9,34.97666666666667,132.49166666666667,川本,警戒
2023-08-17 11:00:00,8月17日 11時時点,68376,27.7,34.89666666666667,132.07,浜田,警戒
2023-08-17 11:00:00,8月17日 11時時点,68401,29.8,34.85333333333333,132.53,瑞穂,厳重警戒
2023-08-17 11:00:00,8月17日 11時時点,68431,26.3,34.776666666666664,132.10833333333332,弥栄,警戒
2023-08-17 11:00:00,8月17日 11時時点,68462,27.6,34.67666666666667,131.84333333333333,益田,警戒
2023-08-17 11:00:00,8月17日 11時時点,68516,27.6,34.461666666666666,131.77,津和野,警戒
2023-08-17 11:00:00,8月17日 11時時点,68541,26.4,34.391666666666666,131.89333333333335,吉賀,警戒
2023-08-17 11:00:00,8月17日 11時時点,69006,28.0,35.54333333333334,133.235,境,厳重警戒
2023-08-17 11:00:00,8月17日 11時時点,69021,27.8,35.52333333333333,133.56666666666666,塩津,警戒
2023-08-17 11:00:00,8月17日 11時時点,69041,28.8,35.52,133.99666666666667,青谷,厳重警戒
2023-08-17 11:00:00,8月17日 11時時点,69061,27.9,35.55833333333333,134.36,岩井,警戒
2023-08-17 11:00:00,8月17日 11時時点,69076,27.6,35.43333333333333,133.33833333333334,米子,警戒
2023-08-17 11:00:00,8月17日 11時時点,69101,27.9,35.473333333333336,133.83833333333334,倉吉,警戒
2023-08-17 11:00:00,8月17日 11時時点,69122,28.0,35.486666666666665,134.23833333333334,鳥取,厳重警戒
2023-08-17 11:00:00,8月17日 11時時点,69246,27.2,35.263333333333335,134.24,智頭,警戒
2023-08-17 11:00:00,8月17日 11時時点,69271,25.4,35.18666666666667,133.23,茶屋,警戒
2023-08-17 11:00:00,8月17日 11時時点,81011,26.5,34.615,131.62333333333333,須佐,警戒
2023-08-17 11:00:00,8月17日 11時時点,81071,28.0,34.41,131.405,萩,厳重警戒
2023-08-17 11:00:00,8月17日 11時時点,81116,26.9,34.37,131.055,油谷,警戒
2023-08-17 11:00:00,8月17日 11時時点,81151,26.8,34.39833333333333,131.725,徳佐,警戒
2023-08-17 11:00:00,8月17日 11時時点,81196,28.0,34.235,131.30666666666667,秋吉台,厳重警戒
2023-08-17 11:00:00,8月17日 11時時点,81231,29.8,34.26166666666666,131.95166666666665,広瀬,厳重警戒
2023-08-17 11:00:00,8月17日 11時時点,81266,28.2,34.18666666666667,131.07666666666665,豊田,厳重警戒
2023-08-17 11:00:00,8月17日 11時時点,81286,29.8,34.16166666666667,131.46166666666667,山口,厳重警戒
2023-08-17 11:00:00,8月17日 11時時点,81321,31.1,34.155,132.17833333333334,岩国,危険
2023-08-17 11:00:00,8月17日 11時時点,81371,31.0,34.04,131.53333333333333,防府,危険
2023-08-17 11:00:00,8月17日 11時時点,81386,28.7,34.01,131.87166666666667,下松,厳重警戒
2023-08-17 11:00:00,8月17日 11時時点,81397,31.9,34.095,132.075,玖珂,危険
2023-08-17 11:00:00,8月17日 11時時点,81428,29.6,33.94833333333333,130.925,下関,厳重警戒
2023-08-17 11:00:00,8月17日 11時時点,81481,30.6,33.958333333333336,132.11333333333334,柳井,厳重警戒
2023-08-17 11:00:00,8月17日 11時時点,81486,30.1,33.903333333333336,132.29333333333332,安下庄,厳重警戒
2023-08-17 11:00:00,8月17日 11時時点,71066,25.2,34.02333333333333,133.795,池田,警戒
2023-08-17 11:00:00,8月17日 11時時点,71087,25.9,34.04,134.15666666666667,穴吹,警戒
2023-08-17 11:00:00,8月17日 11時時点,71106,26.7,34.06666666666667,134.57333333333332,徳島,警戒
2023-08-17 11:00:00,8月17日 11時時点,71191,23.1,33.86666666666667,133.90333333333334,京上,注意
2023-08-17 11:00:00,8月17日 11時時点,71231,25.9,33.836666666666666,134.74166666666667,蒲生田,警戒
2023-08-17 11:00:00,8月17日 11時時点,71251,24.6,33.77166666666667,134.19833333333332,木頭,注意
2023-08-17 11:00:00,8月17日 11時時点,71266,25.9,33.73166666666667,134.53833333333333,日和佐,警戒
2023-08-17 11:00:00,8月17日 11時時点,71291,26.6,33.611666666666665,134.355,海陽,警戒
2023-08-17 11:00:00,8月17日 11時時点,72061,27.2,34.471666666666664,134.27333333333334,内海,警戒
2023-08-17 11:00:00,8月17日 11時時点,72086,25.9,34.318333333333335,134.05333333333334,高松,警戒
2023-08-17 11:00:00,8月17日 11時時点,72111,27.2,34.275,133.75166666666667,多度津,警戒
2023-08-17 11:00:00,8月17日 11時時点,72121,26.8,34.236666666666665,133.92333333333335,滝宮,警戒
2023-08-17 11:00:00,8月17日 11時時点,72146,26.4,34.21333333333333,134.40666666666667,引田,警戒
2023-08-17 11:00:00,8月17日 11時時点,72161,26.4,34.12,133.77166666666668,財田,警戒
2023-08-17 11:00:00,8月17日 11時時点,73001,27.2,34.25,133.00666666666666,大三島,警戒
2023-08-17 11:00:00,8月17日 11時時点,73076,26.6,34.053333333333335,132.975,今治,警戒
2023-08-17 11:00:00,8月17日 11時時点,73126,27.2,33.915,133.08,西条,警戒
2023-08-17 11:00:00,8月17日 11時時点,73141,25.9,33.93666666666667,133.33833333333334,新居浜,警戒
2023-08-17 11:00:00,8月17日 11時時点,73151,25.6,33.98166666666667,133.58166666666668,四国中央,警戒
2023-08-17 11:00:00,8月17日 11時時点,73166,31.5,33.843333333333334,132.77666666666667,松山,危険
2023-08-17 11:00:00,8月17日 11時時点,73256,28.7,33.61666666666667,132.48,長浜,厳重警戒
2023-08-17 11:00:00,8月17日 11時時点,73276,27.0,33.663333333333334,132.895,久万,警戒
2023-08-17 11:00:00,8月17日 11時時点,73306,29.5,33.50833333333333,132.535,大洲,厳重警戒
2023-08-17 11:00:00,8月17日 11時時点,73341,28.6,33.446666666666665,132.25666666666666,瀬戸,厳重警戒
2023-08-17 11:00:00,8月17日 11時時点,73406,30.6,33.36666666666667,132.50333333333333,宇和,厳重警戒
2023-08-17 11:00:00,8月17日 11時時点,73442,31.2,33.22666666666667,132.55166666666668,宇和島,危険
2023-08-17 11:00:00,8月17日 11時時点,73446,29.6,33.25333333333333,132.675,近永,厳重警戒
2023-08-17 11:00:00,8月17日 11時時点,73516,30.7,32.96333333333333,132.57,御荘,厳重警戒
2023-08-17 11:00:00,8月17日 11時時点,74056,23.1,33.765,133.33833333333334,本川,注意
2023-08-17 11:00:00,8月17日 11時時点,74071,24.0,33.75333333333333,133.575,本山,注意
2023-08-17 11:00:00,8月17日 11時時点,74136,24.5,33.69833333333333,133.875,大栃,注意
2023-08-17 11:00:00,8月17日 11時時点,74182,24.7,33.56666666666667,133.54833333333335,高知,注意
2023-08-17 11:00:00,8月17日 11時時点,74187,26.0,33.59,133.64333333333335,後免,警戒
2023-08-17 11:00:00,8月17日 11時時点,74271,25.7,33.48833333333334,133.93333333333334,安芸,警戒
2023-08-17 11:00:00,8月17日 11時時点,74296,25.9,33.39,132.92166666666665,梼原,警戒
2023-08-17 11:00:00,8月17日 11時時点,74311,26.2,33.385,133.27666666666667,須崎,警戒
2023-08-17 11:00:00,8月17日 11時時点,74361,25.7,33.20666666666666,133.12833333333333,窪川,警戒
2023-08-17 11:00:00,8月17日 11時時点,74372,26.1,33.251666666666665,134.17666666666668,室戸岬,警戒
2023-08-17 11:00:00,8月17日 11時時点,74381,29.8,33.17,132.79166666666666,江川崎,厳重警戒
2023-08-17 11:00:00,8月17日 11時時点,74436,25.8,33.07833333333333,133.10166666666666,佐賀,警戒
2023-08-17 11:00:00,8月17日 11時時点,74447,30.0,32.92,132.695,宿毛,厳重警戒
2023-08-17 11:00:00,8月17日 11時時点,74456,28.0,32.99,132.92,中村,厳重警戒
2023-08-17 11:00:00,8月17日 11時時点,74516,29.6,32.721666666666664,133.01,清水,厳重警戒
2023-08-17 11:00:00,8月17日 11時時点,82046,27.3,33.80833333333333,130.53833333333333,宗像,警戒
2023-08-17 11:00:00,8月17日 11時時点,82056,28.7,33.85166666666667,130.74333333333334,八幡,厳重警戒
2023-08-17 11:00:00,8月17日 11時時点,82101,30.5,33.71333333333333,130.975,行橋,厳重警戒
2023-08-17 11:00:00,8月17日 11時時点,82136,29.5,33.651666666666664,130.69333333333333,飯塚,厳重警戒
2023-08-17 11:00:00,8月17日 11時時点,82171,28.9,33.56,130.19,前原,厳重警戒
2023-08-17 11:00:00,8月17日 11時時点,82182,28.4,33.58166666666666,130.375,福岡,厳重警戒
2023-08-17 11:00:00,8月17日 11時時点,82191,28.3,33.49666666666667,130.49,太宰府,厳重警戒
2023-08-17 11:00:00,8月17日 11時時点,82206,28.2,33.55833333333333,130.855,添田,厳重警戒
2023-08-17 11:00:00,8月17日 11時時点,82261,30.5,33.406666666666666,130.695,朝倉,厳重警戒
2023-08-17 11:00:00,8月17日 11時時点,82306,31.1,33.303333333333335,130.49333333333334,久留米,危険
2023-08-17 11:00:00,8月17日 11時時点,82317,30.3,33.225,130.645,黒木,厳重警戒
2023-08-17 11:00:00,8月17日 11時時点,82361,28.8,33.00666666666667,130.46666666666667,大牟田,厳重警戒
2023-08-17 11:00:00,8月17日 11時時点,83021,30.1,33.678333333333335,131.575,国見,厳重警戒
2023-08-17 11:00:00,8月17日 11時時点,83051,30.3,33.586666666666666,131.245,中津,厳重警戒
2023-08-17 11:00:00,8月17日 11時時点,83061,29.4,33.57,131.43333333333334,豊後高田,厳重警戒
2023-08-17 11:00:00,8月17日 11時時点,83106,28.7,33.42,131.31666666666666,院内,厳重警戒
2023-08-17 11:00:00,8月17日 11時時点,83121,28.6,33.416666666666664,131.59666666666666,杵築,厳重警戒
2023-08-17 11:00:00,8月17日 11時時点,83137,30.4,33.321666666666665,130.92833333333334,日田,厳重警戒
2023-08-17 11:00:00,8月17日 11時時点,83191,27.1,33.291666666666664,131.155,玖珠,警戒
2023-08-17 11:00:00,8月17日 11時時点,83201,25.6,33.25333333333333,131.34666666666666,湯布院,警戒
2023-08-17 11:00:00,8月17日 11時時点,83216,30.3,33.235,131.61833333333334,大分,厳重警戒
2023-08-17 11:00:00,8月17日 11時時点,83341,31.3,33.065,131.63166666666666,犬飼,危険
2023-08-17 11:00:00,8月17日 11時時点,83371,28.4,32.973333333333336,131.39833333333334,竹田,厳重警戒
2023-08-17 11:00:00,8月17日 11時時点,83401,29.8,32.95,131.90166666666667,佐伯,厳重警戒
2023-08-17 11:00:00,8月17日 11時時点,83431,28.6,32.845,131.675,宇目,厳重警戒
2023-08-17 11:00:00,8月17日 11時時点,83476,30.5,32.795,131.92333333333335,蒲江,厳重警戒
2023-08-17 11:00:00,8月17日 11時時点,84012,25.9,34.69833333333333,129.445,鰐浦,警戒
2023-08-17 11:00:00,8月17日 11時時点,84072,26.3,34.196666666666665,129.29166666666666,厳原,警戒
2023-08-17 11:00:00,8月17日 11時時点,84121,26.0,33.8,129.72166666666666,芦辺,警戒
2023-08-17 11:00:00,8月17日 11時時点,84171,27.3,33.36,129.55,平戸,警戒
2023-08-17 11:00:00,8月17日 11時時点,84183,27.1,33.34166666666667,129.71166666666667,松浦,警戒
2023-08-17 11:00:00,8月17日 11時時点,84266,28.3,33.15833333333333,129.72666666666666,佐世保,厳重警戒
2023-08-17 11:00:00,8月17日 11時時点,84306,28.2,33.013333333333335,129.65166666666667,西海,厳重警戒
2023-08-17 11:00:00,8月17日 11時時点,84341,27.7,32.98166666666667,129.11833333333334,有川,警戒
2023-08-17 11:00:00,8月17日 11時時点,84496,27.0,32.733333333333334,129.86666666666667,長崎,警戒
2023-08-17 11:00:00,8月17日 11時時点,84519,27.8,32.736666666666665,130.26166666666666,雲仙岳,警戒
2023-08-17 11:00:00,8月17日 11時時点,84523,29.0,32.76,130.36166666666668,島原,厳重警戒
2023-08-17 11:00:00,8月17日 11時時点,84536,27.8,32.693333333333335,128.82666666666665,福江,警戒
2023-08-17 11:00:00,8月17日 11時時点,84561,29.8,32.611666666666665,130.19333333333333,口之津,厳重警戒
2023-08-17 11:00:00,8月17日 11時時点,84597,28.6,32.58166666666666,129.77666666666667,脇岬,厳重警戒
2023-08-17 11:00:00,8月17日 11時時点,85033,28.4,33.458333333333336,129.955,唐津,厳重警戒
2023-08-17 11:00:00,8月17日 11時時点,85116,27.4,33.266666666666666,129.87833333333333,伊万里,警戒
2023-08-17 11:00:00,8月17日 11時時点,85142,30.4,33.265,130.305,佐賀,厳重警戒
2023-08-17 11:00:00,8月17日 11時時点,85161,27.7,33.11666666666667,129.995,嬉野,警戒
2023-08-17 11:00:00,8月17日 11時時点,85166,28.2,33.18333333333333,130.14833333333334,白石,厳重警戒
2023-08-17 11:00:00,8月17日 11時時点,86006,31.1,33.115,130.69166666666666,鹿北,危険
2023-08-17 11:00:00,8月17日 11時時点,86066,26.5,33.10333333333333,131.06666666666666,南小国,警戒
2023-08-17 11:00:00,8月17日 11時時点,86086,28.6,32.915,130.51166666666666,岱明,厳重警戒
2023-08-17 11:00:00,8月17日 11時時点,86101,29.7,32.945,130.78166666666667,菊池,厳重警戒
2023-08-17 11:00:00,8月17日 11時時点,86111,26.6,32.946666666666665,131.04,阿蘇乙姫,警戒
2023-08-17 11:00:00,8月17日 11時時点,86141,29.9,32.81333333333333,130.70666666666668,熊本,厳重警戒
2023-08-17 11:00:00,8月17日 11時時点,86157,27.0,32.83166666666666,131.01333333333332,南阿蘇,警戒
2023-08-17 11:00:00,8月17日 11時時点,86161,25.6,32.821666666666665,131.125,高森,警戒
2023-08-17 11:00:00,8月17日 11時時点,86216,28.6,32.611666666666665,130.47833333333332,三角,厳重警戒
2023-08-17 11:00:00,8月17日 11時時点,86236,30.4,32.67166666666667,130.81666666666666,甲佐,厳重警戒
2023-08-17 11:00:00,8月17日 11時時点,86271,28.9,32.515,130.44666666666666,松島,厳重警戒
2023-08-17 11:00:00,8月17日 11時時点,86316,28.6,32.468333333333334,130.18,本渡,厳重警戒
2023-08-17 11:00:00,8月17日 11時時点,86336,29.2,32.473333333333336,130.60666666666665,八代,厳重警戒
2023-08-17 11:00:00,8月17日 11時時点,86451,28.7,32.205,130.40666666666667,水俣,厳重警戒
2023-08-17 11:00:00,8月17日 11時時点,86467,28.7,32.21666666666667,130.755,人吉,厳重警戒
2023-08-17 11:00:00,8月17日 11時時点,86477,30.2,32.225,130.905,上,厳重警戒
2023-08-17 11:00:00,8月17日 11時時点,86491,29.1,32.196666666666665,130.02666666666667,牛深,厳重警戒
2023-08-17 11:00:00,8月17日 11時時点,87041,29.7,32.711666666666666,131.29,高千穂,厳重警戒
2023-08-17 11:00:00,8月17日 11時時点,87066,30.5,32.711666666666666,131.82,古江,厳重警戒
2023-08-17 11:00:00,8月17日 11時時点,87071,26.2,32.64333333333333,131.15666666666667,鞍岡,警戒
2023-08-17 11:00:00,8月17日 11時時点,87141,30.5,32.58166666666666,131.65666666666667,延岡,厳重警戒
2023-08-17 11:00:00,8月17日 11時時点,87181,30.6,32.40833333333333,131.6,日向,厳重警戒
2023-08-17 11:00:00,8月17日 11時時点,87206,29.7,32.385,131.33166666666668,神門,厳重警戒
2023-08-17 11:00:00,8月17日 11時時点,87231,29.3,32.24,131.15166666666667,西米良,厳重警戒
2023-08-17 11:00:00,8月17日 11時時点,87293,31.7,32.123333333333335,131.475,高鍋,危険
2023-08-17 11:00:00,8月17日 11時時点,87301,29.5,32.04666666666667,130.81,加久藤,厳重警戒
2023-08-17 11:00:00,8月17日 11時時点,87331,30.7,32.06333333333333,131.41333333333333,西都,厳重警戒
2023-08-17 11:00:00,8月17日 11時時点,87352,27.1,32.0,130.95333333333335,小林,警戒
2023-08-17 11:00:00,8月17日 11時時点,87376,29.9,31.938333333333333,131.41333333333333,宮崎,厳重警戒
2023-08-17 11:00:00,8月17日 11時時点,87406,28.6,31.843333333333334,131.30833333333334,田野,厳重警戒
2023-08-17 11:00:00,8月17日 11時時点,87426,29.5,31.73,131.08166666666668,都城,厳重警戒
2023-08-17 11:00:00,8月17日 11時時点,87492,31.8,31.578333333333333,131.40666666666667,油津,危険
2023-08-17 11:00:00,8月17日 11時時点,87501,30.2,31.465,131.22,串間,厳重警戒
2023-08-17 11:00:00,8月17日 11時時点,88061,28.7,32.026666666666664,130.2,阿久根,厳重警戒
2023-08-17 11:00:00,8月17日 11時時点,88081,27.5,32.04666666666667,130.62666666666667,大口,警戒
2023-08-17 11:00:00,8月17日 11時時点,88107,28.8,31.916666666666668,130.455,さつま柏原,厳重警戒
2023-08-17 11:00:00,8月17日 11時時点,88131,28.2,31.835,129.86666666666667,中甑,厳重警戒
2023-08-17 11:00:00,8月17日 11時時点,88151,29.3,31.833333333333332,130.315,川内,厳重警戒
2023-08-17 11:00:00,8月17日 11時時点,88261,28.4,31.668333333333333,130.32833333333335,東市来,厳重警戒
2023-08-17 11:00:00,8月17日 11時時点,88286,30.0,31.661666666666665,130.84333333333333,牧之原,厳重警戒
2023-08-17 11:00:00,8月17日 11時時点,88317,29.0,31.555,130.54666666666665,鹿児島,厳重警戒
2023-08-17 11:00:00,8月17日 11時時点,88331,26.6,31.588333333333335,130.855,輝北,警戒
2023-08-17 11:00:00,8月17日 11時時点,88371,28.1,31.415,130.325,加世田,厳重警戒
2023-08-17 11:00:00,8月17日 11時時点,88406,29.8,31.47833333333333,131.095,志布志,厳重警戒
2023-08-17 11:00:00,8月17日 11時時点,88432,28.2,31.386666666666667,130.54,喜入,厳重警戒
2023-08-17 11:00:00,8月17日 11時時点,88442,28.5,31.391666666666666,130.86333333333334,鹿屋,厳重警戒
2023-08-17 11:00:00,8月17日 11時時点,88447,31.8,31.34,130.93833333333333,肝付前田,危険
2023-08-17 11:00:00,8月17日 11時時点,88466,30.2,31.27166666666667,130.29166666666666,枕崎,厳重警戒
2023-08-17 11:00:00,8月17日 11時時点,88486,30.4,31.25,130.63666666666666,指宿,厳重警戒
2023-08-17 11:00:00,8月17日 11時時点,88506,30.3,31.276666666666667,131.055,内之浦,厳重警戒
2023-08-17 11:00:00,8月17日 11時時点,88536,29.1,31.198333333333334,130.84333333333333,田代,厳重警戒
2023-08-17 11:00:00,8月17日 11時時点,88612,28.3,30.72,130.98166666666665,種子島,厳重警戒
2023-08-17 11:00:00,8月17日 11時時点,88666,28.4,30.406666666666666,130.90166666666667,上中,厳重警戒
2023-08-17 11:00:00,8月17日 11時時点,88686,27.8,30.385,130.65833333333333,屋久島,警戒
2023-08-17 11:00:00,8月17日 11時時点,88706,28.1,30.235,130.555,尾之間,厳重警戒
2023-08-17 11:00:00,8月17日 11時時点,88736,25.7,29.84,129.86666666666667,中之島,警戒
2023-08-17 11:00:00,8月17日 11時時点,88836,28.0,28.378333333333334,129.495,名瀬,厳重警戒
2023-08-17 11:00:00,8月17日 11時時点,88901,28.3,28.143333333333334,129.315,古仁屋,厳重警戒
2023-08-17 11:00:00,8月17日 11時時点,88956,28.1,27.676666666666666,128.97333333333333,伊仙,厳重警戒
2023-08-17 11:00:00,8月17日 11時時点,88971,28.9,27.431666666666665,128.705,沖永良部,厳重警戒
2023-08-17 11:00:00,8月17日 11時時点,91011,30.6,26.948333333333334,127.94,伊是名,厳重警戒
2023-08-17 11:00:00,8月17日 11時時点,91021,28.4,26.835,128.27166666666668,奥,厳重警戒
2023-08-17 11:00:00,8月17日 11時時点,91107,30.7,26.593333333333334,127.965,名護,厳重警戒
2023-08-17 11:00:00,8月17日 11時時点,91146,28.8,26.336666666666666,126.80333333333333,久米島,厳重警戒
2023-08-17 11:00:00,8月17日 11時時点,91166,30.1,26.363333333333333,127.97166666666666,宮城島,厳重警戒
2023-08-17 11:00:00,8月17日 11時時点,91181,29.4,26.21,127.36333333333333,渡嘉敷,厳重警戒
2023-08-17 11:00:00,8月17日 11時時点,91197,29.3,26.206666666666667,127.68666666666667,那覇,厳重警戒
2023-08-17 11:00:00,8月17日 11時時点,91241,29.9,26.153333333333332,127.765,糸数,厳重警戒
2023-08-17 11:00:00,8月17日 11時時点,92011,31.8,25.828333333333333,131.22833333333332,南大東,危険
2023-08-17 11:00:00,8月17日 11時時点,93041,30.8,24.793333333333333,125.27833333333334,宮古島,厳重警戒
2023-08-17 11:00:00,8月17日 11時時点,94001,30.3,24.506666666666668,124.28,伊原間,厳重警戒
2023-08-17 11:00:00,8月17日 11時時点,94017,29.4,24.466666666666665,123.01,与那国島,厳重警戒
2023-08-17 11:00:00,8月17日 11時時点,94062,29.2,24.426666666666666,123.765,西表島,厳重警戒
2023-08-17 11:00:00,8月17日 11時時点,94081,30.4,24.336666666666666,124.16333333333333,石垣島,厳重警戒
2023-08-17 11:00:00,8月17日 11時時点,94101,28.7,24.265,123.87166666666667,大原,厳重警戒
2023-08-17 11:00:00,8月17日 11時時点,94116,30.7,24.055,123.76666666666667,波照間,厳重警戒
