Date,Time,amdno,wbgt,dt_popup,lat,long,kjName,guideline
2023/8/24,9:00,11001,31.6,8月24日 9時時点,45.52,141.935,宗谷岬,危険
2023/8/24,9:00,11016,28.9,8月24日 9時時点,45.415,141.67833333333334,稚内,厳重警戒
2023/8/24,9:00,11046,29.9,8月24日 9時時点,45.305,141.045,礼文,厳重警戒
2023/8/24,9:00,11076,29.6,8月24日 9時時点,45.335,142.17,浜鬼志別,厳重警戒
2023/8/24,9:00,11121,30.7,8月24日 9時時点,45.248333333333335,141.85166666666666,沼川,厳重警戒
2023/8/24,9:00,11151,29.7,8月24日 9時時点,45.178333333333335,141.13833333333332,沓形,厳重警戒
2023/8/24,9:00,11176,30.6,8月24日 9時時点,45.10166666666667,141.78,豊富,厳重警戒
2023/8/24,9:00,11206,30.6,8月24日 9時時点,45.125,142.35,浜頓別,厳重警戒
2023/8/24,9:00,11276,31.6,8月24日 9時時点,44.965,142.28,中頓別,危険
2023/8/24,9:00,11291,28.2,8月24日 9時時点,44.94,142.585,北見枝幸,厳重警戒
2023/8/24,9:00,11316,31.2,8月24日 9時時点,44.84166666666667,142.48,歌登,危険
2023/8/24,9:00,12011,30.7,8月24日 9時時点,44.82833333333333,142.07666666666665,中川,厳重警戒
2023/8/24,9:00,12041,30.6,8月24日 9時時点,44.72666666666667,142.265,音威子府,厳重警戒
2023/8/24,9:00,12141,30.0,8月24日 9時時点,44.48,142.34166666666667,美深,厳重警戒
2023/8/24,9:00,12181,30.5,8月24日 9時時点,44.37,142.45666666666668,名寄,厳重警戒
2023/8/24,9:00,12231,31.3,8月24日 9時時点,44.295,142.63666666666666,下川,危険
2023/8/24,9:00,12261,30.9,8月24日 9時時点,44.18666666666667,142.41666666666666,士別,厳重警戒
2023/8/24,9:00,12266,31.7,8月24日 9時時点,44.11833333333333,142.595,朝日,危険
2023/8/24,9:00,12301,31.5,8月24日 9時時点,44.028333333333336,142.41,和寒,危険
2023/8/24,9:00,12386,29.3,8月24日 9時時点,43.87,142.26,江丹別,厳重警戒
2023/8/24,9:00,12396,31.4,8月24日 9時時点,43.87,142.47,比布,危険
2023/8/24,9:00,12411,29.1,8月24日 9時時点,43.846666666666664,142.75333333333333,上川,厳重警戒
2023/8/24,9:00,12442,30.1,8月24日 9時時点,43.75666666666667,142.37166666666667,旭川,厳重警戒
2023/8/24,9:00,12451,31.6,8月24日 9時時点,43.70166666666667,142.50833333333333,東川,危険
2023/8/24,9:00,12512,32.4,8月24日 9時時点,43.64333333333333,142.58166666666668,志比内,危険
2023/8/24,9:00,12551,30.6,8月24日 9時時点,43.58833333333333,142.49333333333334,美瑛,厳重警戒
2023/8/24,9:00,12596,31.2,8月24日 9時時点,43.455,142.465,上富良野,危険
2023/8/24,9:00,12626,32.1,8月24日 9時時点,43.333333333333336,142.4,富良野,危険
2023/8/24,9:00,12632,31.8,8月24日 9時時点,43.30166666666667,142.52166666666668,麓郷,危険
2023/8/24,9:00,12691,30.4,8月24日 9時時点,43.16833333333334,142.56833333333333,幾寅,厳重警戒
2023/8/24,9:00,12746,31.2,8月24日 9時時点,42.97833333333333,142.395,占冠,危険
2023/8/24,9:00,15041,28.5,8月24日 9時時点,44.281666666666666,142.16166666666666,朱鞠内,厳重警戒
2023/8/24,9:00,15076,30.3,8月24日 9時時点,44.01,142.16,幌加内,厳重警戒
2023/8/24,9:00,13061,30.4,8月24日 9時時点,44.89333333333333,141.76166666666666,天塩,厳重警戒
2023/8/24,9:00,13086,30.5,8月24日 9時時点,44.718333333333334,141.80666666666667,遠別,厳重警戒
2023/8/24,9:00,13121,30.5,8月24日 9時時点,44.52333333333333,141.77,初山別,厳重警戒
2023/8/24,9:00,13146,29.1,8月24日 9時時点,44.428333333333335,141.42166666666665,焼尻,厳重警戒
2023/8/24,9:00,13181,30.0,8月24日 9時時点,44.36333333333334,141.7,羽幌,厳重警戒
2023/8/24,9:00,13261,31.0,8月24日 9時時点,44.04833333333333,141.85666666666665,達布,危険
2023/8/24,9:00,13277,30.3,8月24日 9時時点,43.945,141.63166666666666,留萌,厳重警戒
2023/8/24,9:00,13311,31.5,8月24日 9時時点,43.848333333333336,141.51,増毛,危険
2023/8/24,9:00,13321,30.6,8月24日 9時時点,43.85333333333333,141.76,幌糠,厳重警戒
2023/8/24,9:00,14026,31.5,8月24日 9時時点,43.58166666666666,141.38666666666666,浜益,危険
2023/8/24,9:00,14071,31.6,8月24日 9時時点,43.39666666666667,141.43666666666667,厚田,危険
2023/8/24,9:00,14101,29.2,8月24日 9時時点,43.22,141.645,新篠津,厳重警戒
2023/8/24,9:00,14116,31.7,8月24日 9時時点,43.14833333333333,141.22166666666666,山口,危険
2023/8/24,9:00,14121,30.5,8月24日 9時時点,43.193333333333335,141.37,石狩,厳重警戒
2023/8/24,9:00,14136,30.5,8月24日 9時時点,43.11,141.60166666666666,江別,厳重警戒
2023/8/24,9:00,14163,31.0,8月24日 9時時点,43.06,141.32833333333335,札幌,危険
2023/8/24,9:00,14206,30.3,8月24日 9時時点,42.92666666666667,141.565,恵庭島松,厳重警戒
2023/8/24,9:00,14286,27.8,8月24日 9時時点,42.77166666666667,141.40666666666667,支笏湖畔,警戒
2023/8/24,9:00,15116,30.3,8月24日 9時時点,43.815,141.92666666666668,石狩沼田,厳重警戒
2023/8/24,9:00,15156,31.1,8月24日 9時時点,43.78,141.96166666666667,秩父別,危険
2023/8/24,9:00,15161,30.1,8月24日 9時時点,43.718333333333334,142.07333333333332,深川,厳重警戒
2023/8/24,9:00,15231,30.9,8月24日 9時時点,43.595,141.73166666666665,空知吉野,厳重警戒
2023/8/24,9:00,15241,30.9,8月24日 9時時点,43.57,141.93833333333333,滝川,厳重警戒
2023/8/24,9:00,15251,30.9,8月24日 9時時点,43.52,142.19,芦別,厳重警戒
2023/8/24,9:00,15311,30.5,8月24日 9時時点,43.33,141.61666666666667,月形,厳重警戒
2023/8/24,9:00,15321,29.6,8月24日 9時時点,43.36333333333334,141.82666666666665,美唄,厳重警戒
2023/8/24,9:00,15356,30.5,8月24日 9時時点,43.211666666666666,141.785,岩見沢,厳重警戒
2023/8/24,9:00,15431,31.2,8月24日 9時時点,43.01166666666666,141.69333333333333,長沼,危険
2023/8/24,9:00,15442,30.4,8月24日 9時時点,43.038333333333334,141.95666666666668,夕張,厳重警戒
2023/8/24,9:00,16026,31.5,8月24日 9時時点,43.27166666666667,140.56333333333333,美国,危険
2023/8/24,9:00,16061,30.1,8月24日 9時時点,43.145,140.42333333333335,神恵内,厳重警戒
2023/8/24,9:00,16076,31.9,8月24日 9時時点,43.181666666666665,140.75833333333333,余市,危険
2023/8/24,9:00,16091,29.7,8月24日 9時時点,43.181666666666665,141.015,小樽,厳重警戒
2023/8/24,9:00,16156,33.0,8月24日 9時時点,42.98,140.60333333333332,共和,危険
2023/8/24,9:00,16206,30.8,8月24日 9時時点,42.81,140.54166666666666,蘭越,厳重警戒
2023/8/24,9:00,16217,30.7,8月24日 9時時点,42.9,140.75666666666666,倶知安,厳重警戒
2023/8/24,9:00,16252,29.4,8月24日 9時時点,42.795,140.22333333333333,寿都,厳重警戒
2023/8/24,9:00,16281,30.1,8月24日 9時時点,42.775,140.88,真狩,厳重警戒
2023/8/24,9:00,16286,29.9,8月24日 9時時点,42.79333333333334,140.94833333333332,喜茂別,厳重警戒
2023/8/24,9:00,16321,28.7,8月24日 9時時点,42.663333333333334,140.31,黒松内,厳重警戒
2023/8/24,9:00,17036,28.7,8月24日 9時時点,44.58,142.96333333333334,雄武,厳重警戒
2023/8/24,9:00,17076,30.7,8月24日 9時時点,44.47,143.10833333333332,興部,厳重警戒
2023/8/24,9:00,17091,32.7,8月24日 9時時点,44.33166666666666,142.935,西興部,危険
2023/8/24,9:00,17112,28.9,8月24日 9時時点,44.345,143.355,紋別,厳重警戒
2023/8/24,9:00,17166,32.1,8月24日 9時時点,44.21333333333333,143.61833333333334,湧別,危険
2023/8/24,9:00,17196,32.0,8月24日 9時時点,44.17666666666667,143.06166666666667,滝上,危険
2023/8/24,9:00,17246,32.1,8月24日 9時時点,44.115,144.03666666666666,常呂,危険
2023/8/24,9:00,17306,31.8,8月24日 9時時点,44.053333333333335,143.54,遠軽,危険
2023/8/24,9:00,17316,31.9,8月24日 9時時点,44.01833333333333,143.76,佐呂間,危険
2023/8/24,9:00,17341,27.9,8月24日 9時時点,44.016666666666666,144.27833333333334,網走,警戒
2023/8/24,9:00,17351,32.5,8月24日 9時時点,44.05166666666667,144.98166666666665,宇登呂,危険
2023/8/24,9:00,17482,27.7,8月24日 9時時点,43.865,143.15333333333334,白滝,警戒
2023/8/24,9:00,17501,30.3,8月24日 9時時点,43.916666666666664,143.53166666666667,生田原,厳重警戒
2023/8/24,9:00,17521,32.4,8月24日 9時時点,43.776666666666664,143.84166666666667,北見,危険
2023/8/24,9:00,17546,33.6,8月24日 9時時点,43.84166666666667,144.485,小清水,危険
2023/8/24,9:00,17561,33.2,8月24日 9時時点,43.885,144.7,斜里,危険
2023/8/24,9:00,17596,29.1,8月24日 9時時点,43.74166666666667,143.45,留辺蘂,厳重警戒
2023/8/24,9:00,17607,31.9,8月24日 9時時点,43.70666666666666,143.64333333333335,境野,危険
2023/8/24,9:00,17631,32.7,8月24日 9時時点,43.77,144.17166666666665,美幌,危険
2023/8/24,9:00,17717,32.3,8月24日 9時時点,43.70166666666667,144.03333333333333,津別,危険
2023/8/24,9:00,18038,29.8,8月24日 9時時点,44.02333333333333,145.18666666666667,羅臼,厳重警戒
2023/8/24,9:00,18136,31.8,8月24日 9時時点,43.66166666666667,145.13166666666666,標津,危険
2023/8/24,9:00,18161,31.2,8月24日 9時時点,43.52,144.74666666666667,上標津,危険
2023/8/24,9:00,18171,30.3,8月24日 9時時点,43.54333333333334,144.97833333333332,中標津,厳重警戒
2023/8/24,9:00,18256,28.2,8月24日 9時時点,43.38166666666667,145.11833333333334,別海,厳重警戒
2023/8/24,9:00,18273,26.7,8月24日 9時時点,43.33,145.585,根室,警戒
2023/8/24,9:00,18281,29.9,8月24日 9時時点,43.39333333333333,145.75833333333333,納沙布,厳重警戒
2023/8/24,9:00,18311,27.6,8月24日 9時時点,43.221666666666664,145.22666666666666,厚床,警戒
2023/8/24,9:00,19021,29.1,8月24日 9時時点,43.61666666666667,144.45666666666668,川湯,厳重警戒
2023/8/24,9:00,19051,28.0,8月24日 9時時点,43.51,144.46666666666667,弟子屈,厳重警戒
2023/8/24,9:00,19076,27.7,8月24日 9時時点,43.43666666666667,144.08333333333334,阿寒湖畔,警戒
2023/8/24,9:00,19151,27.4,8月24日 9時時点,43.291666666666664,144.58666666666667,標茶,警戒
2023/8/24,9:00,19191,26.9,8月24日 9時時点,43.23166666666667,144.325,鶴居,警戒
2023/8/24,9:00,19261,29.7,8月24日 9時時点,43.19833333333333,144.14166666666668,中徹別,厳重警戒
2023/8/24,9:00,19311,26.8,8月24日 9時時点,43.12,145.11,榊町,警戒
2023/8/24,9:00,19376,27.1,8月24日 9時時点,43.09,144.77833333333334,太田,警戒
2023/8/24,9:00,19416,28.3,8月24日 9時時点,42.97,144.06166666666667,白糠,厳重警戒
2023/8/24,9:00,19432,25.1,8月24日 9時時点,42.985,144.37666666666667,釧路,警戒
2023/8/24,9:00,19451,24.8,8月24日 9時時点,42.93833333333333,144.735,知方学,注意
2023/8/24,9:00,20146,31.5,8月24日 9時時点,43.471666666666664,143.75333333333333,陸別,危険
2023/8/24,9:00,20186,28.1,8月24日 9時時点,43.36666666666667,143.19166666666666,ぬかびら源泉郷,厳重警戒
2023/8/24,9:00,20266,27.9,8月24日 9時時点,43.24166666666667,143.295,上士幌,警戒
2023/8/24,9:00,20276,27.7,8月24日 9時時点,43.24333333333333,143.55333333333334,足寄,警戒
2023/8/24,9:00,20341,30.5,8月24日 9時時点,43.13166666666667,143.6,本別,厳重警戒
2023/8/24,9:00,20356,30.6,8月24日 9時時点,43.07666666666667,142.84,新得,厳重警戒
2023/8/24,9:00,20361,30.6,8月24日 9時時点,43.10333333333333,142.995,鹿追,厳重警戒
2023/8/24,9:00,20371,25.4,8月24日 9時時点,43.05,143.18333333333334,駒場,警戒
2023/8/24,9:00,20421,29.5,8月24日 9時時点,42.9,143.04333333333332,芽室,厳重警戒
2023/8/24,9:00,20432,27.2,8月24日 9時時点,42.92166666666667,143.21166666666667,帯広,警戒
2023/8/24,9:00,20441,27.4,8月24日 9時時点,42.92,143.45833333333334,池田,警戒
2023/8/24,9:00,20506,26.4,8月24日 9時時点,42.80833333333333,143.65666666666667,浦幌,警戒
2023/8/24,9:00,20556,27.4,8月24日 9時時点,42.78666666666667,143.32833333333335,糠内,警戒
2023/8/24,9:00,20601,29.5,8月24日 9時時点,42.641666666666666,143.09666666666666,上札内,厳重警戒
2023/8/24,9:00,20606,30.8,8月24日 9時時点,42.651666666666664,143.195,更別,厳重警戒
2023/8/24,9:00,20631,26.8,8月24日 9時時点,42.68666666666667,143.64666666666668,大津,警戒
2023/8/24,9:00,20696,29.5,8月24日 9時時点,42.5,143.27333333333334,大樹,厳重警戒
2023/8/24,9:00,20751,28.1,8月24日 9時時点,42.29333333333334,143.31666666666666,広尾,厳重警戒
2023/8/24,9:00,21111,30.6,8月24日 9時時点,42.73,141.88833333333332,厚真,厳重警戒
2023/8/24,9:00,21126,32.7,8月24日 9時時点,42.76166666666667,142.14333333333335,穂別,危険
2023/8/24,9:00,21161,31.3,8月24日 9時時点,42.67,141.07833333333335,大滝,危険
2023/8/24,9:00,21171,25.5,8月24日 9時時点,42.63,141.24666666666667,森野,警戒
2023/8/24,9:00,21187,26.8,8月24日 9時時点,42.623333333333335,141.54666666666665,苫小牧,警戒
2023/8/24,9:00,21226,31.7,8月24日 9時時点,42.59,140.64333333333335,大岸,危険
2023/8/24,9:00,21261,26.0,8月24日 9時時点,42.54333333333334,141.35166666666666,白老,警戒
2023/8/24,9:00,21276,31.2,8月24日 9時時点,42.59,141.93333333333334,鵡川,危険
2023/8/24,9:00,21297,29.4,8月24日 9時時点,42.475,140.84833333333333,伊達,厳重警戒
2023/8/24,9:00,21312,30.1,8月24日 9時時点,42.458333333333336,141.11833333333334,登別,厳重警戒
2023/8/24,9:00,21323,29.2,8月24日 9時時点,42.31166666666667,140.975,室蘭,厳重警戒
2023/8/24,9:00,22036,30.7,8月24日 9時時点,42.876666666666665,142.44166666666666,日高,厳重警戒
2023/8/24,9:00,22141,31.3,8月24日 9時時点,42.49666666666667,142.05333333333334,日高門別,危険
2023/8/24,9:00,22156,32.9,8月24日 9時時点,42.54333333333334,142.33333333333334,新和,危険
2023/8/24,9:00,22241,30.1,8月24日 9時時点,42.343333333333334,142.36166666666668,静内,厳重警戒
2023/8/24,9:00,22291,31.2,8月24日 9時時点,42.245,142.66166666666666,三石,危険
2023/8/24,9:00,22306,32.5,8月24日 9時時点,42.223333333333336,142.94833333333332,中杵臼,危険
2023/8/24,9:00,22327,29.5,8月24日 9時時点,42.16166666666667,142.77666666666667,浦河,厳重警戒
2023/8/24,9:00,22391,29.5,8月24日 9時時点,41.925,143.24333333333334,えりも岬,厳重警戒
2023/8/24,9:00,23031,26.2,8月24日 9時時点,42.52333333333333,140.38166666666666,長万部,警戒
2023/8/24,9:00,23086,25.9,8月24日 9時時点,42.251666666666665,140.27166666666668,八雲,警戒
2023/8/24,9:00,23166,29.7,8月24日 9時時点,42.06666666666667,140.58833333333334,森,厳重警戒
2023/8/24,9:00,23206,30.4,8月24日 9時時点,41.905,140.97,川汲,厳重警戒
2023/8/24,9:00,23226,32.2,8月24日 9時時点,41.88666666666667,140.65333333333334,北斗,危険
2023/8/24,9:00,23232,30.5,8月24日 9時時点,41.81666666666667,140.75333333333333,函館,厳重警戒
2023/8/24,9:00,23326,30.8,8月24日 9時時点,41.68,140.43666666666667,木古内,厳重警戒
2023/8/24,9:00,23376,31.2,8月24日 9時時点,41.42333333333333,140.08666666666667,松前,危険
2023/8/24,9:00,24141,30.0,8月24日 9時時点,42.12833333333333,139.985,熊石,厳重警戒
2023/8/24,9:00,24041,30.7,8月24日 9時時点,42.45,139.85166666666666,せたな,厳重警戒
2023/8/24,9:00,24051,30.4,8月24日 9時時点,42.428333333333335,140.00833333333333,今金,厳重警戒
2023/8/24,9:00,24101,32.2,8月24日 9時時点,42.248333333333335,139.55666666666667,奥尻,危険
2023/8/24,9:00,24201,31.4,8月24日 9時時点,41.93,140.31166666666667,鶉,危険
2023/8/24,9:00,24217,31.1,8月24日 9時時点,41.86666666666667,140.12333333333333,江差,危険
2023/8/24,9:00,31001,30.8,8月24日 9時時点,41.526666666666664,140.91166666666666,大間,厳重警戒
2023/8/24,9:00,31111,30.7,8月24日 9時時点,41.28333333333333,141.21,むつ,厳重警戒
2023/8/24,9:00,31121,30.4,8月24日 9時時点,41.235,141.39666666666668,小田野沢,厳重警戒
2023/8/24,9:00,31136,29.8,8月24日 9時時点,41.18,140.48166666666665,今別,厳重警戒
2023/8/24,9:00,31156,28.2,8月24日 9時時点,41.145,140.82166666666666,脇野沢,厳重警戒
2023/8/24,9:00,31186,31.0,8月24日 9時時点,41.056666666666665,140.34666666666666,市浦,危険
2023/8/24,9:00,31201,29.2,8月24日 9時時点,41.045,140.63333333333333,蟹田,厳重警戒
2023/8/24,9:00,31296,32.6,8月24日 9時時点,40.80833333333333,140.45833333333334,五所川原,危険
2023/8/24,9:00,31312,31.0,8月24日 9時時点,40.821666666666665,140.76833333333335,青森,危険
2023/8/24,9:00,31332,28.4,8月24日 9時時点,40.885,141.16,野辺地,厳重警戒
2023/8/24,9:00,31336,30.6,8月24日 9時時点,40.885,141.27166666666668,六ケ所,厳重警戒
2023/8/24,9:00,31366,32.1,8月24日 9時時点,40.776666666666664,140.205,鰺ケ沢,危険
2023/8/24,9:00,31436,29.3,8月24日 9時時点,40.645,139.93166666666667,深浦,厳重警戒
2023/8/24,9:00,31461,32.0,8月24日 9時時点,40.611666666666665,140.455,弘前,危険
2023/8/24,9:00,31466,31.8,8月24日 9時時点,40.666666666666664,140.585,黒石,危険
2023/8/24,9:00,31482,26.4,8月24日 9時時点,40.64833333333333,140.84833333333333,酸ケ湯,警戒
2023/8/24,9:00,31506,32.3,8月24日 9時時点,40.675,141.375,三沢,危険
2023/8/24,9:00,31586,31.8,8月24日 9時時点,40.60666666666667,141.23333333333332,十和田,危険
2023/8/24,9:00,31602,31.2,8月24日 9時時点,40.526666666666664,141.52166666666668,八戸,危険
2023/8/24,9:00,31646,31.1,8月24日 9時時点,40.48166666666667,140.62,碇ケ関,危険
2023/8/24,9:00,31662,29.2,8月24日 9時時点,40.42666666666667,140.89833333333334,休屋,厳重警戒
2023/8/24,9:00,31721,31.2,8月24日 9時時点,40.38333333333333,141.25666666666666,三戸,危険
2023/8/24,9:00,32056,28.6,8月24日 9時時点,40.413333333333334,139.94833333333332,八森,厳重警戒
2023/8/24,9:00,32111,30.9,8月24日 9時時点,40.19833333333333,140.03166666666667,能代,厳重警戒
2023/8/24,9:00,32126,31.8,8月24日 9時時点,40.22666666666667,140.37166666666667,鷹巣,危険
2023/8/24,9:00,32136,30.4,8月24日 9時時点,40.251666666666665,140.505,大館,厳重警戒
2023/8/24,9:00,32146,30.2,8月24日 9時時点,40.215,140.78666666666666,鹿角,厳重警戒
2023/8/24,9:00,32206,30.9,8月24日 9時時点,40.12,140.84,湯瀬,厳重警戒
2023/8/24,9:00,32266,29.1,8月24日 9時時点,40.013333333333335,140.80166666666668,八幡平,厳重警戒
2023/8/24,9:00,32286,30.5,8月24日 9時時点,39.91166666666667,139.9,男鹿,厳重警戒
2023/8/24,9:00,32287,32.2,8月24日 9時時点,40.0,139.95,大潟,危険
2023/8/24,9:00,32296,32.1,8月24日 9時時点,39.93833333333333,140.115,五城目,危険
2023/8/24,9:00,32311,31.2,8月24日 9時時点,39.99333333333333,140.40333333333334,阿仁合,危険
2023/8/24,9:00,32402,31.5,8月24日 9時時点,39.71666666666667,140.09833333333333,秋田,危険
2023/8/24,9:00,32407,31.3,8月24日 9時時点,39.70666666666666,140.28666666666666,岩見三内,危険
2023/8/24,9:00,32466,31.8,8月24日 9時時点,39.60333333333333,140.55666666666667,角館,危険
2023/8/24,9:00,32476,30.2,8月24日 9時時点,39.69833333333333,140.73166666666665,田沢湖,厳重警戒
2023/8/24,9:00,32496,30.3,8月24日 9時時点,39.526666666666664,140.23333333333332,大正寺,厳重警戒
2023/8/24,9:00,32551,31.5,8月24日 9時時点,39.49,140.495,大曲,危険
2023/8/24,9:00,32571,30.6,8月24日 9時時点,39.36,140.055,本荘,厳重警戒
2023/8/24,9:00,32581,30.8,8月24日 9時時点,39.305,140.28833333333333,東由利,厳重警戒
2023/8/24,9:00,32596,32.9,8月24日 9時時点,39.32,140.555,横手,危険
2023/8/24,9:00,32616,31.4,8月24日 9時時点,39.255,139.91333333333333,にかほ,危険
2023/8/24,9:00,32626,29.7,8月24日 9時時点,39.235,140.13666666666666,矢島,厳重警戒
2023/8/24,9:00,32691,31.0,8月24日 9時時点,39.18666666666667,140.46333333333334,湯沢,危険
2023/8/24,9:00,32771,29.5,8月24日 9時時点,38.96,140.52833333333334,湯の岱,厳重警戒
2023/8/24,9:00,33006,30.7,8月24日 9時時点,40.403333333333336,141.7,種市,厳重警戒
2023/8/24,9:00,33026,31.0,8月24日 9時時点,40.325,141.46666666666667,軽米,危険
2023/8/24,9:00,33071,30.7,8月24日 9時時点,40.29833333333333,141.29833333333335,二戸,厳重警戒
2023/8/24,9:00,33136,31.0,8月24日 9時時点,40.14833333333333,141.57166666666666,山形,危険
2023/8/24,9:00,33146,32.0,8月24日 9時時点,40.16833333333334,141.74833333333333,久慈,危険
2023/8/24,9:00,33166,29.9,8月24日 9時時点,40.10333333333333,141.05,荒屋,厳重警戒
2023/8/24,9:00,33176,28.1,8月24日 9時時点,40.06,141.225,奥中山,厳重警戒
2023/8/24,9:00,33186,28.5,8月24日 9時時点,40.04,141.45666666666668,葛巻,厳重警戒
2023/8/24,9:00,33206,30.7,8月24日 9時時点,40.00333333333333,141.88333333333333,普代,厳重警戒
2023/8/24,9:00,33226,29.1,8月24日 9時時点,39.95166666666667,141.065,岩手松尾,厳重警戒
2023/8/24,9:00,33296,29.5,8月24日 9時時点,39.86833333333333,141.16666666666666,好摩,厳重警戒
2023/8/24,9:00,33326,31.4,8月24日 9時時点,39.846666666666664,141.795,岩泉,危険
2023/8/24,9:00,33336,30.7,8月24日 9時時点,39.846666666666664,141.96333333333334,小本,厳重警戒
2023/8/24,9:00,33371,24.6,8月24日 9時時点,39.78333333333333,141.32833333333335,薮川,注意
2023/8/24,9:00,33421,27.6,8月24日 9時時点,39.696666666666665,140.975,雫石,警戒
2023/8/24,9:00,33431,27.2,8月24日 9時時点,39.69833333333333,141.165,盛岡,警戒
2023/8/24,9:00,33441,24.1,8月24日 9時時点,39.65,141.35333333333332,区界,注意
2023/8/24,9:00,33472,31.5,8月24日 9時時点,39.64666666666667,141.965,宮古,危険
2023/8/24,9:00,33486,26.4,8月24日 9時時点,39.54833333333333,140.84333333333333,沢内,警戒
2023/8/24,9:00,33501,27.3,8月24日 9時時点,39.54666666666667,141.12666666666667,紫波,警戒
2023/8/24,9:00,33526,31.5,8月24日 9時時点,39.598333333333336,141.68166666666667,川井,危険
2023/8/24,9:00,33581,28.5,8月24日 9時時点,39.47,141.27833333333334,大迫,厳重警戒
2023/8/24,9:00,33616,30.6,8月24日 9時時点,39.45,141.95666666666668,山田,厳重警戒
2023/8/24,9:00,33631,30.0,8月24日 9時時点,39.31,140.77666666666667,湯田,厳重警戒
2023/8/24,9:00,33671,30.9,8月24日 9時時点,39.33833333333333,141.54333333333332,遠野,厳重警戒
2023/8/24,9:00,33716,27.6,8月24日 9時時点,39.288333333333334,141.11,北上,警戒
2023/8/24,9:00,33751,34.6,8月24日 9時時点,39.27,141.87833333333333,釜石,危険
2023/8/24,9:00,33776,27.6,8月24日 9時時点,39.14,141.06333333333333,若柳,警戒
2023/8/24,9:00,33781,28.8,8月24日 9時時点,39.18333333333333,141.16166666666666,江刺,厳重警戒
2023/8/24,9:00,33801,31.9,8月24日 9時時点,39.141666666666666,141.57333333333332,住田,危険
2023/8/24,9:00,33877,29.9,8月24日 9時時点,39.06333333333333,141.71333333333334,大船渡,厳重警戒
2023/8/24,9:00,33911,28.1,8月24日 9時時点,38.93333333333333,141.125,一関,厳重警戒
2023/8/24,9:00,33921,30.8,8月24日 9時時点,38.92166666666667,141.33,千厩,厳重警戒
2023/8/24,9:00,34012,22.7,8月24日 9時時点,38.913333333333334,140.82833333333335,駒ノ湯,注意
2023/8/24,9:00,34026,30.3,8月24日 9時時点,38.906666666666666,141.55666666666667,気仙沼,厳重警戒
2023/8/24,9:00,34096,25.5,8月24日 9時時点,38.74333333333333,140.76,川渡,警戒
2023/8/24,9:00,34111,29.0,8月24日 9時時点,38.735,141.005,築館,厳重警戒
2023/8/24,9:00,34171,31.2,8月24日 9時時点,38.626666666666665,141.18833333333333,米山,危険
2023/8/24,9:00,34186,31.9,8月24日 9時時点,38.681666666666665,141.44833333333332,志津川,危険
2023/8/24,9:00,34216,30.1,8月24日 9時時点,38.598333333333336,140.91166666666666,古川,厳重警戒
2023/8/24,9:00,34266,27.5,8月24日 9時時点,38.473333333333336,140.88833333333332,大衡,警戒
2023/8/24,9:00,34276,29.6,8月24日 9時時点,38.46,141.09166666666667,鹿島台,厳重警戒
2023/8/24,9:00,34292,30.2,8月24日 9時時点,38.42666666666667,141.29833333333335,石巻,厳重警戒
2023/8/24,9:00,34296,30.4,8月24日 9時時点,38.446666666666665,141.45,女川,厳重警戒
2023/8/24,9:00,34311,27.4,8月24日 9時時点,38.303333333333335,140.63666666666666,新川,警戒
2023/8/24,9:00,34331,30.8,8月24日 9時時点,38.33833333333333,141.01333333333332,塩釜,厳重警戒
2023/8/24,9:00,34392,30.0,8月24日 9時時点,38.26166666666666,140.89666666666668,仙台,厳重警戒
2023/8/24,9:00,34461,31.3,8月24日 9時時点,38.015,140.61166666666668,白石,危険
2023/8/24,9:00,34462,29.6,8月24日 9時時点,38.126666666666665,140.68,蔵王,厳重警戒
2023/8/24,9:00,34471,29.9,8月24日 9時時点,38.025,140.85833333333332,亘理,厳重警戒
2023/8/24,9:00,34506,32.1,8月24日 9時時点,37.931666666666665,140.77833333333334,丸森,危険
2023/8/24,9:00,35002,31.5,8月24日 9時時点,39.18333333333333,139.54333333333332,飛島,危険
2023/8/24,9:00,35052,30.5,8月24日 9時時点,38.90833333333333,139.84333333333333,酒田,厳重警戒
2023/8/24,9:00,35071,29.1,8月24日 9時時点,38.91833333333334,140.2,差首鍋,厳重警戒
2023/8/24,9:00,35116,29.7,8月24日 9時時点,38.87833333333333,140.33166666666668,金山,厳重警戒
2023/8/24,9:00,35141,31.4,8月24日 9時時点,38.735,139.82833333333335,鶴岡,危険
2023/8/24,9:00,35146,30.7,8月24日 9時時点,38.8,139.97333333333333,狩川,厳重警戒
2023/8/24,9:00,35162,30.6,8月24日 9時時点,38.75666666666667,140.31166666666667,新庄,厳重警戒
2023/8/24,9:00,35176,29.4,8月24日 9時時点,38.75833333333333,140.51666666666668,向町,厳重警戒
2023/8/24,9:00,35216,28.8,8月24日 9時時点,38.60666666666667,140.16333333333333,肘折,厳重警戒
2023/8/24,9:00,35231,30.8,8月24日 9時時点,38.608333333333334,140.41166666666666,尾花沢,厳重警戒
2023/8/24,9:00,35246,31.3,8月24日 9時時点,38.56666666666667,139.55166666666668,鼠ケ関,危険
2023/8/24,9:00,35332,30.9,8月24日 9時時点,38.46,140.34833333333333,村山,厳重警戒
2023/8/24,9:00,35361,27.8,8月24日 9時時点,38.39,139.99333333333334,大井沢,警戒
2023/8/24,9:00,35376,29.9,8月24日 9時時点,38.37,140.19166666666666,左沢,厳重警戒
2023/8/24,9:00,35426,29.8,8月24日 9時時点,38.255,140.345,山形,厳重警戒
2023/8/24,9:00,35456,29.5,8月24日 9時時点,38.105,140.015,長井,厳重警戒
2023/8/24,9:00,35486,30.2,8月24日 9時時点,38.07833333333333,139.735,小国,厳重警戒
2023/8/24,9:00,35511,30.9,8月24日 9時時点,38.00333333333333,140.20666666666668,高畠,厳重警戒
2023/8/24,9:00,35541,29.5,8月24日 9時時点,37.99,139.95333333333335,高峰,厳重警戒
2023/8/24,9:00,35552,30.6,8月24日 9時時点,37.91166666666667,140.14333333333335,米沢,厳重警戒
2023/8/24,9:00,36056,26.5,8月24日 9時時点,37.891666666666666,140.43666666666667,茂庭,警戒
2023/8/24,9:00,36066,31.9,8月24日 9時時点,37.85166666666667,140.58833333333334,梁川,危険
2023/8/24,9:00,36106,27.1,8月24日 9時時点,37.721666666666664,140.05833333333334,桧原,警戒
2023/8/24,9:00,36127,30.1,8月24日 9時時点,37.75833333333333,140.47,福島,厳重警戒
2023/8/24,9:00,36151,31.0,8月24日 9時時点,37.78333333333333,140.925,相馬,危険
2023/8/24,9:00,36176,31.9,8月24日 9時時点,37.65833333333333,139.86333333333334,喜多方,危険
2023/8/24,9:00,36196,24.2,8月24日 9時時点,37.66833333333334,140.26,鷲倉,注意
2023/8/24,9:00,36221,27.8,8月24日 9時時点,37.665,140.72666666666666,飯舘,警戒
2023/8/24,9:00,36251,30.6,8月24日 9時時点,37.58833333333333,139.65666666666667,西会津,厳重警戒
2023/8/24,9:00,36276,29.0,8月24日 9時時点,37.55166666666667,140.10833333333332,猪苗代,厳重警戒
2023/8/24,9:00,36291,30.2,8月24日 9時時点,37.583333333333336,140.43,二本松,厳重警戒
2023/8/24,9:00,36342,28.4,8月24日 9時時点,37.473333333333336,139.52833333333334,金山,厳重警戒
2023/8/24,9:00,36361,31.2,8月24日 9時時点,37.48833333333334,139.91,若松,危険
2023/8/24,9:00,36391,29.8,8月24日 9時時点,37.435,140.57666666666665,船引,厳重警戒
2023/8/24,9:00,36411,32.1,8月24日 9時時点,37.49166666666667,140.965,浪江,危険
2023/8/24,9:00,36426,27.9,8月24日 9時時点,37.343333333333334,139.31333333333333,只見,警戒
2023/8/24,9:00,36476,28.0,8月24日 9時時点,37.36833333333333,140.33,郡山,厳重警戒
2023/8/24,9:00,36501,29.3,8月24日 9時時点,37.336666666666666,140.80833333333334,川内,厳重警戒
2023/8/24,9:00,36536,28.2,8月24日 9時時点,37.265,139.53666666666666,南郷,厳重警戒
2023/8/24,9:00,36562,27.5,8月24日 9時時点,37.276666666666664,140.06333333333333,湯本,警戒
2023/8/24,9:00,36591,29.1,8月24日 9時時点,37.28666666666667,140.625,小野新町,厳重警戒
2023/8/24,9:00,36611,30.3,8月24日 9時時点,37.233333333333334,141.0,広野,厳重警戒
2023/8/24,9:00,36641,27.9,8月24日 9時時点,37.20666666666666,139.795,田島,警戒
2023/8/24,9:00,36667,26.4,8月24日 9時時点,37.13166666666667,140.215,白河,警戒
2023/8/24,9:00,36676,29.6,8月24日 9時時点,37.14666666666667,140.46,石川,厳重警戒
2023/8/24,9:00,36716,28.2,8月24日 9時時点,37.01,139.375,桧枝岐,厳重警戒
2023/8/24,9:00,36821,31.2,8月24日 9時時点,36.93833333333333,140.40833333333333,東白川,危険
2023/8/24,9:00,36836,32.9,8月24日 9時時点,36.93333333333333,140.73333333333332,山田,危険
2023/8/24,9:00,36846,30.0,8月24日 9時時点,36.946666666666665,140.90333333333334,小名浜,厳重警戒
2023/8/24,9:00,40046,30.4,8月24日 9時時点,36.833333333333336,140.77166666666668,北茨城,厳重警戒
2023/8/24,9:00,40061,31.7,8月24日 9時時点,36.778333333333336,140.345,大子,危険
2023/8/24,9:00,40091,31.7,8月24日 9時時点,36.60666666666667,140.325,常陸大宮,危険
2023/8/24,9:00,40136,29.8,8月24日 9時時点,36.58,140.645,日立,厳重警戒
2023/8/24,9:00,40191,31.1,8月24日 9時時点,36.395,140.24,笠間,危険
2023/8/24,9:00,40201,29.9,8月24日 9時時点,36.38,140.46666666666667,水戸,厳重警戒
2023/8/24,9:00,40221,31.3,8月24日 9時時点,36.20166666666667,139.71666666666667,古河,危険
2023/8/24,9:00,40231,30.6,8月24日 9時時点,36.281666666666666,139.98833333333334,下館,厳重警戒
2023/8/24,9:00,40281,30.1,8月24日 9時時点,36.16833333333334,139.945,下妻,厳重警戒
2023/8/24,9:00,40311,31.9,8月24日 9時時点,36.16833333333334,140.52666666666667,鉾田,危険
2023/8/24,9:00,40336,30.3,8月24日 9時時点,36.056666666666665,140.125,つくば,厳重警戒
2023/8/24,9:00,40341,31.7,8月24日 9時時点,36.10333333333333,140.22,土浦,危険
2023/8/24,9:00,40406,31.5,8月24日 9時時点,35.96333333333333,140.62166666666667,鹿嶋,危険
2023/8/24,9:00,40426,31.0,8月24日 9時時点,35.89,140.21166666666667,龍ケ崎,危険
2023/8/24,9:00,41011,24.4,8月24日 9時時点,37.123333333333335,140.035,那須高原,注意
2023/8/24,9:00,41076,25.3,8月24日 9時時点,36.92166666666667,139.695,五十里,警戒
2023/8/24,9:00,41091,29.4,8月24日 9時時点,36.98166666666667,140.01833333333335,黒磯,厳重警戒
2023/8/24,9:00,41116,22.7,8月24日 9時時点,36.891666666666666,139.56833333333333,土呂部,注意
2023/8/24,9:00,41141,29.1,8月24日 9時時点,36.84,140.035,大田原,厳重警戒
2023/8/24,9:00,41166,21.8,8月24日 9時時点,36.73833333333333,139.5,奥日光,注意
2023/8/24,9:00,41172,28.9,8月24日 9時時点,36.75,139.615,日光東町,厳重警戒
2023/8/24,9:00,41181,27.6,8月24日 9時時点,36.75666666666667,139.88333333333333,塩谷,警戒
2023/8/24,9:00,41247,32.7,8月24日 9時時点,36.641666666666666,140.11666666666667,那須烏山,危険
2023/8/24,9:00,41271,31.0,8月24日 9時時点,36.59166666666667,139.735,鹿沼,危険
2023/8/24,9:00,41277,29.9,8月24日 9時時点,36.54833333333333,139.86833333333334,宇都宮,厳重警戒
2023/8/24,9:00,41331,31.4,8月24日 9時時点,36.47666666666667,139.98666666666668,真岡,危険
2023/8/24,9:00,41361,28.8,8月24日 9時時点,36.36333333333334,139.57,佐野,厳重警戒
2023/8/24,9:00,41376,28.7,8月24日 9時時点,36.33833333333333,139.83,小山,厳重警戒
2023/8/24,9:00,42046,24.9,8月24日 9時時点,36.86333333333333,139.05833333333334,藤原,注意
2023/8/24,9:00,42091,26.4,8月24日 9時時点,36.77333333333333,138.965,みなかみ,警戒
2023/8/24,9:00,42121,20.0,8月24日 9時時点,36.61666666666667,138.59166666666667,草津,ほぼ安全
2023/8/24,9:00,42146,27.8,8月24日 9時時点,36.66833333333334,139.02166666666668,沼田,警戒
2023/8/24,9:00,42186,25.0,8月24日 9時時点,36.586666666666666,138.85,中之条,警戒
2023/8/24,9:00,42221,19.4,8月24日 9時時点,36.46333333333333,138.46333333333334,田代,ほぼ安全
2023/8/24,9:00,42251,27.9,8月24日 9時時点,36.405,139.06,前橋,警戒
2023/8/24,9:00,42266,28.6,8月24日 9時時点,36.41,139.325,桐生,厳重警戒
2023/8/24,9:00,42286,27.6,8月24日 9時時点,36.376666666666665,138.895,上里見,警戒
2023/8/24,9:00,42302,28.3,8月24日 9時時点,36.33166666666666,139.165,伊勢崎,厳重警戒
2023/8/24,9:00,42326,27.6,8月24日 9時時点,36.245,138.70666666666668,西野牧,警戒
2023/8/24,9:00,42366,29.8,8月24日 9時時点,36.24,139.51333333333332,館林,厳重警戒
2023/8/24,9:00,42396,28.8,8月24日 9時時点,36.108333333333334,138.89666666666668,神流,厳重警戒
2023/8/24,9:00,43051,28.5,8月24日 9時時点,36.105,139.18333333333334,寄居,厳重警戒
2023/8/24,9:00,43056,30.9,8月24日 9時時点,36.15,139.38,熊谷,厳重警戒
2023/8/24,9:00,43126,31.9,8月24日 9時時点,36.086666666666666,139.635,久喜,危険
2023/8/24,9:00,43156,29.3,8月24日 9時時点,35.99,139.07333333333332,秩父,厳重警戒
2023/8/24,9:00,43171,31.3,8月24日 9時時点,35.985,139.335,鳩山,危険
2023/8/24,9:00,43241,29.3,8月24日 9時時点,35.875,139.58666666666667,さいたま,厳重警戒
2023/8/24,9:00,43256,31.8,8月24日 9時時点,35.88333333333333,139.75666666666666,越谷,危険
2023/8/24,9:00,43266,29.5,8月24日 9時時点,35.77333333333333,139.41333333333333,所沢,厳重警戒
2023/8/24,9:00,44046,26.2,8月24日 9時時点,35.791666666666664,139.05,小河内,警戒
2023/8/24,9:00,44056,30.4,8月24日 9時時点,35.788333333333334,139.31166666666667,青梅,厳重警戒
2023/8/24,9:00,44071,30.4,8月24日 9時時点,35.73833333333333,139.59166666666667,練馬,厳重警戒
2023/8/24,9:00,44112,30.7,8月24日 9時時点,35.666666666666664,139.31666666666666,八王子,厳重警戒
2023/8/24,9:00,44116,27.5,8月24日 9時時点,35.68333333333333,139.48333333333332,府中,警戒
2023/8/24,9:00,44132,28.0,8月24日 9時時点,35.69166666666667,139.75,東京,厳重警戒
2023/8/24,9:00,44136,31.1,8月24日 9時時点,35.638333333333335,139.86333333333334,江戸川臨海,危険
2023/8/24,9:00,44172,30.6,8月24日 9時時点,34.748333333333335,139.36166666666668,大島,厳重警戒
2023/8/24,9:00,44226,30.3,8月24日 9時時点,34.123333333333335,139.52,三宅島,厳重警戒
2023/8/24,9:00,44263,30.4,8月24日 9時時点,33.12166666666667,139.77833333333334,八丈島,厳重警戒
2023/8/24,9:00,44301,30.3,8月24日 9時時点,27.091666666666665,142.19,父島,厳重警戒
2023/8/24,9:00,45061,30.7,8月24日 9時時点,35.86333333333333,140.11,我孫子,厳重警戒
2023/8/24,9:00,45081,30.3,8月24日 9時時点,35.858333333333334,140.50166666666667,香取,厳重警戒
2023/8/24,9:00,45106,29.9,8月24日 9時時点,35.711666666666666,140.04333333333332,船橋,厳重警戒
2023/8/24,9:00,45116,32.1,8月24日 9時時点,35.72833333333333,140.21166666666667,佐倉,危険
2023/8/24,9:00,45147,31.0,8月24日 9時時点,35.73833333333333,140.85666666666665,銚子,危険
2023/8/24,9:00,45181,30.7,8月24日 9時時点,35.655,140.505,横芝光,厳重警戒
2023/8/24,9:00,45212,28.5,8月24日 9時時点,35.60166666666667,140.10333333333332,千葉,厳重警戒
2023/8/24,9:00,45261,28.3,8月24日 9時時点,35.43666666666667,140.29333333333332,茂原,厳重警戒
2023/8/24,9:00,45282,30.4,8月24日 9時時点,35.361666666666665,139.94,木更津,厳重警戒
2023/8/24,9:00,45291,30.5,8月24日 9時時点,35.39666666666667,140.14833333333334,牛久,厳重警戒
2023/8/24,9:00,45326,30.7,8月24日 9時時点,35.235,140.09833333333333,坂畑,厳重警戒
2023/8/24,9:00,45361,31.6,8月24日 9時時点,35.111666666666665,140.1,鴨川,危険
2023/8/24,9:00,45371,31.6,8月24日 9時時点,35.15,140.31166666666667,勝浦,危険
2023/8/24,9:00,45401,28.4,8月24日 9時時点,34.986666666666665,139.865,館山,厳重警戒
2023/8/24,9:00,46091,27.2,8月24日 9時時点,35.43333333333333,139.38666666666666,海老名,警戒
2023/8/24,9:00,46106,29.6,8月24日 9時時点,35.43833333333333,139.65166666666667,横浜,厳重警戒
2023/8/24,9:00,46141,32.4,8月24日 9時時点,35.32,139.45,辻堂,危険
2023/8/24,9:00,46166,31.9,8月24日 9時時点,35.276666666666664,139.155,小田原,危険
2023/8/24,9:00,46211,30.1,8月24日 9時時点,35.178333333333335,139.63,三浦,厳重警戒
2023/8/24,9:00,48031,26.4,8月24日 9時時点,36.91166666666667,138.44166666666666,野沢温泉,警戒
2023/8/24,9:00,48061,27.3,8月24日 9時時点,36.80833333333333,138.19666666666666,信濃町,警戒
2023/8/24,9:00,48066,29.4,8月24日 9時時点,36.875,138.375,飯山,厳重警戒
2023/8/24,9:00,48141,26.5,8月24日 9時時点,36.69833333333333,137.86166666666668,白馬,警戒
2023/8/24,9:00,48156,28.3,8月24日 9時時点,36.66166666666667,138.19166666666666,長野,厳重警戒
2023/8/24,9:00,48191,25.3,8月24日 9時時点,36.52333333333333,137.83166666666668,大町,警戒
2023/8/24,9:00,48196,28.0,8月24日 9時時点,36.54833333333333,137.99666666666667,信州新町,厳重警戒
2023/8/24,9:00,48216,20.7,8月24日 9時時点,36.531666666666666,138.325,菅平,ほぼ安全
2023/8/24,9:00,48256,29.0,8月24日 9時時点,36.4,138.265,上田,厳重警戒
2023/8/24,9:00,48296,28.2,8月24日 9時時点,36.343333333333334,137.88166666666666,穂高,厳重警戒
2023/8/24,9:00,48321,26.7,8月24日 9時時点,36.38333333333333,138.38333333333333,東御,警戒
2023/8/24,9:00,48331,24.6,8月24日 9時時点,36.34166666666667,138.54666666666665,軽井沢,注意
2023/8/24,9:00,48361,27.5,8月24日 9時時点,36.24666666666667,137.97,松本,警戒
2023/8/24,9:00,48381,24.8,8月24日 9時時点,36.27166666666667,138.31333333333333,立科,注意
2023/8/24,9:00,48386,28.8,8月24日 9時時点,36.24666666666667,138.47666666666666,佐久,厳重警戒
2023/8/24,9:00,48466,24.9,8月24日 9時時点,36.08833333333333,137.68333333333334,奈川,注意
2023/8/24,9:00,48491,26.7,8月24日 9時時点,36.045,138.10833333333332,諏訪,警戒
2023/8/24,9:00,48531,23.4,8月24日 9時時点,35.93833333333333,137.60166666666666,開田高原,注意
2023/8/24,9:00,48536,27.2,8月24日 9時時点,35.93666666666667,137.78666666666666,木祖薮原,警戒
2023/8/24,9:00,48546,27.0,8月24日 9時時点,35.983333333333334,137.98333333333332,辰野,警戒
2023/8/24,9:00,48561,22.6,8月24日 9時時点,35.97,138.22,原村,注意
2023/8/24,9:00,48571,22.7,8月24日 9時時点,35.94833333333333,138.47166666666666,野辺山,注意
2023/8/24,9:00,48606,26.7,8月24日 9時時点,35.84,137.68833333333333,木曽福島,警戒
2023/8/24,9:00,48621,25.2,8月24日 9時時点,35.825,137.955,伊那,警戒
2023/8/24,9:00,48717,23.3,8月24日 9時時点,35.61,137.62,南木曽,注意
2023/8/24,9:00,48731,25.2,8月24日 9時時点,35.653333333333336,137.89833333333334,飯島,警戒
2023/8/24,9:00,48767,25.0,8月24日 9時時点,35.52333333333333,137.82166666666666,飯田,警戒
2023/8/24,9:00,48826,22.2,8月24日 9時時点,35.373333333333335,137.69166666666666,浪合,注意
2023/8/24,9:00,48841,24.9,8月24日 9時時点,35.321666666666665,137.93166666666667,南信濃,注意
2023/8/24,9:00,49036,24.3,8月24日 9時時点,35.861666666666665,138.38666666666666,大泉,注意
2023/8/24,9:00,49086,27.9,8月24日 9時時点,35.693333333333335,138.44833333333332,韮崎,警戒
2023/8/24,9:00,49142,29.6,8月24日 9時時点,35.666666666666664,138.55333333333334,甲府,厳重警戒
2023/8/24,9:00,49151,26.8,8月24日 9時時点,35.663333333333334,138.725,勝沼,警戒
2023/8/24,9:00,49161,28.5,8月24日 9時時点,35.608333333333334,138.93833333333333,大月,厳重警戒
2023/8/24,9:00,49196,24.6,8月24日 9時時点,35.528333333333336,138.615,古関,注意
2023/8/24,9:00,49236,27.0,8月24日 9時時点,35.46666666666667,138.44166666666666,切石,警戒
2023/8/24,9:00,49251,24.1,8月24日 9時時点,35.5,138.76,河口湖,注意
2023/8/24,9:00,49256,24.3,8月24日 9時時点,35.43666666666667,138.83666666666667,山中,注意
2023/8/24,9:00,49316,27.1,8月24日 9時時点,35.288333333333334,138.445,南部,警戒
2023/8/24,9:00,50106,23.8,8月24日 9時時点,35.21666666666667,138.22166666666666,井川,注意
2023/8/24,9:00,50136,25.9,8月24日 9時時点,35.305,138.92666666666668,御殿場,警戒
2023/8/24,9:00,50196,30.1,8月24日 9時時点,35.185,138.66333333333333,富士,厳重警戒
2023/8/24,9:00,50206,30.5,8月24日 9時時点,35.11333333333334,138.925,三島,厳重警戒
2023/8/24,9:00,50226,24.5,8月24日 9時時点,35.056666666666665,137.76166666666666,佐久間,注意
2023/8/24,9:00,50241,25.6,8月24日 9時時点,35.10166666666667,138.12833333333333,川根本町,警戒
2023/8/24,9:00,50261,30.3,8月24日 9時時点,35.053333333333335,138.52166666666668,清水,厳重警戒
2023/8/24,9:00,50281,30.1,8月24日 9時時点,35.045,139.09166666666667,網代,厳重警戒
2023/8/24,9:00,50331,29.5,8月24日 9時時点,34.975,138.40333333333334,静岡,厳重警戒
2023/8/24,9:00,50386,25.3,8月24日 9時時点,34.89,137.81333333333333,天竜,警戒
2023/8/24,9:00,50456,26.0,8月24日 9時時点,34.75333333333333,137.71166666666667,浜松,警戒
2023/8/24,9:00,50476,26.0,8月24日 9時時点,34.785,138.13833333333332,菊川牧之原,警戒
2023/8/24,9:00,50491,31.0,8月24日 9時時点,34.755,138.78333333333333,松崎,危険
2023/8/24,9:00,50506,29.8,8月24日 9時時点,34.781666666666666,139.04833333333335,稲取,厳重警戒
2023/8/24,9:00,50536,26.5,8月24日 9時時点,34.69166666666667,137.88,磐田,警戒
2023/8/24,9:00,50551,28.5,8月24日 9時時点,34.60333333333333,138.21333333333334,御前崎,厳重警戒
2023/8/24,9:00,50561,28.4,8月24日 9時時点,34.60333333333333,138.84166666666667,石廊崎,厳重警戒
2023/8/24,9:00,51031,26.1,8月24日 9時時点,35.21666666666667,136.69833333333332,愛西,警戒
2023/8/24,9:00,51071,23.6,8月24日 9時時点,35.211666666666666,137.50666666666666,稲武,注意
2023/8/24,9:00,51106,24.5,8月24日 9時時点,35.166666666666664,136.965,名古屋,注意
2023/8/24,9:00,51116,26.0,8月24日 9時時点,35.13166666666667,137.17666666666668,豊田,警戒
2023/8/24,9:00,51216,25.7,8月24日 9時時点,34.995,136.94333333333333,大府,警戒
2023/8/24,9:00,51226,25.6,8月24日 9時時点,34.91833333333334,137.19333333333333,岡崎,警戒
2023/8/24,9:00,51247,25.1,8月24日 9時時点,34.906666666666666,137.51833333333335,新城,警戒
2023/8/24,9:00,51281,25.1,8月24日 9時時点,34.845,137.21666666666667,蒲郡,警戒
2023/8/24,9:00,51311,26.9,8月24日 9時時点,34.74,136.93833333333333,南知多,警戒
2023/8/24,9:00,51331,26.4,8月24日 9時時点,34.75,137.34166666666667,豊橋,警戒
2023/8/24,9:00,51346,27.5,8月24日 9時時点,34.62833333333333,137.09333333333333,伊良湖,警戒
2023/8/24,9:00,52041,24.5,8月24日 9時時点,36.305,137.1,河合,注意
2023/8/24,9:00,52051,27.8,8月24日 9時時点,36.321666666666665,137.30833333333334,神岡,警戒
2023/8/24,9:00,52081,26.4,8月24日 9時時点,36.27333333333333,136.89666666666668,白川,警戒
2023/8/24,9:00,52111,26.4,8月24日 9時時点,36.248333333333335,137.50333333333333,栃尾,警戒
2023/8/24,9:00,52146,25.4,8月24日 9時時点,36.155,137.25333333333333,高山,警戒
2023/8/24,9:00,52181,22.0,8月24日 9時時点,36.06,137.035,六厩,注意
2023/8/24,9:00,52196,24.2,8月24日 9時時点,36.015,137.38833333333332,宮之前,注意
2023/8/24,9:00,52221,25.3,8月24日 9時時点,35.92333333333333,136.83166666666668,長滝,警戒
2023/8/24,9:00,52286,25.7,8月24日 9時時点,35.888333333333335,137.20666666666668,萩原,警戒
2023/8/24,9:00,52331,26.1,8月24日 9時時点,35.75666666666667,136.97833333333332,八幡,警戒
2023/8/24,9:00,52346,24.6,8月24日 9時時点,35.763333333333335,137.28833333333333,宮地,注意
2023/8/24,9:00,52381,26.5,8月24日 9時時点,35.638333333333335,136.60166666666666,樽見,警戒
2023/8/24,9:00,52406,25.1,8月24日 9時時点,35.66166666666667,137.16,金山,警戒
2023/8/24,9:00,52461,26.0,8月24日 9時時点,35.555,136.91,美濃,警戒
2023/8/24,9:00,52482,24.0,8月24日 9時時点,35.598333333333336,137.31833333333333,黒川,注意
2023/8/24,9:00,52511,27.4,8月24日 9時時点,35.485,136.56666666666666,揖斐川,警戒
2023/8/24,9:00,52536,26.3,8月24日 9時時点,35.445,137.005,美濃加茂,警戒
2023/8/24,9:00,52556,24.2,8月24日 9時時点,35.446666666666665,137.40333333333334,恵那,注意
2023/8/24,9:00,52557,24.4,8月24日 9時時点,35.47666666666667,137.48666666666668,中津川,注意
2023/8/24,9:00,52571,26.5,8月24日 9時時点,35.36333333333334,136.46666666666667,関ケ原,警戒
2023/8/24,9:00,52581,27.4,8月24日 9時時点,35.346666666666664,136.62,大垣,警戒
2023/8/24,9:00,52586,26.0,8月24日 9時時点,35.4,136.76166666666666,岐阜,警戒
2023/8/24,9:00,52606,26.2,8月24日 9時時点,35.346666666666664,137.10833333333332,多治見,警戒
2023/8/24,9:00,53041,27.1,8月24日 9時時点,35.05,136.69333333333333,桑名,警戒
2023/8/24,9:00,53061,27.6,8月24日 9時時点,34.94,136.58,四日市,警戒
2023/8/24,9:00,53091,26.9,8月24日 9時時点,34.87,136.45333333333335,亀山,警戒
2023/8/24,9:00,53112,26.9,8月24日 9時時点,34.76166666666667,136.14166666666668,上野,警戒
2023/8/24,9:00,53133,27.3,8月24日 9時時点,34.733333333333334,136.51833333333335,津,警戒
2023/8/24,9:00,53196,27.4,8月24日 9時時点,34.528333333333336,136.665,小俣,警戒
2023/8/24,9:00,53231,26.7,8月24日 9時時点,34.44833333333333,136.39,粥見,警戒
2023/8/24,9:00,53257,26.9,8月24日 9時時点,34.48166666666667,136.825,鳥羽,警戒
2023/8/24,9:00,53296,27.0,8月24日 9時時点,34.345,136.68166666666667,南伊勢,警戒
2023/8/24,9:00,53326,28.2,8月24日 9時時点,34.208333333333336,136.32666666666665,紀伊長島,厳重警戒
2023/8/24,9:00,53378,27.5,8月24日 9時時点,34.068333333333335,136.19333333333333,尾鷲,警戒
2023/8/24,9:00,53401,27.8,8月24日 9時時点,33.931666666666665,136.13833333333332,熊野新鹿,警戒
2023/8/24,9:00,54012,32.0,8月24日 9時時点,38.465,139.25333333333333,粟島,危険
2023/8/24,9:00,54041,29.8,8月24日 9時時点,38.33,138.51166666666666,弾崎,厳重警戒
2023/8/24,9:00,54086,32.3,8月24日 9時時点,38.22666666666667,139.47833333333332,村上,危険
2023/8/24,9:00,54157,31.3,8月24日 9時時点,38.028333333333336,138.24,相川,危険
2023/8/24,9:00,54166,31.4,8月24日 9時時点,38.07333333333333,138.44,両津,危険
2023/8/24,9:00,54181,31.7,8月24日 9時時点,38.07666666666667,139.38833333333332,中条,危険
2023/8/24,9:00,54191,31.5,8月24日 9時時点,38.09166666666667,139.56333333333333,下関,危険
2023/8/24,9:00,54232,30.2,8月24日 9時時点,37.89333333333333,139.01833333333335,新潟,厳重警戒
2023/8/24,9:00,54271,30.6,8月24日 9時時点,37.84166666666667,138.31333333333333,羽茂,厳重警戒
2023/8/24,9:00,54296,31.4,8月24日 9時時点,37.791666666666664,139.08666666666667,新津,危険
2023/8/24,9:00,54341,31.5,8月24日 9時時点,37.76833333333333,138.91333333333333,巻,危険
2023/8/24,9:00,54387,32.1,8月24日 9時時点,37.64,138.76666666666668,寺泊,危険
2023/8/24,9:00,54396,31.8,8月24日 9時時点,37.64,138.955,三条,危険
2023/8/24,9:00,54421,31.6,8月24日 9時時点,37.67166666666667,139.44666666666666,津川,危険
2023/8/24,9:00,54501,31.2,8月24日 9時時点,37.45,138.82333333333332,長岡,危険
2023/8/24,9:00,54541,30.5,8月24日 9時時点,37.35166666666667,138.55333333333334,柏崎,厳重警戒
2023/8/24,9:00,54566,30.3,8月24日 9時時点,37.346666666666664,139.04333333333332,守門,厳重警戒
2023/8/24,9:00,54586,30.7,8月24日 9時時点,37.225,138.325,大潟,厳重警戒
2023/8/24,9:00,54616,33.1,8月24日 9時時点,37.22666666666667,138.96333333333334,小出,危険
2023/8/24,9:00,54651,31.7,8月24日 9時時点,37.10666666666667,138.24666666666667,高田,危険
2023/8/24,9:00,54661,30.0,8月24日 9時時点,37.10666666666667,138.45666666666668,安塚,厳重警戒
2023/8/24,9:00,54676,31.1,8月24日 9時時点,37.14333333333333,138.72666666666666,十日町,危険
2023/8/24,9:00,54711,30.7,8月24日 9時時点,37.04333333333334,137.875,糸魚川,厳重警戒
2023/8/24,9:00,54721,30.5,8月24日 9時時点,37.083333333333336,138.02333333333334,能生,厳重警戒
2023/8/24,9:00,54816,29.7,8月24日 9時時点,36.93333333333333,138.22166666666666,関山,厳重警戒
2023/8/24,9:00,54836,29.3,8月24日 9時時点,36.99666666666667,138.68333333333334,津南,厳重警戒
2023/8/24,9:00,54841,31.7,8月24日 9時時点,36.94166666666667,138.81,湯沢,危険
2023/8/24,9:00,55022,31.1,8月24日 9時時点,36.93666666666667,137.56333333333333,朝日,危険
2023/8/24,9:00,55041,30.8,8月24日 9時時点,36.86333333333333,136.96,氷見,厳重警戒
2023/8/24,9:00,55056,30.7,8月24日 9時時点,36.821666666666665,137.42833333333334,魚津,厳重警戒
2023/8/24,9:00,55091,31.4,8月24日 9時時点,36.791666666666664,137.055,伏木,危険
2023/8/24,9:00,55102,31.2,8月24日 9時時点,36.708333333333336,137.20166666666665,富山,危険
2023/8/24,9:00,55141,30.9,8月24日 9時時点,36.61,136.955,砺波,厳重警戒
2023/8/24,9:00,55166,29.3,8月24日 9時時点,36.67,137.42333333333335,上市,厳重警戒
2023/8/24,9:00,55191,31.0,8月24日 9時時点,36.545,136.87166666666667,南砺高宮,危険
2023/8/24,9:00,55206,30.8,8月24日 9時時点,36.57,137.15833333333333,八尾,厳重警戒
2023/8/24,9:00,56036,32.5,8月24日 9時時点,37.446666666666665,137.28666666666666,珠洲,危険
2023/8/24,9:00,56052,30.2,8月24日 9時時点,37.39,136.895,輪島,厳重警戒
2023/8/24,9:00,56116,31.3,8月24日 9時時点,37.14333333333333,136.725,志賀,危険
2023/8/24,9:00,56146,32.5,8月24日 9時時点,37.03,136.99166666666667,七尾,危険
2023/8/24,9:00,56176,31.8,8月24日 9時時点,36.89333333333333,136.77666666666667,羽咋,危険
2023/8/24,9:00,56186,30.2,8月24日 9時時点,36.711666666666666,136.69166666666666,かほく,厳重警戒
2023/8/24,9:00,56227,30.4,8月24日 9時時点,36.58833333333333,136.63333333333333,金沢,厳重警戒
2023/8/24,9:00,56276,29.0,8月24日 9時時点,36.38166666666667,136.435,小松,厳重警戒
2023/8/24,9:00,56286,27.0,8月24日 9時時点,36.39666666666667,136.62,白山河内,警戒
2023/8/24,9:00,56301,28.2,8月24日 9時時点,36.26166666666666,136.39666666666668,加賀中津原,厳重警戒
2023/8/24,9:00,57001,31.3,8月24日 9時時点,36.24333333333333,136.17333333333335,三国,危険
2023/8/24,9:00,57051,28.2,8月24日 9時時点,36.01166666666666,135.99,越廼,厳重警戒
2023/8/24,9:00,57066,27.9,8月24日 9時時点,36.055,136.22166666666666,福井,警戒
2023/8/24,9:00,57082,29.5,8月24日 9時時点,36.038333333333334,136.52166666666668,勝山,厳重警戒
2023/8/24,9:00,57121,29.1,8月24日 9時時点,35.971666666666664,136.49666666666667,大野,厳重警戒
2023/8/24,9:00,57206,25.3,8月24日 9時時点,35.766666666666666,136.2,今庄,警戒
2023/8/24,9:00,57248,26.8,8月24日 9時時点,35.653333333333336,136.06166666666667,敦賀,警戒
2023/8/24,9:00,57286,28.3,8月24日 9時時点,35.6,135.91666666666666,美浜,厳重警戒
2023/8/24,9:00,57317,27.7,8月24日 9時時点,35.483333333333334,135.78166666666667,小浜,警戒
2023/8/24,9:00,60051,26.2,8月24日 9時時点,35.41166666666667,136.02833333333334,今津,警戒
2023/8/24,9:00,60061,26.4,8月24日 9時時点,35.42333333333333,136.24166666666667,長浜,警戒
2023/8/24,9:00,60102,26.0,8月24日 9時時点,35.38333333333333,136.34333333333333,米原,警戒
2023/8/24,9:00,60116,27.8,8月24日 9時時点,35.235,135.95666666666668,南小松,警戒
2023/8/24,9:00,60131,27.7,8月24日 9時時点,35.275,136.24333333333334,彦根,警戒
2023/8/24,9:00,60196,26.7,8月24日 9時時点,35.06166666666667,136.19,東近江,警戒
2023/8/24,9:00,60216,27.3,8月24日 9時時点,34.99166666666667,135.91166666666666,大津,警戒
2023/8/24,9:00,60226,26.3,8月24日 9時時点,34.913333333333334,136.08,信楽,警戒
2023/8/24,9:00,60236,25.9,8月24日 9時時点,34.93833333333333,136.27833333333334,土山,警戒
2023/8/24,9:00,61001,29.7,8月24日 9時時点,35.736666666666665,135.08666666666667,間人,厳重警戒
2023/8/24,9:00,61076,29.6,8月24日 9時時点,35.55,135.235,宮津,厳重警戒
2023/8/24,9:00,61111,29.9,8月24日 9時時点,35.45,135.31666666666666,舞鶴,厳重警戒
2023/8/24,9:00,61187,31.2,8月24日 9時時点,35.31166666666667,135.11333333333334,福知山,危険
2023/8/24,9:00,61206,26.9,8月24日 9時時点,35.275,135.55,美山,警戒
2023/8/24,9:00,61242,27.4,8月24日 9時時点,35.108333333333334,135.455,園部,警戒
2023/8/24,9:00,61286,27.6,8月24日 9時時点,35.013333333333335,135.73166666666665,京都,警戒
2023/8/24,9:00,61326,31.1,8月24日 9時時点,34.83,135.76,京田辺,危険
2023/8/24,9:00,62016,27.9,8月24日 9時時点,34.94833333333333,135.455,能勢,警戒
2023/8/24,9:00,62046,30.9,8月24日 9時時点,34.80833333333333,135.67166666666665,枚方,厳重警戒
2023/8/24,9:00,62078,28.1,8月24日 9時時点,34.681666666666665,135.51833333333335,大阪,厳重警戒
2023/8/24,9:00,62081,25.3,8月24日 9時時点,34.675,135.67666666666668,生駒山,警戒
2023/8/24,9:00,62091,30.3,8月24日 9時時点,34.555,135.485,堺,厳重警戒
2023/8/24,9:00,62131,29.3,8月24日 9時時点,34.385,135.35,熊取,厳重警戒
2023/8/24,9:00,63016,29.8,8月24日 9時時点,35.625,134.62666666666667,香住,厳重警戒
2023/8/24,9:00,63051,30.4,8月24日 9時時点,35.535,134.82166666666666,豊岡,厳重警戒
2023/8/24,9:00,63071,28.2,8月24日 9時時点,35.431666666666665,134.58333333333334,兎和野高原,厳重警戒
2023/8/24,9:00,63121,26.8,8月24日 9時時点,35.32333333333333,134.84833333333333,和田山,警戒
2023/8/24,9:00,63201,25.6,8月24日 9時時点,35.166666666666664,134.79166666666666,生野,警戒
2023/8/24,9:00,63216,26.8,8月24日 9時時点,35.13666666666666,135.065,柏原,警戒
2023/8/24,9:00,63251,28.7,8月24日 9時時点,35.096666666666664,134.585,一宮,厳重警戒
2023/8/24,9:00,63321,26.8,8月24日 9時時点,34.95,134.74833333333333,福崎,警戒
2023/8/24,9:00,63331,28.3,8月24日 9時時点,34.998333333333335,134.99666666666667,西脇,厳重警戒
2023/8/24,9:00,63366,30.0,8月24日 9時時点,34.858333333333334,134.37333333333333,上郡,厳重警戒
2023/8/24,9:00,63383,27.4,8月24日 9時時点,34.83833333333333,134.67,姫路,警戒
2023/8/24,9:00,63411,26.9,8月24日 9時時点,34.895,135.21166666666667,三田,警戒
2023/8/24,9:00,63461,27.4,8月24日 9時時点,34.776666666666664,135.01333333333332,三木,警戒
2023/8/24,9:00,63491,29.5,8月24日 9時時点,34.67166666666667,134.52666666666667,家島,厳重警戒
2023/8/24,9:00,63496,27.7,8月24日 9時時点,34.68666666666667,134.87666666666667,明石,警戒
2023/8/24,9:00,63518,27.8,8月24日 9時時点,34.696666666666665,135.21166666666667,神戸,警戒
2023/8/24,9:00,63551,29.6,8月24日 9時時点,34.46666666666667,134.84833333333333,郡家,厳重警戒
2023/8/24,9:00,63571,28.9,8月24日 9時時点,34.31,134.84833333333333,洲本,厳重警戒
2023/8/24,9:00,63588,26.9,8月24日 9時時点,34.218333333333334,134.72,南淡,警戒
2023/8/24,9:00,64036,27.8,8月24日 9時時点,34.67333333333333,135.83666666666667,奈良,警戒
2023/8/24,9:00,64041,27.1,8月24日 9時時点,34.605,135.95166666666665,針,警戒
2023/8/24,9:00,64101,26.0,8月24日 9時時点,34.48833333333334,135.93166666666667,大宇陀,警戒
2023/8/24,9:00,64127,29.5,8月24日 9時時点,34.38,135.73,五條,厳重警戒
2023/8/24,9:00,64206,25.4,8月24日 9時時点,34.13666666666666,136.005,上北山,警戒
2023/8/24,9:00,64227,26.2,8月24日 9時時点,34.045,135.78666666666666,風屋,警戒
2023/8/24,9:00,65026,29.3,8月24日 9時時点,34.31,135.52833333333334,かつらぎ,厳重警戒
2023/8/24,9:00,65036,29.9,8月24日 9時時点,34.28,134.99833333333333,友ケ島,厳重警戒
2023/8/24,9:00,65042,30.0,8月24日 9時時点,34.22833333333333,135.16333333333333,和歌山,厳重警戒
2023/8/24,9:00,65061,26.4,8月24日 9時時点,34.221666666666664,135.59,高野山,警戒
2023/8/24,9:00,65121,28.3,8月24日 9時時点,34.086666666666666,135.425,清水,厳重警戒
2023/8/24,9:00,65162,29.9,8月24日 9時時点,33.945,135.55666666666667,龍神,厳重警戒
2023/8/24,9:00,65201,28.9,8月24日 9時時点,33.89333333333333,135.21666666666667,川辺,厳重警戒
2023/8/24,9:00,65256,32.3,8月24日 9時時点,33.791666666666664,135.51333333333332,栗栖川,危険
2023/8/24,9:00,65276,30.4,8月24日 9時時点,33.68666666666667,135.97,新宮,厳重警戒
2023/8/24,9:00,65306,27.2,8月24日 9時時点,33.638333333333335,135.71,西川,警戒
2023/8/24,9:00,65356,29.0,8月24日 9時時点,33.45,135.75666666666666,潮岬,厳重警戒
2023/8/24,9:00,66046,30.4,8月24日 9時時点,35.29666666666667,133.725,上長田,厳重警戒
2023/8/24,9:00,66091,28.2,8月24日 9時時点,35.10333333333333,133.435,千屋,厳重警戒
2023/8/24,9:00,66127,28.5,8月24日 9時時点,35.111666666666665,134.17,奈義,厳重警戒
2023/8/24,9:00,66136,28.3,8月24日 9時時点,35.098333333333336,134.325,今岡,厳重警戒
2023/8/24,9:00,66171,28.5,8月24日 9時時点,35.068333333333335,133.75333333333333,久世,厳重警戒
2023/8/24,9:00,66186,29.1,8月24日 9時時点,35.06333333333333,134.00833333333333,津山,厳重警戒
2023/8/24,9:00,66221,26.4,8月24日 9時時点,34.943333333333335,133.51833333333335,新見,警戒
2023/8/24,9:00,66296,29.3,8月24日 9時時点,34.86666666666667,133.90333333333334,福渡,厳重警戒
2023/8/24,9:00,66306,29.9,8月24日 9時時点,34.815,134.18333333333334,和気,厳重警戒
2023/8/24,9:00,66336,28.3,8月24日 9時時点,34.791666666666664,133.61,高梁,厳重警戒
2023/8/24,9:00,66408,29.5,8月24日 9時時点,34.685,133.925,岡山,厳重警戒
2023/8/24,9:00,66421,29.2,8月24日 9時時点,34.681666666666665,134.20666666666668,虫明,厳重警戒
2023/8/24,9:00,66446,29.0,8月24日 9時時点,34.59,133.76833333333335,倉敷,厳重警戒
2023/8/24,9:00,66481,28.9,8月24日 9時時点,34.501666666666665,133.495,笠岡,厳重警戒
2023/8/24,9:00,66501,29.2,8月24日 9時時点,34.486666666666665,133.95,玉野,厳重警戒
2023/8/24,9:00,67016,24.9,8月24日 9時時点,35.03333333333333,132.90166666666667,高野,注意
2023/8/24,9:00,67106,25.3,8月24日 9時時点,34.81166666666667,132.85,三次,警戒
2023/8/24,9:00,67116,25.1,8月24日 9時時点,34.86,133.02333333333334,庄原,警戒
2023/8/24,9:00,67151,26.3,8月24日 9時時点,34.76833333333333,132.46333333333334,大朝,警戒
2023/8/24,9:00,67191,25.2,8月24日 9時時点,34.763333333333335,133.27833333333334,油木,警戒
2023/8/24,9:00,67212,25.6,8月24日 9時時点,34.61,132.32,加計,警戒
2023/8/24,9:00,67292,26.8,8月24日 9時時点,34.545,132.53,三入,警戒
2023/8/24,9:00,67316,25.7,8月24日 9時時点,34.583333333333336,133.05,世羅,警戒
2023/8/24,9:00,67326,29.1,8月24日 9時時点,34.56166666666667,133.23166666666665,府中,厳重警戒
2023/8/24,9:00,67376,28.3,8月24日 9時時点,34.416666666666664,132.7,東広島,厳重警戒
2023/8/24,9:00,67401,28.0,8月24日 9時時点,34.446666666666665,133.24666666666667,福山,厳重警戒
2023/8/24,9:00,67421,24.8,8月24日 9時時点,34.365,132.19,廿日市津田,注意
2023/8/24,9:00,67437,27.6,8月24日 9時時点,34.39833333333333,132.46166666666667,広島,警戒
2023/8/24,9:00,67461,28.6,8月24日 9時時点,34.33,132.98166666666665,竹原,厳重警戒
2023/8/24,9:00,67471,30.0,8月24日 9時時点,34.278333333333336,133.12333333333333,生口島,厳重警戒
2023/8/24,9:00,67496,26.9,8月24日 9時時点,34.221666666666664,132.22,大竹,警戒
2023/8/24,9:00,67511,27.7,8月24日 9時時点,34.24,132.55,呉,警戒
2023/8/24,9:00,67576,29.0,8月24日 9時時点,34.165,132.74833333333333,呉市蒲刈,厳重警戒
2023/8/24,9:00,68022,30.5,8月24日 9時時点,36.20333333333333,133.33333333333334,西郷,厳重警戒
2023/8/24,9:00,68056,30.3,8月24日 9時時点,36.096666666666664,133.09666666666666,海士,厳重警戒
2023/8/24,9:00,68091,29.7,8月24日 9時時点,35.52,132.98333333333332,鹿島,厳重警戒
2023/8/24,9:00,68132,29.3,8月24日 9時時点,35.45666666666666,133.065,松江,厳重警戒
2023/8/24,9:00,68156,29.7,8月24日 9時時点,35.33166666666666,132.73,出雲,厳重警戒
2023/8/24,9:00,68246,29.3,8月24日 9時時点,35.19,132.49666666666667,大田,厳重警戒
2023/8/24,9:00,68261,29.1,8月24日 9時時点,35.196666666666665,132.815,掛合,厳重警戒
2023/8/24,9:00,68276,27.2,8月24日 9時時点,35.17333333333333,133.10333333333332,横田,警戒
2023/8/24,9:00,68306,27.1,8月24日 9時時点,35.001666666666665,132.71166666666667,赤名,警戒
2023/8/24,9:00,68351,28.4,8月24日 9時時点,34.97666666666667,132.49166666666667,川本,厳重警戒
2023/8/24,9:00,68376,29.4,8月24日 9時時点,34.89666666666667,132.07,浜田,厳重警戒
2023/8/24,9:00,68401,26.3,8月24日 9時時点,34.85333333333333,132.53,瑞穂,警戒
2023/8/24,9:00,68431,28.7,8月24日 9時時点,34.776666666666664,132.10833333333332,弥栄,厳重警戒
2023/8/24,9:00,68462,30.4,8月24日 9時時点,34.67666666666667,131.84333333333333,益田,厳重警戒
2023/8/24,9:00,68516,29.8,8月24日 9時時点,34.461666666666666,131.77,津和野,厳重警戒
2023/8/24,9:00,68541,28.1,8月24日 9時時点,34.391666666666666,131.89333333333335,吉賀,厳重警戒
2023/8/24,9:00,69006,29.8,8月24日 9時時点,35.54333333333334,133.235,境,厳重警戒
2023/8/24,9:00,69021,30.1,8月24日 9時時点,35.52333333333333,133.56666666666666,塩津,厳重警戒
2023/8/24,9:00,69041,30.7,8月24日 9時時点,35.52,133.99666666666667,青谷,厳重警戒
2023/8/24,9:00,69061,29.9,8月24日 9時時点,35.55833333333333,134.36,岩井,厳重警戒
2023/8/24,9:00,69076,29.5,8月24日 9時時点,35.43333333333333,133.33833333333334,米子,厳重警戒
2023/8/24,9:00,69101,30.0,8月24日 9時時点,35.473333333333336,133.83833333333334,倉吉,厳重警戒
2023/8/24,9:00,69122,30.1,8月24日 9時時点,35.486666666666665,134.23833333333334,鳥取,厳重警戒
2023/8/24,9:00,69246,29.9,8月24日 9時時点,35.263333333333335,134.24,智頭,厳重警戒
2023/8/24,9:00,69271,27.4,8月24日 9時時点,35.18666666666667,133.23,茶屋,警戒
2023/8/24,9:00,81011,30.8,8月24日 9時時点,34.615,131.62333333333333,須佐,厳重警戒
2023/8/24,9:00,81071,29.5,8月24日 9時時点,34.41,131.405,萩,厳重警戒
2023/8/24,9:00,81116,29.4,8月24日 9時時点,34.37,131.055,油谷,厳重警戒
2023/8/24,9:00,81151,28.5,8月24日 9時時点,34.39833333333333,131.725,徳佐,厳重警戒
2023/8/24,9:00,81196,27.1,8月24日 9時時点,34.235,131.30666666666667,秋吉台,警戒
2023/8/24,9:00,81231,26.9,8月24日 9時時点,34.26166666666666,131.95166666666665,広瀬,警戒
2023/8/24,9:00,81266,29.7,8月24日 9時時点,34.18666666666667,131.07666666666665,豊田,厳重警戒
2023/8/24,9:00,81286,27.9,8月24日 9時時点,34.16166666666667,131.46166666666667,山口,警戒
2023/8/24,9:00,81321,27.6,8月24日 9時時点,34.155,132.17833333333334,岩国,警戒
2023/8/24,9:00,81371,27.6,8月24日 9時時点,34.04,131.53333333333333,防府,警戒
2023/8/24,9:00,81386,29.0,8月24日 9時時点,34.01,131.87166666666667,下松,厳重警戒
2023/8/24,9:00,81397,29.8,8月24日 9時時点,34.095,132.075,玖珂,厳重警戒
2023/8/24,9:00,81428,29.8,8月24日 9時時点,33.94833333333333,130.925,下関,厳重警戒
2023/8/24,9:00,81481,29.2,8月24日 9時時点,33.958333333333336,132.11333333333334,柳井,厳重警戒
2023/8/24,9:00,81486,26.7,8月24日 9時時点,33.903333333333336,132.29333333333332,安下庄,警戒
2023/8/24,9:00,71066,27.4,8月24日 9時時点,34.02333333333333,133.795,池田,警戒
2023/8/24,9:00,71087,29.4,8月24日 9時時点,34.04,134.15666666666667,穴吹,厳重警戒
2023/8/24,9:00,71106,29.4,8月24日 9時時点,34.06666666666667,134.57333333333332,徳島,厳重警戒
2023/8/24,9:00,71191,24.4,8月24日 9時時点,33.86666666666667,133.90333333333334,京上,注意
2023/8/24,9:00,71231,26.6,8月24日 9時時点,33.836666666666666,134.74166666666667,蒲生田,警戒
2023/8/24,9:00,71251,27.3,8月24日 9時時点,33.77166666666667,134.19833333333332,木頭,警戒
2023/8/24,9:00,71266,28.4,8月24日 9時時点,33.73166666666667,134.53833333333333,日和佐,厳重警戒
2023/8/24,9:00,71291,30.2,8月24日 9時時点,33.611666666666665,134.355,海陽,厳重警戒
2023/8/24,9:00,72061,29.7,8月24日 9時時点,34.471666666666664,134.27333333333334,内海,厳重警戒
2023/8/24,9:00,72086,28.7,8月24日 9時時点,34.318333333333335,134.05333333333334,高松,厳重警戒
2023/8/24,9:00,72111,28.9,8月24日 9時時点,34.275,133.75166666666667,多度津,厳重警戒
2023/8/24,9:00,72121,29.5,8月24日 9時時点,34.236666666666665,133.92333333333335,滝宮,厳重警戒
2023/8/24,9:00,72146,29.4,8月24日 9時時点,34.21333333333333,134.40666666666667,引田,厳重警戒
2023/8/24,9:00,72161,29.1,8月24日 9時時点,34.12,133.77166666666668,財田,厳重警戒
2023/8/24,9:00,73001,29.3,8月24日 9時時点,34.25,133.00666666666666,大三島,厳重警戒
2023/8/24,9:00,73076,28.6,8月24日 9時時点,34.053333333333335,132.975,今治,厳重警戒
2023/8/24,9:00,73126,28.3,8月24日 9時時点,33.915,133.08,西条,厳重警戒
2023/8/24,9:00,73141,28.1,8月24日 9時時点,33.93666666666667,133.33833333333334,新居浜,厳重警戒
2023/8/24,9:00,73151,26.1,8月24日 9時時点,33.98166666666667,133.58166666666668,四国中央,警戒
2023/8/24,9:00,73166,29.5,8月24日 9時時点,33.843333333333334,132.77666666666667,松山,厳重警戒
2023/8/24,9:00,73256,28.1,8月24日 9時時点,33.61666666666667,132.48,長浜,厳重警戒
2023/8/24,9:00,73276,26.0,8月24日 9時時点,33.663333333333334,132.895,久万,警戒
2023/8/24,9:00,73306,26.4,8月24日 9時時点,33.50833333333333,132.535,大洲,警戒
2023/8/24,9:00,73341,29.6,8月24日 9時時点,33.446666666666665,132.25666666666666,瀬戸,厳重警戒
2023/8/24,9:00,73406,29.6,8月24日 9時時点,33.36666666666667,132.50333333333333,宇和,厳重警戒
2023/8/24,9:00,73442,30.4,8月24日 9時時点,33.22666666666667,132.55166666666668,宇和島,厳重警戒
2023/8/24,9:00,73446,29.1,8月24日 9時時点,33.25333333333333,132.675,近永,厳重警戒
2023/8/24,9:00,73516,30.1,8月24日 9時時点,32.96333333333333,132.57,御荘,厳重警戒
2023/8/24,9:00,74056,23.7,8月24日 9時時点,33.765,133.33833333333334,本川,注意
2023/8/24,9:00,74071,24.8,8月24日 9時時点,33.75333333333333,133.575,本山,注意
2023/8/24,9:00,74136,25.5,8月24日 9時時点,33.69833333333333,133.875,大栃,警戒
2023/8/24,9:00,74182,30.0,8月24日 9時時点,33.56666666666667,133.54833333333335,高知,厳重警戒
2023/8/24,9:00,74187,26.8,8月24日 9時時点,33.59,133.64333333333335,後免,警戒
2023/8/24,9:00,74271,28.6,8月24日 9時時点,33.48833333333334,133.93333333333334,安芸,厳重警戒
2023/8/24,9:00,74296,27.9,8月24日 9時時点,33.39,132.92166666666665,梼原,警戒
2023/8/24,9:00,74311,26.3,8月24日 9時時点,33.385,133.27666666666667,須崎,警戒
2023/8/24,9:00,74361,26.6,8月24日 9時時点,33.20666666666666,133.12833333333333,窪川,警戒
2023/8/24,9:00,74372,29.4,8月24日 9時時点,33.251666666666665,134.17666666666668,室戸岬,厳重警戒
2023/8/24,9:00,74381,29.4,8月24日 9時時点,33.17,132.79166666666666,江川崎,厳重警戒
2023/8/24,9:00,74436,28.9,8月24日 9時時点,33.07833333333333,133.10166666666666,佐賀,厳重警戒
2023/8/24,9:00,74447,30.0,8月24日 9時時点,32.92,132.695,宿毛,厳重警戒
2023/8/24,9:00,74456,28.5,8月24日 9時時点,32.99,132.92,中村,厳重警戒
2023/8/24,9:00,74516,30.0,8月24日 9時時点,32.721666666666664,133.01,清水,厳重警戒
2023/8/24,9:00,82046,29.7,8月24日 9時時点,33.80833333333333,130.53833333333333,宗像,厳重警戒
2023/8/24,9:00,82056,30.6,8月24日 9時時点,33.85166666666667,130.74333333333334,八幡,厳重警戒
2023/8/24,9:00,82101,30.1,8月24日 9時時点,33.71333333333333,130.975,行橋,厳重警戒
2023/8/24,9:00,82136,29.5,8月24日 9時時点,33.651666666666664,130.69333333333333,飯塚,厳重警戒
2023/8/24,9:00,82171,28.1,8月24日 9時時点,33.56,130.19,前原,厳重警戒
2023/8/24,9:00,82182,30.9,8月24日 9時時点,33.58166666666666,130.375,福岡,厳重警戒
2023/8/24,9:00,82191,29.9,8月24日 9時時点,33.49666666666667,130.49,太宰府,厳重警戒
2023/8/24,9:00,82206,30.2,8月24日 9時時点,33.55833333333333,130.855,添田,厳重警戒
2023/8/24,9:00,82261,30.1,8月24日 9時時点,33.406666666666666,130.695,朝倉,厳重警戒
2023/8/24,9:00,82306,30.9,8月24日 9時時点,33.303333333333335,130.49333333333334,久留米,厳重警戒
2023/8/24,9:00,82317,29.2,8月24日 9時時点,33.225,130.645,黒木,厳重警戒
2023/8/24,9:00,82361,29.8,8月24日 9時時点,33.00666666666667,130.46666666666667,大牟田,厳重警戒
2023/8/24,9:00,83021,27.6,8月24日 9時時点,33.678333333333335,131.575,国見,警戒
2023/8/24,9:00,83051,30.1,8月24日 9時時点,33.586666666666666,131.245,中津,厳重警戒
2023/8/24,9:00,83061,30.5,8月24日 9時時点,33.57,131.43333333333334,豊後高田,厳重警戒
2023/8/24,9:00,83106,29.4,8月24日 9時時点,33.42,131.31666666666666,院内,厳重警戒
2023/8/24,9:00,83121,27.8,8月24日 9時時点,33.416666666666664,131.59666666666666,杵築,警戒
2023/8/24,9:00,83137,29.2,8月24日 9時時点,33.321666666666665,130.92833333333334,日田,厳重警戒
2023/8/24,9:00,83191,28.1,8月24日 9時時点,33.291666666666664,131.155,玖珠,厳重警戒
2023/8/24,9:00,83201,27.6,8月24日 9時時点,33.25333333333333,131.34666666666666,湯布院,警戒
2023/8/24,9:00,83216,28.6,8月24日 9時時点,33.235,131.61833333333334,大分,厳重警戒
2023/8/24,9:00,83341,28.8,8月24日 9時時点,33.065,131.63166666666666,犬飼,厳重警戒
2023/8/24,9:00,83371,28.1,8月24日 9時時点,32.973333333333336,131.39833333333334,竹田,厳重警戒
2023/8/24,9:00,83401,29.7,8月24日 9時時点,32.95,131.90166666666667,佐伯,厳重警戒
2023/8/24,9:00,83431,28.4,8月24日 9時時点,32.845,131.675,宇目,厳重警戒
2023/8/24,9:00,83476,28.1,8月24日 9時時点,32.795,131.92333333333335,蒲江,厳重警戒
2023/8/24,9:00,84012,25.6,8月24日 9時時点,34.69833333333333,129.445,鰐浦,警戒
2023/8/24,9:00,84072,26.3,8月24日 9時時点,34.196666666666665,129.29166666666666,厳原,警戒
2023/8/24,9:00,84121,25.4,8月24日 9時時点,33.8,129.72166666666666,芦辺,警戒
2023/8/24,9:00,84171,26.6,8月24日 9時時点,33.36,129.55,平戸,警戒
2023/8/24,9:00,84183,27.8,8月24日 9時時点,33.34166666666667,129.71166666666667,松浦,警戒
2023/8/24,9:00,84266,30.2,8月24日 9時時点,33.15833333333333,129.72666666666666,佐世保,厳重警戒
2023/8/24,9:00,84306,30.1,8月24日 9時時点,33.013333333333335,129.65166666666667,西海,厳重警戒
2023/8/24,9:00,84341,27.7,8月24日 9時時点,32.98166666666667,129.11833333333334,有川,警戒
2023/8/24,9:00,84496,29.0,8月24日 9時時点,32.733333333333334,129.86666666666667,長崎,厳重警戒
2023/8/24,9:00,84519,26.0,8月24日 9時時点,32.736666666666665,130.26166666666666,雲仙岳,警戒
2023/8/24,9:00,84523,31.0,8月24日 9時時点,32.76,130.36166666666668,島原,危険
2023/8/24,9:00,84536,29.0,8月24日 9時時点,32.693333333333335,128.82666666666665,福江,厳重警戒
2023/8/24,9:00,84561,31.4,8月24日 9時時点,32.611666666666665,130.19333333333333,口之津,危険
2023/8/24,9:00,84597,30.6,8月24日 9時時点,32.58166666666666,129.77666666666667,脇岬,厳重警戒
2023/8/24,9:00,85033,29.0,8月24日 9時時点,33.458333333333336,129.955,唐津,厳重警戒
2023/8/24,9:00,85116,27.6,8月24日 9時時点,33.266666666666666,129.87833333333333,伊万里,警戒
2023/8/24,9:00,85142,28.9,8月24日 9時時点,33.265,130.305,佐賀,厳重警戒
2023/8/24,9:00,85161,27.7,8月24日 9時時点,33.11666666666667,129.995,嬉野,警戒
2023/8/24,9:00,85166,28.6,8月24日 9時時点,33.18333333333333,130.14833333333334,白石,厳重警戒
2023/8/24,9:00,86006,29.9,8月24日 9時時点,33.115,130.69166666666666,鹿北,厳重警戒
2023/8/24,9:00,86066,27.8,8月24日 9時時点,33.10333333333333,131.06666666666666,南小国,警戒
2023/8/24,9:00,86086,30.0,8月24日 9時時点,32.915,130.51166666666666,岱明,厳重警戒
2023/8/24,9:00,86101,29.3,8月24日 9時時点,32.945,130.78166666666667,菊池,厳重警戒
2023/8/24,9:00,86111,27.3,8月24日 9時時点,32.946666666666665,131.04,阿蘇乙姫,警戒
2023/8/24,9:00,86141,28.5,8月24日 9時時点,32.81333333333333,130.70666666666668,熊本,厳重警戒
2023/8/24,9:00,86157,27.7,8月24日 9時時点,32.83166666666666,131.01333333333332,南阿蘇,警戒
2023/8/24,9:00,86161,25.1,8月24日 9時時点,32.821666666666665,131.125,高森,警戒
2023/8/24,9:00,86216,29.5,8月24日 9時時点,32.611666666666665,130.47833333333332,三角,厳重警戒
2023/8/24,9:00,86236,31.8,8月24日 9時時点,32.67166666666667,130.81666666666666,甲佐,危険
2023/8/24,9:00,86271,29.7,8月24日 9時時点,32.515,130.44666666666666,松島,厳重警戒
2023/8/24,9:00,86316,30.5,8月24日 9時時点,32.468333333333334,130.18,本渡,厳重警戒
2023/8/24,9:00,86336,30.4,8月24日 9時時点,32.473333333333336,130.60666666666665,八代,厳重警戒
2023/8/24,9:00,86451,30.0,8月24日 9時時点,32.205,130.40666666666667,水俣,厳重警戒
2023/8/24,9:00,86467,28.8,8月24日 9時時点,32.21666666666667,130.755,人吉,厳重警戒
2023/8/24,9:00,86477,28.6,8月24日 9時時点,32.225,130.905,上,厳重警戒
2023/8/24,9:00,86491,30.6,8月24日 9時時点,32.196666666666665,130.02666666666667,牛深,厳重警戒
2023/8/24,9:00,87041,25.4,8月24日 9時時点,32.711666666666666,131.29,高千穂,警戒
2023/8/24,9:00,87066,28.2,8月24日 9時時点,32.711666666666666,131.82,古江,厳重警戒
2023/8/24,9:00,87071,26.2,8月24日 9時時点,32.64333333333333,131.15666666666667,鞍岡,警戒
2023/8/24,9:00,87141,29.8,8月24日 9時時点,32.58166666666666,131.65666666666667,延岡,厳重警戒
2023/8/24,9:00,87181,27.7,8月24日 9時時点,32.40833333333333,131.6,日向,警戒
2023/8/24,9:00,87206,26.7,8月24日 9時時点,32.385,131.33166666666668,神門,警戒
2023/8/24,9:00,87231,27.6,8月24日 9時時点,32.24,131.15166666666667,西米良,警戒
2023/8/24,9:00,87293,28.9,8月24日 9時時点,32.123333333333335,131.475,高鍋,厳重警戒
2023/8/24,9:00,87301,29.2,8月24日 9時時点,32.04666666666667,130.81,加久藤,厳重警戒
2023/8/24,9:00,87331,29.6,8月24日 9時時点,32.06333333333333,131.41333333333333,西都,厳重警戒
2023/8/24,9:00,87352,29.3,8月24日 9時時点,32.0,130.95333333333335,小林,厳重警戒
2023/8/24,9:00,87376,29.9,8月24日 9時時点,31.938333333333333,131.41333333333333,宮崎,厳重警戒
2023/8/24,9:00,87406,29.4,8月24日 9時時点,31.843333333333334,131.30833333333334,田野,厳重警戒
2023/8/24,9:00,87426,29.7,8月24日 9時時点,31.73,131.08166666666668,都城,厳重警戒
2023/8/24,9:00,87492,30.9,8月24日 9時時点,31.578333333333333,131.40666666666667,油津,厳重警戒
2023/8/24,9:00,87501,30.0,8月24日 9時時点,31.465,131.22,串間,厳重警戒
2023/8/24,9:00,88061,29.3,8月24日 9時時点,32.026666666666664,130.2,阿久根,厳重警戒
2023/8/24,9:00,88081,30.0,8月24日 9時時点,32.04666666666667,130.62666666666667,大口,厳重警戒
2023/8/24,9:00,88107,31.0,8月24日 9時時点,31.916666666666668,130.455,さつま柏原,危険
2023/8/24,9:00,88131,28.4,8月24日 9時時点,31.835,129.86666666666667,中甑,厳重警戒
2023/8/24,9:00,88151,30.7,8月24日 9時時点,31.833333333333332,130.315,川内,厳重警戒
2023/8/24,9:00,88261,30.6,8月24日 9時時点,31.668333333333333,130.32833333333335,東市来,厳重警戒
2023/8/24,9:00,88286,28.3,8月24日 9時時点,31.661666666666665,130.84333333333333,牧之原,厳重警戒
2023/8/24,9:00,88317,29.0,8月24日 9時時点,31.555,130.54666666666665,鹿児島,厳重警戒
2023/8/24,9:00,88331,27.8,8月24日 9時時点,31.588333333333335,130.855,輝北,警戒
2023/8/24,9:00,88371,30.7,8月24日 9時時点,31.415,130.325,加世田,厳重警戒
2023/8/24,9:00,88406,30.5,8月24日 9時時点,31.47833333333333,131.095,志布志,厳重警戒
2023/8/24,9:00,88432,31.0,8月24日 9時時点,31.386666666666667,130.54,喜入,危険
2023/8/24,9:00,88442,30.0,8月24日 9時時点,31.391666666666666,130.86333333333334,鹿屋,厳重警戒
2023/8/24,9:00,88447,31.8,8月24日 9時時点,31.34,130.93833333333333,肝付前田,危険
2023/8/24,9:00,88466,30.6,8月24日 9時時点,31.27166666666667,130.29166666666666,枕崎,厳重警戒
2023/8/24,9:00,88486,30.2,8月24日 9時時点,31.25,130.63666666666666,指宿,厳重警戒
2023/8/24,9:00,88506,30.8,8月24日 9時時点,31.276666666666667,131.055,内之浦,厳重警戒
2023/8/24,9:00,88536,29.4,8月24日 9時時点,31.198333333333334,130.84333333333333,田代,厳重警戒
2023/8/24,9:00,88612,30.8,8月24日 9時時点,30.72,130.98166666666665,種子島,厳重警戒
2023/8/24,9:00,88666,29.4,8月24日 9時時点,30.406666666666666,130.90166666666667,上中,厳重警戒
2023/8/24,9:00,88686,28.7,8月24日 9時時点,30.385,130.65833333333333,屋久島,厳重警戒
2023/8/24,9:00,88706,31.2,8月24日 9時時点,30.235,130.555,尾之間,危険
2023/8/24,9:00,88736,29.7,8月24日 9時時点,29.84,129.86666666666667,中之島,厳重警戒
2023/8/24,9:00,88836,29.0,8月24日 9時時点,28.378333333333334,129.495,名瀬,厳重警戒
2023/8/24,9:00,88901,30.3,8月24日 9時時点,28.143333333333334,129.315,古仁屋,厳重警戒
2023/8/24,9:00,88956,30.3,8月24日 9時時点,27.676666666666666,128.97333333333333,伊仙,厳重警戒
2023/8/24,9:00,88971,30.4,8月24日 9時時点,27.431666666666665,128.705,沖永良部,厳重警戒
2023/8/24,9:00,91011,30.7,8月24日 9時時点,26.948333333333334,127.94,伊是名,厳重警戒
2023/8/24,9:00,91021,29.9,8月24日 9時時点,26.835,128.27166666666668,奥,厳重警戒
2023/8/24,9:00,91107,32.0,8月24日 9時時点,26.593333333333334,127.965,名護,危険
2023/8/24,9:00,91146,31.2,8月24日 9時時点,26.336666666666666,126.80333333333333,久米島,危険
2023/8/24,9:00,91166,31.1,8月24日 9時時点,26.363333333333333,127.97166666666666,宮城島,危険
2023/8/24,9:00,91181,30.0,8月24日 9時時点,26.21,127.36333333333333,渡嘉敷,厳重警戒
2023/8/24,9:00,91197,29.2,8月24日 9時時点,26.206666666666667,127.68666666666667,那覇,厳重警戒
2023/8/24,9:00,91241,30.5,8月24日 9時時点,26.153333333333332,127.765,糸数,厳重警戒
2023/8/24,9:00,92011,30.9,8月24日 9時時点,25.828333333333333,131.22833333333332,南大東,厳重警戒
2023/8/24,9:00,93041,29.1,8月24日 9時時点,24.793333333333333,125.27833333333334,宮古島,厳重警戒
2023/8/24,9:00,94001,31.2,8月24日 9時時点,24.506666666666668,124.28,伊原間,危険
2023/8/24,9:00,94017,30.8,8月24日 9時時点,24.466666666666665,123.01,与那国島,厳重警戒
2023/8/24,9:00,94062,31.5,8月24日 9時時点,24.426666666666666,123.765,西表島,危険
2023/8/24,9:00,94081,30.2,8月24日 9時時点,24.336666666666666,124.16333333333333,石垣島,厳重警戒
2023/8/24,9:00,94101,31.1,8月24日 9時時点,24.265,123.87166666666667,大原,危険
2023/8/24,9:00,94116,30.5,8月24日 9時時点,24.055,123.76666666666667,波照間,厳重警戒
