date_dt,date_popup,amdno,wbgt,lat,lon,kjName,guideline
2023-08-20 05:00:00,8月20日 5時時点,11001,22.4,45.52,141.935,宗谷岬,注意
2023-08-20 05:00:00,8月20日 5時時点,11016,23.2,45.415,141.67833333333334,稚内,注意
2023-08-20 05:00:00,8月20日 5時時点,11046,22.5,45.305,141.045,礼文,注意
2023-08-20 05:00:00,8月20日 5時時点,11076,21.7,45.335,142.17,浜鬼志別,注意
2023-08-20 05:00:00,8月20日 5時時点,11121,21.6,45.248333333333335,141.85166666666666,沼川,注意
2023-08-20 05:00:00,8月20日 5時時点,11151,22.6,45.178333333333335,141.13833333333332,沓形,注意
2023-08-20 05:00:00,8月20日 5時時点,11176,22.6,45.10166666666667,141.78,豊富,注意
2023-08-20 05:00:00,8月20日 5時時点,11206,22.4,45.125,142.35,浜頓別,注意
2023-08-20 05:00:00,8月20日 5時時点,11276,21.7,44.965,142.28,中頓別,注意
2023-08-20 05:00:00,8月20日 5時時点,11291,22.2,44.94,142.585,北見枝幸,注意
2023-08-20 05:00:00,8月20日 5時時点,11316,21.8,44.84166666666667,142.48,歌登,注意
2023-08-20 05:00:00,8月20日 5時時点,12011,22.7,44.82833333333333,142.07666666666665,中川,注意
2023-08-20 05:00:00,8月20日 5時時点,12041,22.4,44.72666666666667,142.265,音威子府,注意
2023-08-20 05:00:00,8月20日 5時時点,12141,23.4,44.48,142.34166666666667,美深,注意
2023-08-20 05:00:00,8月20日 5時時点,12181,23.4,44.37,142.45666666666668,名寄,注意
2023-08-20 05:00:00,8月20日 5時時点,12231,22.6,44.295,142.63666666666666,下川,注意
2023-08-20 05:00:00,8月20日 5時時点,12261,23.0,44.18666666666667,142.41666666666666,士別,注意
2023-08-20 05:00:00,8月20日 5時時点,12266,22.7,44.11833333333333,142.595,朝日,注意
2023-08-20 05:00:00,8月20日 5時時点,12301,23.7,44.028333333333336,142.41,和寒,注意
2023-08-20 05:00:00,8月20日 5時時点,12386,22.8,43.87,142.26,江丹別,注意
2023-08-20 05:00:00,8月20日 5時時点,12396,23.1,43.87,142.47,比布,注意
2023-08-20 05:00:00,8月20日 5時時点,12411,21.6,43.846666666666664,142.75333333333333,上川,注意
2023-08-20 05:00:00,8月20日 5時時点,12442,23.6,43.75666666666667,142.37166666666667,旭川,注意
2023-08-20 05:00:00,8月20日 5時時点,12451,23.4,43.70166666666667,142.50833333333333,東川,注意
2023-08-20 05:00:00,8月20日 5時時点,12512,22.7,43.64333333333333,142.58166666666668,志比内,注意
2023-08-20 05:00:00,8月20日 5時時点,12551,22.1,43.58833333333333,142.49333333333334,美瑛,注意
2023-08-20 05:00:00,8月20日 5時時点,12596,23.1,43.455,142.465,上富良野,注意
2023-08-20 05:00:00,8月20日 5時時点,12626,22.6,43.333333333333336,142.4,富良野,注意
2023-08-20 05:00:00,8月20日 5時時点,12632,22.4,43.30166666666667,142.52166666666668,麓郷,注意
2023-08-20 05:00:00,8月20日 5時時点,12691,21.9,43.16833333333334,142.56833333333333,幾寅,注意
2023-08-20 05:00:00,8月20日 5時時点,12746,21.8,42.97833333333333,142.395,占冠,注意
2023-08-20 05:00:00,8月20日 5時時点,15041,21.5,44.281666666666666,142.16166666666666,朱鞠内,注意
2023-08-20 05:00:00,8月20日 5時時点,15076,22.1,44.01,142.16,幌加内,注意
2023-08-20 05:00:00,8月20日 5時時点,13061,22.8,44.89333333333333,141.76166666666666,天塩,注意
2023-08-20 05:00:00,8月20日 5時時点,13086,23.1,44.718333333333334,141.80666666666667,遠別,注意
2023-08-20 05:00:00,8月20日 5時時点,13121,23.0,44.52333333333333,141.77,初山別,注意
2023-08-20 05:00:00,8月20日 5時時点,13146,23.6,44.428333333333335,141.42166666666665,焼尻,注意
2023-08-20 05:00:00,8月20日 5時時点,13181,23.5,44.36333333333334,141.7,羽幌,注意
2023-08-20 05:00:00,8月20日 5時時点,13261,22.8,44.04833333333333,141.85666666666665,達布,注意
2023-08-20 05:00:00,8月20日 5時時点,13277,22.9,43.945,141.63166666666666,留萌,注意
2023-08-20 05:00:00,8月20日 5時時点,13311,23.2,43.848333333333336,141.51,増毛,注意
2023-08-20 05:00:00,8月20日 5時時点,13321,22.6,43.85333333333333,141.76,幌糠,注意
2023-08-20 05:00:00,8月20日 5時時点,14026,22.3,43.58166666666666,141.38666666666666,浜益,注意
2023-08-20 05:00:00,8月20日 5時時点,14071,22.4,43.39666666666667,141.43666666666667,厚田,注意
2023-08-20 05:00:00,8月20日 5時時点,14101,22.5,43.22,141.645,新篠津,注意
2023-08-20 05:00:00,8月20日 5時時点,14116,23.3,43.14833333333333,141.22166666666666,山口,注意
2023-08-20 05:00:00,8月20日 5時時点,14121,22.6,43.193333333333335,141.37,石狩,注意
2023-08-20 05:00:00,8月20日 5時時点,14136,22.8,43.11,141.60166666666666,江別,注意
2023-08-20 05:00:00,8月20日 5時時点,14163,23.9,43.06,141.32833333333335,札幌,注意
2023-08-20 05:00:00,8月20日 5時時点,14206,22.7,42.92666666666667,141.565,恵庭島松,注意
2023-08-20 05:00:00,8月20日 5時時点,14286,22.0,42.77166666666667,141.40666666666667,支笏湖畔,注意
2023-08-20 05:00:00,8月20日 5時時点,15116,22.1,43.815,141.92666666666668,石狩沼田,注意
2023-08-20 05:00:00,8月20日 5時時点,15156,22.7,43.78,141.96166666666667,秩父別,注意
2023-08-20 05:00:00,8月20日 5時時点,15161,22.9,43.718333333333334,142.07333333333332,深川,注意
2023-08-20 05:00:00,8月20日 5時時点,15231,21.6,43.595,141.73166666666665,空知吉野,注意
2023-08-20 05:00:00,8月20日 5時時点,15241,22.8,43.57,141.93833333333333,滝川,注意
2023-08-20 05:00:00,8月20日 5時時点,15251,22.7,43.52,142.19,芦別,注意
2023-08-20 05:00:00,8月20日 5時時点,15311,22.7,43.33,141.61666666666667,月形,注意
2023-08-20 05:00:00,8月20日 5時時点,15321,22.9,43.36333333333334,141.82666666666665,美唄,注意
2023-08-20 05:00:00,8月20日 5時時点,15356,23.0,43.211666666666666,141.785,岩見沢,注意
2023-08-20 05:00:00,8月20日 5時時点,15431,22.8,43.01166666666666,141.69333333333333,長沼,注意
2023-08-20 05:00:00,8月20日 5時時点,15442,21.6,43.038333333333334,141.95666666666668,夕張,注意
2023-08-20 05:00:00,8月20日 5時時点,16026,23.2,43.27166666666667,140.56333333333333,美国,注意
2023-08-20 05:00:00,8月20日 5時時点,16061,23.8,43.145,140.42333333333335,神恵内,注意
2023-08-20 05:00:00,8月20日 5時時点,16076,23.5,43.181666666666665,140.75833333333333,余市,注意
2023-08-20 05:00:00,8月20日 5時時点,16091,24.2,43.181666666666665,141.015,小樽,注意
2023-08-20 05:00:00,8月20日 5時時点,16156,23.8,42.98,140.60333333333332,共和,注意
2023-08-20 05:00:00,8月20日 5時時点,16206,23.2,42.81,140.54166666666666,蘭越,注意
2023-08-20 05:00:00,8月20日 5時時点,16217,22.9,42.9,140.75666666666666,倶知安,注意
2023-08-20 05:00:00,8月20日 5時時点,16252,23.2,42.795,140.22333333333333,寿都,注意
2023-08-20 05:00:00,8月20日 5時時点,16281,21.8,42.775,140.88,真狩,注意
2023-08-20 05:00:00,8月20日 5時時点,16286,22.3,42.79333333333334,140.94833333333332,喜茂別,注意
2023-08-20 05:00:00,8月20日 5時時点,16321,22.8,42.663333333333334,140.31,黒松内,注意
2023-08-20 05:00:00,8月20日 5時時点,17036,22.0,44.58,142.96333333333334,雄武,注意
2023-08-20 05:00:00,8月20日 5時時点,17076,21.6,44.47,143.10833333333332,興部,注意
2023-08-20 05:00:00,8月20日 5時時点,17091,22.1,44.33166666666666,142.935,西興部,注意
2023-08-20 05:00:00,8月20日 5時時点,17112,22.3,44.345,143.355,紋別,注意
2023-08-20 05:00:00,8月20日 5時時点,17166,22.8,44.21333333333333,143.61833333333334,湧別,注意
2023-08-20 05:00:00,8月20日 5時時点,17196,22.0,44.17666666666667,143.06166666666667,滝上,注意
2023-08-20 05:00:00,8月20日 5時時点,17246,22.8,44.115,144.03666666666666,常呂,注意
2023-08-20 05:00:00,8月20日 5時時点,17306,22.9,44.053333333333335,143.54,遠軽,注意
2023-08-20 05:00:00,8月20日 5時時点,17316,22.7,44.01833333333333,143.76,佐呂間,注意
2023-08-20 05:00:00,8月20日 5時時点,17341,21.5,44.016666666666666,144.27833333333334,網走,注意
2023-08-20 05:00:00,8月20日 5時時点,17351,21.5,44.05166666666667,144.98166666666665,宇登呂,注意
2023-08-20 05:00:00,8月20日 5時時点,17482,20.9,43.865,143.15333333333334,白滝,ほぼ安全
2023-08-20 05:00:00,8月20日 5時時点,17501,22.4,43.916666666666664,143.53166666666667,生田原,注意
2023-08-20 05:00:00,8月20日 5時時点,17521,21.7,43.776666666666664,143.84166666666667,北見,注意
2023-08-20 05:00:00,8月20日 5時時点,17546,23.0,43.84166666666667,144.485,小清水,注意
2023-08-20 05:00:00,8月20日 5時時点,17561,21.9,43.885,144.7,斜里,注意
2023-08-20 05:00:00,8月20日 5時時点,17596,21.8,43.74166666666667,143.45,留辺蘂,注意
2023-08-20 05:00:00,8月20日 5時時点,17607,22.2,43.70666666666666,143.64333333333335,境野,注意
2023-08-20 05:00:00,8月20日 5時時点,17631,22.2,43.77,144.17166666666665,美幌,注意
2023-08-20 05:00:00,8月20日 5時時点,17717,21.8,43.70166666666667,144.03333333333333,津別,注意
2023-08-20 05:00:00,8月20日 5時時点,18038,20.6,44.02333333333333,145.18666666666667,羅臼,ほぼ安全
2023-08-20 05:00:00,8月20日 5時時点,18136,20.6,43.66166666666667,145.13166666666666,標津,ほぼ安全
2023-08-20 05:00:00,8月20日 5時時点,18161,22.1,43.52,144.74666666666667,上標津,注意
2023-08-20 05:00:00,8月20日 5時時点,18171,22.0,43.54333333333334,144.97833333333332,中標津,注意
2023-08-20 05:00:00,8月20日 5時時点,18256,22.7,43.38166666666667,145.11833333333334,別海,注意
2023-08-20 05:00:00,8月20日 5時時点,18273,22.0,43.33,145.585,根室,注意
2023-08-20 05:00:00,8月20日 5時時点,18281,21.9,43.39333333333333,145.75833333333333,納沙布,注意
2023-08-20 05:00:00,8月20日 5時時点,18311,22.4,43.221666666666664,145.22666666666666,厚床,注意
2023-08-20 05:00:00,8月20日 5時時点,19021,21.7,43.61666666666667,144.45666666666668,川湯,注意
2023-08-20 05:00:00,8月20日 5時時点,19051,21.6,43.51,144.46666666666667,弟子屈,注意
2023-08-20 05:00:00,8月20日 5時時点,19076,20.6,43.43666666666667,144.08333333333334,阿寒湖畔,ほぼ安全
2023-08-20 05:00:00,8月20日 5時時点,19151,22.5,43.291666666666664,144.58666666666667,標茶,注意
2023-08-20 05:00:00,8月20日 5時時点,19191,21.8,43.23166666666667,144.325,鶴居,注意
2023-08-20 05:00:00,8月20日 5時時点,19261,21.8,43.19833333333333,144.14166666666668,中徹別,注意
2023-08-20 05:00:00,8月20日 5時時点,19311,22.2,43.12,145.11,榊町,注意
2023-08-20 05:00:00,8月20日 5時時点,19376,22.8,43.09,144.77833333333334,太田,注意
2023-08-20 05:00:00,8月20日 5時時点,19416,21.8,42.97,144.06166666666667,白糠,注意
2023-08-20 05:00:00,8月20日 5時時点,19432,22.4,42.985,144.37666666666667,釧路,注意
2023-08-20 05:00:00,8月20日 5時時点,19451,22.3,42.93833333333333,144.735,知方学,注意
2023-08-20 05:00:00,8月20日 5時時点,20146,21.5,43.471666666666664,143.75333333333333,陸別,注意
2023-08-20 05:00:00,8月20日 5時時点,20186,20.4,43.36666666666667,143.19166666666666,ぬかびら源泉郷,ほぼ安全
2023-08-20 05:00:00,8月20日 5時時点,20266,21.0,43.24166666666667,143.295,上士幌,注意
2023-08-20 05:00:00,8月20日 5時時点,20276,22.4,43.24333333333333,143.55333333333334,足寄,注意
2023-08-20 05:00:00,8月20日 5時時点,20341,21.7,43.13166666666667,143.6,本別,注意
2023-08-20 05:00:00,8月20日 5時時点,20356,21.5,43.07666666666667,142.84,新得,注意
2023-08-20 05:00:00,8月20日 5時時点,20361,21.4,43.10333333333333,142.995,鹿追,注意
2023-08-20 05:00:00,8月20日 5時時点,20371,21.3,43.05,143.18333333333334,駒場,注意
2023-08-20 05:00:00,8月20日 5時時点,20421,21.4,42.9,143.04333333333332,芽室,注意
2023-08-20 05:00:00,8月20日 5時時点,20432,22.0,42.92166666666667,143.21166666666667,帯広,注意
2023-08-20 05:00:00,8月20日 5時時点,20441,21.8,42.92,143.45833333333334,池田,注意
2023-08-20 05:00:00,8月20日 5時時点,20506,22.3,42.80833333333333,143.65666666666667,浦幌,注意
2023-08-20 05:00:00,8月20日 5時時点,20556,21.3,42.78666666666667,143.32833333333335,糠内,注意
2023-08-20 05:00:00,8月20日 5時時点,20601,20.8,42.641666666666666,143.09666666666666,上札内,ほぼ安全
2023-08-20 05:00:00,8月20日 5時時点,20606,21.3,42.651666666666664,143.195,更別,注意
2023-08-20 05:00:00,8月20日 5時時点,20631,22.0,42.68666666666667,143.64666666666668,大津,注意
2023-08-20 05:00:00,8月20日 5時時点,20696,21.0,42.5,143.27333333333334,大樹,注意
2023-08-20 05:00:00,8月20日 5時時点,20751,21.4,42.29333333333334,143.31666666666666,広尾,注意
2023-08-20 05:00:00,8月20日 5時時点,21111,22.6,42.73,141.88833333333332,厚真,注意
2023-08-20 05:00:00,8月20日 5時時点,21126,22.6,42.76166666666667,142.14333333333335,穂別,注意
2023-08-20 05:00:00,8月20日 5時時点,21161,21.8,42.67,141.07833333333335,大滝,注意
2023-08-20 05:00:00,8月20日 5時時点,21171,22.2,42.63,141.24666666666667,森野,注意
2023-08-20 05:00:00,8月20日 5時時点,21187,23.1,42.623333333333335,141.54666666666665,苫小牧,注意
2023-08-20 05:00:00,8月20日 5時時点,21226,23.4,42.59,140.64333333333335,大岸,注意
2023-08-20 05:00:00,8月20日 5時時点,21261,23.0,42.54333333333334,141.35166666666666,白老,注意
2023-08-20 05:00:00,8月20日 5時時点,21276,23.0,42.59,141.93333333333334,鵡川,注意
2023-08-20 05:00:00,8月20日 5時時点,21297,23.4,42.475,140.84833333333333,伊達,注意
2023-08-20 05:00:00,8月20日 5時時点,21312,22.1,42.458333333333336,141.11833333333334,登別,注意
2023-08-20 05:00:00,8月20日 5時時点,21323,23.1,42.31166666666667,140.975,室蘭,注意
2023-08-20 05:00:00,8月20日 5時時点,22036,21.9,42.876666666666665,142.44166666666666,日高,注意
2023-08-20 05:00:00,8月20日 5時時点,22141,22.6,42.49666666666667,142.05333333333334,日高門別,注意
2023-08-20 05:00:00,8月20日 5時時点,22156,22.4,42.54333333333334,142.33333333333334,新和,注意
2023-08-20 05:00:00,8月20日 5時時点,22241,23.3,42.343333333333334,142.36166666666668,静内,注意
2023-08-20 05:00:00,8月20日 5時時点,22291,22.7,42.245,142.66166666666666,三石,注意
2023-08-20 05:00:00,8月20日 5時時点,22306,21.6,42.223333333333336,142.94833333333332,中杵臼,注意
2023-08-20 05:00:00,8月20日 5時時点,22327,22.9,42.16166666666667,142.77666666666667,浦河,注意
2023-08-20 05:00:00,8月20日 5時時点,22391,19.9,41.925,143.24333333333334,えりも岬,ほぼ安全
2023-08-20 05:00:00,8月20日 5時時点,23031,22.9,42.52333333333333,140.38166666666666,長万部,注意
2023-08-20 05:00:00,8月20日 5時時点,23086,23.0,42.251666666666665,140.27166666666668,八雲,注意
2023-08-20 05:00:00,8月20日 5時時点,23166,23.5,42.06666666666667,140.58833333333334,森,注意
2023-08-20 05:00:00,8月20日 5時時点,23206,22.9,41.905,140.97,川汲,注意
2023-08-20 05:00:00,8月20日 5時時点,23226,23.9,41.88666666666667,140.65333333333334,北斗,注意
2023-08-20 05:00:00,8月20日 5時時点,23232,24.2,41.81666666666667,140.75333333333333,函館,注意
2023-08-20 05:00:00,8月20日 5時時点,23326,23.7,41.68,140.43666666666667,木古内,注意
2023-08-20 05:00:00,8月20日 5時時点,23376,25.4,41.42333333333333,140.08666666666667,松前,警戒
2023-08-20 05:00:00,8月20日 5時時点,24141,24.0,42.12833333333333,139.985,熊石,注意
2023-08-20 05:00:00,8月20日 5時時点,24041,24.0,42.45,139.85166666666666,せたな,注意
2023-08-20 05:00:00,8月20日 5時時点,24051,22.9,42.428333333333335,140.00833333333333,今金,注意
2023-08-20 05:00:00,8月20日 5時時点,24101,24.6,42.248333333333335,139.55666666666667,奥尻,注意
2023-08-20 05:00:00,8月20日 5時時点,24201,23.0,41.93,140.31166666666667,鶉,注意
2023-08-20 05:00:00,8月20日 5時時点,24217,24.3,41.86666666666667,140.12333333333333,江差,注意
2023-08-20 05:00:00,8月20日 5時時点,31001,24.4,41.526666666666664,140.91166666666666,大間,注意
2023-08-20 05:00:00,8月20日 5時時点,31111,24.5,41.28333333333333,141.21,むつ,注意
2023-08-20 05:00:00,8月20日 5時時点,31121,24.0,41.235,141.39666666666668,小田野沢,注意
2023-08-20 05:00:00,8月20日 5時時点,31136,24.2,41.18,140.48166666666665,今別,注意
2023-08-20 05:00:00,8月20日 5時時点,31156,23.7,41.145,140.82166666666666,脇野沢,注意
2023-08-20 05:00:00,8月20日 5時時点,31186,24.7,41.056666666666665,140.34666666666666,市浦,注意
2023-08-20 05:00:00,8月20日 5時時点,31201,24.5,41.045,140.63333333333333,蟹田,注意
2023-08-20 05:00:00,8月20日 5時時点,31296,24.9,40.80833333333333,140.45833333333334,五所川原,注意
2023-08-20 05:00:00,8月20日 5時時点,31312,24.3,40.821666666666665,140.76833333333335,青森,注意
2023-08-20 05:00:00,8月20日 5時時点,31332,23.8,40.885,141.16,野辺地,注意
2023-08-20 05:00:00,8月20日 5時時点,31336,23.4,40.885,141.27166666666668,六ケ所,注意
2023-08-20 05:00:00,8月20日 5時時点,31366,24.5,40.776666666666664,140.205,鰺ケ沢,注意
2023-08-20 05:00:00,8月20日 5時時点,31436,24.5,40.645,139.93166666666667,深浦,注意
2023-08-20 05:00:00,8月20日 5時時点,31461,23.8,40.611666666666665,140.455,弘前,注意
2023-08-20 05:00:00,8月20日 5時時点,31466,24.0,40.666666666666664,140.585,黒石,注意
2023-08-20 05:00:00,8月20日 5時時点,31482,20.8,40.64833333333333,140.84833333333333,酸ケ湯,ほぼ安全
2023-08-20 05:00:00,8月20日 5時時点,31506,24.4,40.675,141.375,三沢,注意
2023-08-20 05:00:00,8月20日 5時時点,31586,24.1,40.60666666666667,141.23333333333332,十和田,注意
2023-08-20 05:00:00,8月20日 5時時点,31602,23.6,40.526666666666664,141.52166666666668,八戸,注意
2023-08-20 05:00:00,8月20日 5時時点,31646,23.0,40.48166666666667,140.62,碇ケ関,注意
2023-08-20 05:00:00,8月20日 5時時点,31662,21.6,40.42666666666667,140.89833333333334,休屋,注意
2023-08-20 05:00:00,8月20日 5時時点,31721,23.1,40.38333333333333,141.25666666666666,三戸,注意
2023-08-20 05:00:00,8月20日 5時時点,32056,24.9,40.413333333333334,139.94833333333332,八森,注意
2023-08-20 05:00:00,8月20日 5時時点,32111,24.0,40.19833333333333,140.03166666666667,能代,注意
2023-08-20 05:00:00,8月20日 5時時点,32126,24.0,40.22666666666667,140.37166666666667,鷹巣,注意
2023-08-20 05:00:00,8月20日 5時時点,32136,24.5,40.251666666666665,140.505,大館,注意
2023-08-20 05:00:00,8月20日 5時時点,32146,23.1,40.215,140.78666666666666,鹿角,注意
2023-08-20 05:00:00,8月20日 5時時点,32206,22.6,40.12,140.84,湯瀬,注意
2023-08-20 05:00:00,8月20日 5時時点,32266,20.6,40.013333333333335,140.80166666666668,八幡平,ほぼ安全
2023-08-20 05:00:00,8月20日 5時時点,32286,22.8,39.91166666666667,139.9,男鹿,注意
2023-08-20 05:00:00,8月20日 5時時点,32287,24.3,40.0,139.95,大潟,注意
2023-08-20 05:00:00,8月20日 5時時点,32296,23.6,39.93833333333333,140.115,五城目,注意
2023-08-20 05:00:00,8月20日 5時時点,32311,23.2,39.99333333333333,140.40333333333334,阿仁合,注意
2023-08-20 05:00:00,8月20日 5時時点,32402,25.0,39.71666666666667,140.09833333333333,秋田,警戒
2023-08-20 05:00:00,8月20日 5時時点,32407,23.6,39.70666666666666,140.28666666666666,岩見三内,注意
2023-08-20 05:00:00,8月20日 5時時点,32466,24.4,39.60333333333333,140.55666666666667,角館,注意
2023-08-20 05:00:00,8月20日 5時時点,32476,23.4,39.69833333333333,140.73166666666665,田沢湖,注意
2023-08-20 05:00:00,8月20日 5時時点,32496,22.4,39.526666666666664,140.23333333333332,大正寺,注意
2023-08-20 05:00:00,8月20日 5時時点,32551,24.2,39.49,140.495,大曲,注意
2023-08-20 05:00:00,8月20日 5時時点,32571,23.4,39.36,140.055,本荘,注意
2023-08-20 05:00:00,8月20日 5時時点,32581,22.3,39.305,140.28833333333333,東由利,注意
2023-08-20 05:00:00,8月20日 5時時点,32596,25.1,39.32,140.555,横手,警戒
2023-08-20 05:00:00,8月20日 5時時点,32616,24.3,39.255,139.91333333333333,にかほ,注意
2023-08-20 05:00:00,8月20日 5時時点,32626,22.0,39.235,140.13666666666666,矢島,注意
2023-08-20 05:00:00,8月20日 5時時点,32691,23.2,39.18666666666667,140.46333333333334,湯沢,注意
2023-08-20 05:00:00,8月20日 5時時点,32771,21.4,38.96,140.52833333333334,湯の岱,注意
2023-08-20 05:00:00,8月20日 5時時点,33006,22.8,40.403333333333336,141.7,種市,注意
2023-08-20 05:00:00,8月20日 5時時点,33026,22.5,40.325,141.46666666666667,軽米,注意
2023-08-20 05:00:00,8月20日 5時時点,33071,22.2,40.29833333333333,141.29833333333335,二戸,注意
2023-08-20 05:00:00,8月20日 5時時点,33136,21.4,40.14833333333333,141.57166666666666,山形,注意
2023-08-20 05:00:00,8月20日 5時時点,33146,22.6,40.16833333333334,141.74833333333333,久慈,注意
2023-08-20 05:00:00,8月20日 5時時点,33166,22.6,40.10333333333333,141.05,荒屋,注意
2023-08-20 05:00:00,8月20日 5時時点,33176,22.6,40.06,141.225,奥中山,注意
2023-08-20 05:00:00,8月20日 5時時点,33186,21.1,40.04,141.45666666666668,葛巻,注意
2023-08-20 05:00:00,8月20日 5時時点,33206,23.0,40.00333333333333,141.88333333333333,普代,注意
2023-08-20 05:00:00,8月20日 5時時点,33226,22.5,39.95166666666667,141.065,岩手松尾,注意
2023-08-20 05:00:00,8月20日 5時時点,33296,24.5,39.86833333333333,141.16666666666666,好摩,注意
2023-08-20 05:00:00,8月20日 5時時点,33326,22.3,39.846666666666664,141.795,岩泉,注意
2023-08-20 05:00:00,8月20日 5時時点,33336,24.3,39.846666666666664,141.96333333333334,小本,注意
2023-08-20 05:00:00,8月20日 5時時点,33371,21.1,39.78333333333333,141.32833333333335,薮川,注意
2023-08-20 05:00:00,8月20日 5時時点,33421,24.1,39.696666666666665,140.975,雫石,注意
2023-08-20 05:00:00,8月20日 5時時点,33431,24.3,39.69833333333333,141.165,盛岡,注意
2023-08-20 05:00:00,8月20日 5時時点,33441,20.2,39.65,141.35333333333332,区界,ほぼ安全
2023-08-20 05:00:00,8月20日 5時時点,33472,23.4,39.64666666666667,141.965,宮古,注意
2023-08-20 05:00:00,8月20日 5時時点,33486,22.1,39.54833333333333,140.84333333333333,沢内,注意
2023-08-20 05:00:00,8月20日 5時時点,33501,24.1,39.54666666666667,141.12666666666667,紫波,注意
2023-08-20 05:00:00,8月20日 5時時点,33526,23.2,39.598333333333336,141.68166666666667,川井,注意
2023-08-20 05:00:00,8月20日 5時時点,33581,24.1,39.47,141.27833333333334,大迫,注意
2023-08-20 05:00:00,8月20日 5時時点,33616,24.0,39.45,141.95666666666668,山田,注意
2023-08-20 05:00:00,8月20日 5時時点,33631,23.7,39.31,140.77666666666667,湯田,注意
2023-08-20 05:00:00,8月20日 5時時点,33671,23.1,39.33833333333333,141.54333333333332,遠野,注意
2023-08-20 05:00:00,8月20日 5時時点,33716,24.0,39.288333333333334,141.11,北上,注意
2023-08-20 05:00:00,8月20日 5時時点,33751,24.4,39.27,141.87833333333333,釜石,注意
2023-08-20 05:00:00,8月20日 5時時点,33776,23.9,39.14,141.06333333333333,若柳,注意
2023-08-20 05:00:00,8月20日 5時時点,33781,23.5,39.18333333333333,141.16166666666666,江刺,注意
2023-08-20 05:00:00,8月20日 5時時点,33801,23.0,39.141666666666666,141.57333333333332,住田,注意
2023-08-20 05:00:00,8月20日 5時時点,33877,23.5,39.06333333333333,141.71333333333334,大船渡,注意
2023-08-20 05:00:00,8月20日 5時時点,33911,24.6,38.93333333333333,141.125,一関,注意
2023-08-20 05:00:00,8月20日 5時時点,33921,23.2,38.92166666666667,141.33,千厩,注意
2023-08-20 05:00:00,8月20日 5時時点,34012,20.4,38.913333333333334,140.82833333333335,駒ノ湯,ほぼ安全
2023-08-20 05:00:00,8月20日 5時時点,34026,23.3,38.906666666666666,141.55666666666667,気仙沼,注意
2023-08-20 05:00:00,8月20日 5時時点,34096,23.6,38.74333333333333,140.76,川渡,注意
2023-08-20 05:00:00,8月20日 5時時点,34111,24.3,38.735,141.005,築館,注意
2023-08-20 05:00:00,8月20日 5時時点,34171,24.3,38.626666666666665,141.18833333333333,米山,注意
2023-08-20 05:00:00,8月20日 5時時点,34186,24.3,38.681666666666665,141.44833333333332,志津川,注意
2023-08-20 05:00:00,8月20日 5時時点,34216,24.8,38.598333333333336,140.91166666666666,古川,注意
2023-08-20 05:00:00,8月20日 5時時点,34266,24.5,38.473333333333336,140.88833333333332,大衡,注意
2023-08-20 05:00:00,8月20日 5時時点,34276,24.9,38.46,141.09166666666667,鹿島台,注意
2023-08-20 05:00:00,8月20日 5時時点,34292,24.9,38.42666666666667,141.29833333333335,石巻,注意
2023-08-20 05:00:00,8月20日 5時時点,34296,24.8,38.446666666666665,141.45,女川,注意
2023-08-20 05:00:00,8月20日 5時時点,34311,22.7,38.303333333333335,140.63666666666666,新川,注意
2023-08-20 05:00:00,8月20日 5時時点,34331,24.7,38.33833333333333,141.01333333333332,塩釜,注意
2023-08-20 05:00:00,8月20日 5時時点,34392,25.3,38.26166666666666,140.89666666666668,仙台,警戒
2023-08-20 05:00:00,8月20日 5時時点,34461,25.0,38.015,140.61166666666668,白石,警戒
2023-08-20 05:00:00,8月20日 5時時点,34462,24.7,38.126666666666665,140.68,蔵王,注意
2023-08-20 05:00:00,8月20日 5時時点,34471,25.8,38.025,140.85833333333332,亘理,警戒
2023-08-20 05:00:00,8月20日 5時時点,34506,25.1,37.931666666666665,140.77833333333334,丸森,警戒
2023-08-20 05:00:00,8月20日 5時時点,35002,25.8,39.18333333333333,139.54333333333332,飛島,警戒
2023-08-20 05:00:00,8月20日 5時時点,35052,23.8,38.90833333333333,139.84333333333333,酒田,注意
2023-08-20 05:00:00,8月20日 5時時点,35071,22.7,38.91833333333334,140.2,差首鍋,注意
2023-08-20 05:00:00,8月20日 5時時点,35116,23.0,38.87833333333333,140.33166666666668,金山,注意
2023-08-20 05:00:00,8月20日 5時時点,35141,24.9,38.735,139.82833333333335,鶴岡,注意
2023-08-20 05:00:00,8月20日 5時時点,35146,23.9,38.8,139.97333333333333,狩川,注意
2023-08-20 05:00:00,8月20日 5時時点,35162,24.1,38.75666666666667,140.31166666666667,新庄,注意
2023-08-20 05:00:00,8月20日 5時時点,35176,23.7,38.75833333333333,140.51666666666668,向町,注意
2023-08-20 05:00:00,8月20日 5時時点,35216,21.1,38.60666666666667,140.16333333333333,肘折,注意
2023-08-20 05:00:00,8月20日 5時時点,35231,24.4,38.608333333333334,140.41166666666666,尾花沢,注意
2023-08-20 05:00:00,8月20日 5時時点,35246,25.8,38.56666666666667,139.55166666666668,鼠ケ関,警戒
2023-08-20 05:00:00,8月20日 5時時点,35332,24.7,38.46,140.34833333333333,村山,注意
2023-08-20 05:00:00,8月20日 5時時点,35361,20.3,38.39,139.99333333333334,大井沢,ほぼ安全
2023-08-20 05:00:00,8月20日 5時時点,35376,23.3,38.37,140.19166666666666,左沢,注意
2023-08-20 05:00:00,8月20日 5時時点,35426,24.9,38.255,140.345,山形,注意
2023-08-20 05:00:00,8月20日 5時時点,35456,24.2,38.105,140.015,長井,注意
2023-08-20 05:00:00,8月20日 5時時点,35486,23.3,38.07833333333333,139.735,小国,注意
2023-08-20 05:00:00,8月20日 5時時点,35511,24.5,38.00333333333333,140.20666666666668,高畠,注意
2023-08-20 05:00:00,8月20日 5時時点,35541,23.0,37.99,139.95333333333335,高峰,注意
2023-08-20 05:00:00,8月20日 5時時点,35552,23.6,37.91166666666667,140.14333333333335,米沢,注意
2023-08-20 05:00:00,8月20日 5時時点,36056,23.6,37.891666666666666,140.43666666666667,茂庭,注意
2023-08-20 05:00:00,8月20日 5時時点,36066,25.3,37.85166666666667,140.58833333333334,梁川,警戒
2023-08-20 05:00:00,8月20日 5時時点,36106,19.2,37.721666666666664,140.05833333333334,桧原,ほぼ安全
2023-08-20 05:00:00,8月20日 5時時点,36127,25.4,37.75833333333333,140.47,福島,警戒
2023-08-20 05:00:00,8月20日 5時時点,36151,25.0,37.78333333333333,140.925,相馬,警戒
2023-08-20 05:00:00,8月20日 5時時点,36176,23.7,37.65833333333333,139.86333333333334,喜多方,注意
2023-08-20 05:00:00,8月20日 5時時点,36196,20.6,37.66833333333334,140.26,鷲倉,ほぼ安全
2023-08-20 05:00:00,8月20日 5時時点,36221,21.9,37.665,140.72666666666666,飯舘,注意
2023-08-20 05:00:00,8月20日 5時時点,36251,23.4,37.58833333333333,139.65666666666667,西会津,注意
2023-08-20 05:00:00,8月20日 5時時点,36276,22.4,37.55166666666667,140.10833333333332,猪苗代,注意
2023-08-20 05:00:00,8月20日 5時時点,36291,25.2,37.583333333333336,140.43,二本松,警戒
2023-08-20 05:00:00,8月20日 5時時点,36342,22.6,37.473333333333336,139.52833333333334,金山,注意
2023-08-20 05:00:00,8月20日 5時時点,36361,24.8,37.48833333333334,139.91,若松,注意
2023-08-20 05:00:00,8月20日 5時時点,36391,22.3,37.435,140.57666666666665,船引,注意
2023-08-20 05:00:00,8月20日 5時時点,36411,24.7,37.49166666666667,140.965,浪江,注意
2023-08-20 05:00:00,8月20日 5時時点,36426,22.5,37.343333333333334,139.31333333333333,只見,注意
2023-08-20 05:00:00,8月20日 5時時点,36476,23.9,37.36833333333333,140.33,郡山,注意
2023-08-20 05:00:00,8月20日 5時時点,36501,21.4,37.336666666666666,140.80833333333334,川内,注意
2023-08-20 05:00:00,8月20日 5時時点,36536,22.2,37.265,139.53666666666666,南郷,注意
2023-08-20 05:00:00,8月20日 5時時点,36562,21.4,37.276666666666664,140.06333333333333,湯本,注意
2023-08-20 05:00:00,8月20日 5時時点,36591,22.2,37.28666666666667,140.625,小野新町,注意
2023-08-20 05:00:00,8月20日 5時時点,36611,24.5,37.233333333333334,141.0,広野,注意
2023-08-20 05:00:00,8月20日 5時時点,36641,22.1,37.20666666666666,139.795,田島,注意
2023-08-20 05:00:00,8月20日 5時時点,36667,23.2,37.13166666666667,140.215,白河,注意
2023-08-20 05:00:00,8月20日 5時時点,36676,23.2,37.14666666666667,140.46,石川,注意
2023-08-20 05:00:00,8月20日 5時時点,36716,18.1,37.01,139.375,桧枝岐,ほぼ安全
2023-08-20 05:00:00,8月20日 5時時点,36821,23.0,36.93833333333333,140.40833333333333,東白川,注意
2023-08-20 05:00:00,8月20日 5時時点,36836,23.8,36.93333333333333,140.73333333333332,山田,注意
2023-08-20 05:00:00,8月20日 5時時点,36846,25.1,36.946666666666665,140.90333333333334,小名浜,警戒
2023-08-20 05:00:00,8月20日 5時時点,40046,23.8,36.833333333333336,140.77166666666668,北茨城,注意
2023-08-20 05:00:00,8月20日 5時時点,40061,22.7,36.778333333333336,140.345,大子,注意
2023-08-20 05:00:00,8月20日 5時時点,40091,23.3,36.60666666666667,140.325,常陸大宮,注意
2023-08-20 05:00:00,8月20日 5時時点,40136,25.4,36.58,140.645,日立,警戒
2023-08-20 05:00:00,8月20日 5時時点,40191,23.4,36.395,140.24,笠間,注意
2023-08-20 05:00:00,8月20日 5時時点,40201,25.0,36.38,140.46666666666667,水戸,警戒
2023-08-20 05:00:00,8月20日 5時時点,40221,25.4,36.20166666666667,139.71666666666667,古河,警戒
2023-08-20 05:00:00,8月20日 5時時点,40231,24.6,36.281666666666666,139.98833333333334,下館,注意
2023-08-20 05:00:00,8月20日 5時時点,40281,24.9,36.16833333333334,139.945,下妻,注意
2023-08-20 05:00:00,8月20日 5時時点,40311,23.5,36.16833333333334,140.52666666666667,鉾田,注意
2023-08-20 05:00:00,8月20日 5時時点,40336,24.5,36.056666666666665,140.125,つくば,注意
2023-08-20 05:00:00,8月20日 5時時点,40341,25.8,36.10333333333333,140.22,土浦,警戒
2023-08-20 05:00:00,8月20日 5時時点,40406,25.2,35.96333333333333,140.62166666666667,鹿嶋,警戒
2023-08-20 05:00:00,8月20日 5時時点,40426,24.3,35.89,140.21166666666667,龍ケ崎,注意
2023-08-20 05:00:00,8月20日 5時時点,41011,20.8,37.123333333333335,140.035,那須高原,ほぼ安全
2023-08-20 05:00:00,8月20日 5時時点,41076,22.0,36.92166666666667,139.695,五十里,注意
2023-08-20 05:00:00,8月20日 5時時点,41091,22.7,36.98166666666667,140.01833333333335,黒磯,注意
2023-08-20 05:00:00,8月20日 5時時点,41116,17.9,36.891666666666666,139.56833333333333,土呂部,ほぼ安全
2023-08-20 05:00:00,8月20日 5時時点,41141,23.5,36.84,140.035,大田原,注意
2023-08-20 05:00:00,8月20日 5時時点,41166,18.1,36.73833333333333,139.5,奥日光,ほぼ安全
2023-08-20 05:00:00,8月20日 5時時点,41172,21.5,36.75,139.615,日光東町,注意
2023-08-20 05:00:00,8月20日 5時時点,41181,23.1,36.75666666666667,139.88333333333333,塩谷,注意
2023-08-20 05:00:00,8月20日 5時時点,41247,23.5,36.641666666666666,140.11666666666667,那須烏山,注意
2023-08-20 05:00:00,8月20日 5時時点,41271,23.9,36.59166666666667,139.735,鹿沼,注意
2023-08-20 05:00:00,8月20日 5時時点,41277,25.1,36.54833333333333,139.86833333333334,宇都宮,警戒
2023-08-20 05:00:00,8月20日 5時時点,41331,24.4,36.47666666666667,139.98666666666668,真岡,注意
2023-08-20 05:00:00,8月20日 5時時点,41361,25.4,36.36333333333334,139.57,佐野,警戒
2023-08-20 05:00:00,8月20日 5時時点,41376,25.2,36.33833333333333,139.83,小山,警戒
2023-08-20 05:00:00,8月20日 5時時点,42046,20.3,36.86333333333333,139.05833333333334,藤原,ほぼ安全
2023-08-20 05:00:00,8月20日 5時時点,42091,21.3,36.77333333333333,138.965,みなかみ,注意
2023-08-20 05:00:00,8月20日 5時時点,42121,18.7,36.61666666666667,138.59166666666667,草津,ほぼ安全
2023-08-20 05:00:00,8月20日 5時時点,42146,22.0,36.66833333333334,139.02166666666668,沼田,注意
2023-08-20 05:00:00,8月20日 5時時点,42186,21.6,36.586666666666666,138.85,中之条,注意
2023-08-20 05:00:00,8月20日 5時時点,42221,18.1,36.46333333333333,138.46333333333334,田代,ほぼ安全
2023-08-20 05:00:00,8月20日 5時時点,42251,23.8,36.405,139.06,前橋,注意
2023-08-20 05:00:00,8月20日 5時時点,42266,24.3,36.41,139.325,桐生,注意
2023-08-20 05:00:00,8月20日 5時時点,42286,23.3,36.376666666666665,138.895,上里見,注意
2023-08-20 05:00:00,8月20日 5時時点,42302,25.1,36.33166666666666,139.165,伊勢崎,警戒
2023-08-20 05:00:00,8月20日 5時時点,42326,22.4,36.245,138.70666666666668,西野牧,注意
2023-08-20 05:00:00,8月20日 5時時点,42366,26.0,36.24,139.51333333333332,館林,警戒
2023-08-20 05:00:00,8月20日 5時時点,42396,22.4,36.108333333333334,138.89666666666668,神流,注意
2023-08-20 05:00:00,8月20日 5時時点,43051,24.2,36.105,139.18333333333334,寄居,注意
2023-08-20 05:00:00,8月20日 5時時点,43056,25.4,36.15,139.38,熊谷,警戒
2023-08-20 05:00:00,8月20日 5時時点,43126,25.4,36.086666666666666,139.635,久喜,警戒
2023-08-20 05:00:00,8月20日 5時時点,43156,23.8,35.99,139.07333333333332,秩父,注意
2023-08-20 05:00:00,8月20日 5時時点,43171,24.4,35.985,139.335,鳩山,注意
2023-08-20 05:00:00,8月20日 5時時点,43241,25.6,35.875,139.58666666666667,さいたま,警戒
2023-08-20 05:00:00,8月20日 5時時点,43256,25.6,35.88333333333333,139.75666666666666,越谷,警戒
2023-08-20 05:00:00,8月20日 5時時点,43266,25.1,35.77333333333333,139.41333333333333,所沢,警戒
2023-08-20 05:00:00,8月20日 5時時点,44046,23.1,35.791666666666664,139.05,小河内,注意
2023-08-20 05:00:00,8月20日 5時時点,44056,24.4,35.788333333333334,139.31166666666667,青梅,注意
2023-08-20 05:00:00,8月20日 5時時点,44071,26.3,35.73833333333333,139.59166666666667,練馬,警戒
2023-08-20 05:00:00,8月20日 5時時点,44112,25.0,35.666666666666664,139.31666666666666,八王子,警戒
2023-08-20 05:00:00,8月20日 5時時点,44116,25.8,35.68333333333333,139.48333333333332,府中,警戒
2023-08-20 05:00:00,8月20日 5時時点,44132,26.1,35.69166666666667,139.75,東京,警戒
2023-08-20 05:00:00,8月20日 5時時点,44136,26.0,35.638333333333335,139.86333333333334,江戸川臨海,警戒
2023-08-20 05:00:00,8月20日 5時時点,44172,23.3,34.748333333333335,139.36166666666668,大島,注意
2023-08-20 05:00:00,8月20日 5時時点,44226,26.4,34.123333333333335,139.52,三宅島,警戒
2023-08-20 05:00:00,8月20日 5時時点,44263,26.0,33.12166666666667,139.77833333333334,八丈島,警戒
2023-08-20 05:00:00,8月20日 5時時点,44301,26.4,27.091666666666665,142.19,父島,警戒
2023-08-20 05:00:00,8月20日 5時時点,45061,24.4,35.86333333333333,140.11,我孫子,注意
2023-08-20 05:00:00,8月20日 5時時点,45081,23.5,35.858333333333334,140.50166666666667,香取,注意
2023-08-20 05:00:00,8月20日 5時時点,45106,25.5,35.711666666666666,140.04333333333332,船橋,警戒
2023-08-20 05:00:00,8月20日 5時時点,45116,24.7,35.72833333333333,140.21166666666667,佐倉,注意
2023-08-20 05:00:00,8月20日 5時時点,45147,24.9,35.73833333333333,140.85666666666665,銚子,注意
2023-08-20 05:00:00,8月20日 5時時点,45181,24.3,35.655,140.505,横芝光,注意
2023-08-20 05:00:00,8月20日 5時時点,45212,26.3,35.60166666666667,140.10333333333332,千葉,警戒
2023-08-20 05:00:00,8月20日 5時時点,45261,23.6,35.43666666666667,140.29333333333332,茂原,注意
2023-08-20 05:00:00,8月20日 5時時点,45282,23.6,35.361666666666665,139.94,木更津,注意
2023-08-20 05:00:00,8月20日 5時時点,45291,22.8,35.39666666666667,140.14833333333334,牛久,注意
2023-08-20 05:00:00,8月20日 5時時点,45326,21.5,35.235,140.09833333333333,坂畑,注意
2023-08-20 05:00:00,8月20日 5時時点,45361,23.9,35.111666666666665,140.1,鴨川,注意
2023-08-20 05:00:00,8月20日 5時時点,45371,24.7,35.15,140.31166666666667,勝浦,注意
2023-08-20 05:00:00,8月20日 5時時点,45401,23.4,34.986666666666665,139.865,館山,注意
2023-08-20 05:00:00,8月20日 5時時点,46091,25.8,35.43333333333333,139.38666666666666,海老名,警戒
2023-08-20 05:00:00,8月20日 5時時点,46106,26.5,35.43833333333333,139.65166666666667,横浜,警戒
2023-08-20 05:00:00,8月20日 5時時点,46141,26.7,35.32,139.45,辻堂,警戒
2023-08-20 05:00:00,8月20日 5時時点,46166,26.3,35.276666666666664,139.155,小田原,警戒
2023-08-20 05:00:00,8月20日 5時時点,46211,24.9,35.178333333333335,139.63,三浦,注意
2023-08-20 05:00:00,8月20日 5時時点,48031,20.8,36.91166666666667,138.44166666666666,野沢温泉,ほぼ安全
2023-08-20 05:00:00,8月20日 5時時点,48061,20.8,36.80833333333333,138.19666666666666,信濃町,ほぼ安全
2023-08-20 05:00:00,8月20日 5時時点,48066,22.9,36.875,138.375,飯山,注意
2023-08-20 05:00:00,8月20日 5時時点,48141,18.7,36.69833333333333,137.86166666666668,白馬,ほぼ安全
2023-08-20 05:00:00,8月20日 5時時点,48156,22.0,36.66166666666667,138.19166666666666,長野,注意
2023-08-20 05:00:00,8月20日 5時時点,48191,18.2,36.52333333333333,137.83166666666668,大町,ほぼ安全
2023-08-20 05:00:00,8月20日 5時時点,48196,20.9,36.54833333333333,137.99666666666667,信州新町,ほぼ安全
2023-08-20 05:00:00,8月20日 5時時点,48216,15.7,36.531666666666666,138.325,菅平,ほぼ安全
2023-08-20 05:00:00,8月20日 5時時点,48256,23.2,36.4,138.265,上田,注意
2023-08-20 05:00:00,8月20日 5時時点,48296,20.6,36.343333333333334,137.88166666666666,穂高,ほぼ安全
2023-08-20 05:00:00,8月20日 5時時点,48321,19.1,36.38333333333333,138.38333333333333,東御,ほぼ安全
2023-08-20 05:00:00,8月20日 5時時点,48331,20.2,36.34166666666667,138.54666666666665,軽井沢,ほぼ安全
2023-08-20 05:00:00,8月20日 5時時点,48361,21.6,36.24666666666667,137.97,松本,注意
2023-08-20 05:00:00,8月20日 5時時点,48381,22.2,36.27166666666667,138.31333333333333,立科,注意
2023-08-20 05:00:00,8月20日 5時時点,48386,23.4,36.24666666666667,138.47666666666666,佐久,注意
2023-08-20 05:00:00,8月20日 5時時点,48466,18.4,36.08833333333333,137.68333333333334,奈川,ほぼ安全
2023-08-20 05:00:00,8月20日 5時時点,48491,21.9,36.045,138.10833333333332,諏訪,注意
2023-08-20 05:00:00,8月20日 5時時点,48531,17.3,35.93833333333333,137.60166666666666,開田高原,ほぼ安全
2023-08-20 05:00:00,8月20日 5時時点,48536,18.3,35.93666666666667,137.78666666666666,木祖薮原,ほぼ安全
2023-08-20 05:00:00,8月20日 5時時点,48546,20.8,35.983333333333334,137.98333333333332,辰野,ほぼ安全
2023-08-20 05:00:00,8月20日 5時時点,48561,19.9,35.97,138.22,原村,ほぼ安全
2023-08-20 05:00:00,8月20日 5時時点,48571,17.5,35.94833333333333,138.47166666666666,野辺山,ほぼ安全
2023-08-20 05:00:00,8月20日 5時時点,48606,20.0,35.84,137.68833333333333,木曽福島,ほぼ安全
2023-08-20 05:00:00,8月20日 5時時点,48621,20.7,35.825,137.955,伊那,ほぼ安全
2023-08-20 05:00:00,8月20日 5時時点,48717,20.0,35.61,137.62,南木曽,ほぼ安全
2023-08-20 05:00:00,8月20日 5時時点,48731,18.7,35.653333333333336,137.89833333333334,飯島,ほぼ安全
2023-08-20 05:00:00,8月20日 5時時点,48767,21.1,35.52333333333333,137.82166666666666,飯田,注意
2023-08-20 05:00:00,8月20日 5時時点,48826,17.4,35.373333333333335,137.69166666666666,浪合,ほぼ安全
2023-08-20 05:00:00,8月20日 5時時点,48841,20.9,35.321666666666665,137.93166666666667,南信濃,ほぼ安全
2023-08-20 05:00:00,8月20日 5時時点,49036,20.3,35.861666666666665,138.38666666666666,大泉,ほぼ安全
2023-08-20 05:00:00,8月20日 5時時点,49086,21.8,35.693333333333335,138.44833333333332,韮崎,注意
2023-08-20 05:00:00,8月20日 5時時点,49142,24.8,35.666666666666664,138.55333333333334,甲府,注意
2023-08-20 05:00:00,8月20日 5時時点,49151,24.1,35.663333333333334,138.725,勝沼,注意
2023-08-20 05:00:00,8月20日 5時時点,49161,23.9,35.608333333333334,138.93833333333333,大月,注意
2023-08-20 05:00:00,8月20日 5時時点,49196,22.0,35.528333333333336,138.615,古関,注意
2023-08-20 05:00:00,8月20日 5時時点,49236,23.4,35.46666666666667,138.44166666666666,切石,注意
2023-08-20 05:00:00,8月20日 5時時点,49251,21.8,35.5,138.76,河口湖,注意
2023-08-20 05:00:00,8月20日 5時時点,49256,21.5,35.43666666666667,138.83666666666667,山中,注意
2023-08-20 05:00:00,8月20日 5時時点,49316,24.6,35.288333333333334,138.445,南部,注意
2023-08-20 05:00:00,8月20日 5時時点,50106,22.2,35.21666666666667,138.22166666666666,井川,注意
2023-08-20 05:00:00,8月20日 5時時点,50136,23.0,35.305,138.92666666666668,御殿場,注意
2023-08-20 05:00:00,8月20日 5時時点,50196,25.2,35.185,138.66333333333333,富士,警戒
2023-08-20 05:00:00,8月20日 5時時点,50206,25.5,35.11333333333334,138.925,三島,警戒
2023-08-20 05:00:00,8月20日 5時時点,50226,22.9,35.056666666666665,137.76166666666666,佐久間,注意
2023-08-20 05:00:00,8月20日 5時時点,50241,21.8,35.10166666666667,138.12833333333333,川根本町,注意
2023-08-20 05:00:00,8月20日 5時時点,50261,25.4,35.053333333333335,138.52166666666668,清水,警戒
2023-08-20 05:00:00,8月20日 5時時点,50281,25.7,35.045,139.09166666666667,網代,警戒
2023-08-20 05:00:00,8月20日 5時時点,50331,25.7,34.975,138.40333333333334,静岡,警戒
2023-08-20 05:00:00,8月20日 5時時点,50386,23.8,34.89,137.81333333333333,天竜,注意
2023-08-20 05:00:00,8月20日 5時時点,50456,25.1,34.75333333333333,137.71166666666667,浜松,警戒
2023-08-20 05:00:00,8月20日 5時時点,50476,24.2,34.785,138.13833333333332,菊川牧之原,注意
2023-08-20 05:00:00,8月20日 5時時点,50491,24.6,34.755,138.78333333333333,松崎,注意
2023-08-20 05:00:00,8月20日 5時時点,50506,24.3,34.781666666666666,139.04833333333335,稲取,注意
2023-08-20 05:00:00,8月20日 5時時点,50536,24.6,34.69166666666667,137.88,磐田,注意
2023-08-20 05:00:00,8月20日 5時時点,50551,26.0,34.60333333333333,138.21333333333334,御前崎,警戒
2023-08-20 05:00:00,8月20日 5時時点,50561,25.6,34.60333333333333,138.84166666666667,石廊崎,警戒
2023-08-20 05:00:00,8月20日 5時時点,51031,24.1,35.21666666666667,136.69833333333332,愛西,注意
2023-08-20 05:00:00,8月20日 5時時点,51071,20.7,35.211666666666666,137.50666666666666,稲武,ほぼ安全
2023-08-20 05:00:00,8月20日 5時時点,51106,24.5,35.166666666666664,136.965,名古屋,注意
2023-08-20 05:00:00,8月20日 5時時点,51116,24.0,35.13166666666667,137.17666666666668,豊田,注意
2023-08-20 05:00:00,8月20日 5時時点,51216,24.7,34.995,136.94333333333333,大府,注意
2023-08-20 05:00:00,8月20日 5時時点,51226,23.6,34.91833333333334,137.19333333333333,岡崎,注意
2023-08-20 05:00:00,8月20日 5時時点,51247,23.2,34.906666666666666,137.51833333333335,新城,注意
2023-08-20 05:00:00,8月20日 5時時点,51281,24.7,34.845,137.21666666666667,蒲郡,注意
2023-08-20 05:00:00,8月20日 5時時点,51311,24.9,34.74,136.93833333333333,南知多,注意
2023-08-20 05:00:00,8月20日 5時時点,51331,24.4,34.75,137.34166666666667,豊橋,注意
2023-08-20 05:00:00,8月20日 5時時点,51346,24.8,34.62833333333333,137.09333333333333,伊良湖,注意
2023-08-20 05:00:00,8月20日 5時時点,52041,21.1,36.305,137.1,河合,注意
2023-08-20 05:00:00,8月20日 5時時点,52051,20.8,36.321666666666665,137.30833333333334,神岡,ほぼ安全
2023-08-20 05:00:00,8月20日 5時時点,52081,22.2,36.27333333333333,136.89666666666668,白川,注意
2023-08-20 05:00:00,8月20日 5時時点,52111,18.4,36.248333333333335,137.50333333333333,栃尾,ほぼ安全
2023-08-20 05:00:00,8月20日 5時時点,52146,22.1,36.155,137.25333333333333,高山,注意
2023-08-20 05:00:00,8月20日 5時時点,52181,17.9,36.06,137.035,六厩,ほぼ安全
2023-08-20 05:00:00,8月20日 5時時点,52196,18.2,36.015,137.38833333333332,宮之前,ほぼ安全
2023-08-20 05:00:00,8月20日 5時時点,52221,20.9,35.92333333333333,136.83166666666668,長滝,ほぼ安全
2023-08-20 05:00:00,8月20日 5時時点,52286,22.2,35.888333333333335,137.20666666666668,萩原,注意
2023-08-20 05:00:00,8月20日 5時時点,52331,22.2,35.75666666666667,136.97833333333332,八幡,注意
2023-08-20 05:00:00,8月20日 5時時点,52346,22.4,35.763333333333335,137.28833333333333,宮地,注意
2023-08-20 05:00:00,8月20日 5時時点,52381,22.7,35.638333333333335,136.60166666666666,樽見,注意
2023-08-20 05:00:00,8月20日 5時時点,52406,22.6,35.66166666666667,137.16,金山,注意
2023-08-20 05:00:00,8月20日 5時時点,52461,23.1,35.555,136.91,美濃,注意
2023-08-20 05:00:00,8月20日 5時時点,52482,20.8,35.598333333333336,137.31833333333333,黒川,ほぼ安全
2023-08-20 05:00:00,8月20日 5時時点,52511,24.1,35.485,136.56666666666666,揖斐川,注意
2023-08-20 05:00:00,8月20日 5時時点,52536,22.9,35.445,137.005,美濃加茂,注意
2023-08-20 05:00:00,8月20日 5時時点,52556,21.4,35.446666666666665,137.40333333333334,恵那,注意
2023-08-20 05:00:00,8月20日 5時時点,52557,21.3,35.47666666666667,137.48666666666668,中津川,注意
2023-08-20 05:00:00,8月20日 5時時点,52571,23.9,35.36333333333334,136.46666666666667,関ケ原,注意
2023-08-20 05:00:00,8月20日 5時時点,52581,25.4,35.346666666666664,136.62,大垣,警戒
2023-08-20 05:00:00,8月20日 5時時点,52586,24.1,35.4,136.76166666666666,岐阜,注意
2023-08-20 05:00:00,8月20日 5時時点,52606,22.5,35.346666666666664,137.10833333333332,多治見,注意
2023-08-20 05:00:00,8月20日 5時時点,53041,25.4,35.05,136.69333333333333,桑名,警戒
2023-08-20 05:00:00,8月20日 5時時点,53061,24.5,34.94,136.58,四日市,注意
2023-08-20 05:00:00,8月20日 5時時点,53091,24.1,34.87,136.45333333333335,亀山,注意
2023-08-20 05:00:00,8月20日 5時時点,53112,24.6,34.76166666666667,136.14166666666668,上野,注意
2023-08-20 05:00:00,8月20日 5時時点,53133,25.6,34.733333333333334,136.51833333333335,津,警戒
2023-08-20 05:00:00,8月20日 5時時点,53196,25.0,34.528333333333336,136.665,小俣,警戒
2023-08-20 05:00:00,8月20日 5時時点,53231,23.4,34.44833333333333,136.39,粥見,注意
2023-08-20 05:00:00,8月20日 5時時点,53257,24.7,34.48166666666667,136.825,鳥羽,注意
2023-08-20 05:00:00,8月20日 5時時点,53296,24.6,34.345,136.68166666666667,南伊勢,注意
2023-08-20 05:00:00,8月20日 5時時点,53326,25.0,34.208333333333336,136.32666666666665,紀伊長島,警戒
2023-08-20 05:00:00,8月20日 5時時点,53378,25.4,34.068333333333335,136.19333333333333,尾鷲,警戒
2023-08-20 05:00:00,8月20日 5時時点,53401,25.1,33.931666666666665,136.13833333333332,熊野新鹿,警戒
2023-08-20 05:00:00,8月20日 5時時点,54012,26.8,38.465,139.25333333333333,粟島,警戒
2023-08-20 05:00:00,8月20日 5時時点,54041,24.5,38.33,138.51166666666666,弾崎,注意
2023-08-20 05:00:00,8月20日 5時時点,54086,24.6,38.22666666666667,139.47833333333332,村上,注意
2023-08-20 05:00:00,8月20日 5時時点,54157,24.7,38.028333333333336,138.24,相川,注意
2023-08-20 05:00:00,8月20日 5時時点,54166,25.7,38.07333333333333,138.44,両津,警戒
2023-08-20 05:00:00,8月20日 5時時点,54181,25.6,38.07666666666667,139.38833333333332,中条,警戒
2023-08-20 05:00:00,8月20日 5時時点,54191,23.6,38.09166666666667,139.56333333333333,下関,注意
2023-08-20 05:00:00,8月20日 5時時点,54232,25.4,37.89333333333333,139.01833333333335,新潟,警戒
2023-08-20 05:00:00,8月20日 5時時点,54271,23.9,37.84166666666667,138.31333333333333,羽茂,注意
2023-08-20 05:00:00,8月20日 5時時点,54296,25.1,37.791666666666664,139.08666666666667,新津,警戒
2023-08-20 05:00:00,8月20日 5時時点,54341,25.4,37.76833333333333,138.91333333333333,巻,警戒
2023-08-20 05:00:00,8月20日 5時時点,54387,25.7,37.64,138.76666666666668,寺泊,警戒
2023-08-20 05:00:00,8月20日 5時時点,54396,26.5,37.64,138.955,三条,警戒
2023-08-20 05:00:00,8月20日 5時時点,54421,23.0,37.67166666666667,139.44666666666666,津川,注意
2023-08-20 05:00:00,8月20日 5時時点,54501,26.5,37.45,138.82333333333332,長岡,警戒
2023-08-20 05:00:00,8月20日 5時時点,54541,25.0,37.35166666666667,138.55333333333334,柏崎,警戒
2023-08-20 05:00:00,8月20日 5時時点,54566,22.8,37.346666666666664,139.04333333333332,守門,注意
2023-08-20 05:00:00,8月20日 5時時点,54586,25.4,37.225,138.325,大潟,警戒
2023-08-20 05:00:00,8月20日 5時時点,54616,24.6,37.22666666666667,138.96333333333334,小出,注意
2023-08-20 05:00:00,8月20日 5時時点,54651,24.5,37.10666666666667,138.24666666666667,高田,注意
2023-08-20 05:00:00,8月20日 5時時点,54661,22.2,37.10666666666667,138.45666666666668,安塚,注意
2023-08-20 05:00:00,8月20日 5時時点,54676,23.2,37.14333333333333,138.72666666666666,十日町,注意
2023-08-20 05:00:00,8月20日 5時時点,54711,26.0,37.04333333333334,137.875,糸魚川,警戒
2023-08-20 05:00:00,8月20日 5時時点,54721,23.2,37.083333333333336,138.02333333333334,能生,注意
2023-08-20 05:00:00,8月20日 5時時点,54816,23.0,36.93333333333333,138.22166666666666,関山,注意
2023-08-20 05:00:00,8月20日 5時時点,54836,22.4,36.99666666666667,138.68333333333334,津南,注意
2023-08-20 05:00:00,8月20日 5時時点,54841,23.1,36.94166666666667,138.81,湯沢,注意
2023-08-20 05:00:00,8月20日 5時時点,55022,25.0,36.93666666666667,137.56333333333333,朝日,警戒
2023-08-20 05:00:00,8月20日 5時時点,55041,25.0,36.86333333333333,136.96,氷見,警戒
2023-08-20 05:00:00,8月20日 5時時点,55056,24.7,36.821666666666665,137.42833333333334,魚津,注意
2023-08-20 05:00:00,8月20日 5時時点,55091,26.7,36.791666666666664,137.055,伏木,警戒
2023-08-20 05:00:00,8月20日 5時時点,55102,24.8,36.708333333333336,137.20166666666665,富山,注意
2023-08-20 05:00:00,8月20日 5時時点,55141,24.7,36.61,136.955,砺波,注意
2023-08-20 05:00:00,8月20日 5時時点,55166,21.8,36.67,137.42333333333335,上市,注意
2023-08-20 05:00:00,8月20日 5時時点,55191,24.0,36.545,136.87166666666667,南砺高宮,注意
2023-08-20 05:00:00,8月20日 5時時点,55206,23.7,36.57,137.15833333333333,八尾,注意
2023-08-20 05:00:00,8月20日 5時時点,56036,24.9,37.446666666666665,137.28666666666666,珠洲,注意
2023-08-20 05:00:00,8月20日 5時時点,56052,23.4,37.39,136.895,輪島,注意
2023-08-20 05:00:00,8月20日 5時時点,56116,25.6,37.14333333333333,136.725,志賀,警戒
2023-08-20 05:00:00,8月20日 5時時点,56146,25.6,37.03,136.99166666666667,七尾,警戒
2023-08-20 05:00:00,8月20日 5時時点,56176,26.8,36.89333333333333,136.77666666666667,羽咋,警戒
2023-08-20 05:00:00,8月20日 5時時点,56186,24.6,36.711666666666666,136.69166666666666,かほく,注意
2023-08-20 05:00:00,8月20日 5時時点,56227,25.4,36.58833333333333,136.63333333333333,金沢,警戒
2023-08-20 05:00:00,8月20日 5時時点,56276,24.6,36.38166666666667,136.435,小松,注意
2023-08-20 05:00:00,8月20日 5時時点,56286,22.5,36.39666666666667,136.62,白山河内,注意
2023-08-20 05:00:00,8月20日 5時時点,56301,24.2,36.26166666666666,136.39666666666668,加賀中津原,注意
2023-08-20 05:00:00,8月20日 5時時点,57001,25.2,36.24333333333333,136.17333333333335,三国,警戒
2023-08-20 05:00:00,8月20日 5時時点,57051,25.8,36.01166666666666,135.99,越廼,警戒
2023-08-20 05:00:00,8月20日 5時時点,57066,25.4,36.055,136.22166666666666,福井,警戒
2023-08-20 05:00:00,8月20日 5時時点,57082,23.5,36.038333333333334,136.52166666666668,勝山,注意
2023-08-20 05:00:00,8月20日 5時時点,57121,23.8,35.971666666666664,136.49666666666667,大野,注意
2023-08-20 05:00:00,8月20日 5時時点,57206,22.7,35.766666666666666,136.2,今庄,注意
2023-08-20 05:00:00,8月20日 5時時点,57248,24.6,35.653333333333336,136.06166666666667,敦賀,注意
2023-08-20 05:00:00,8月20日 5時時点,57286,24.4,35.6,135.91666666666666,美浜,注意
2023-08-20 05:00:00,8月20日 5時時点,57317,24.4,35.483333333333334,135.78166666666667,小浜,注意
2023-08-20 05:00:00,8月20日 5時時点,60051,23.8,35.41166666666667,136.02833333333334,今津,注意
2023-08-20 05:00:00,8月20日 5時時点,60061,24.0,35.42333333333333,136.24166666666667,長浜,注意
2023-08-20 05:00:00,8月20日 5時時点,60102,23.3,35.38333333333333,136.34333333333333,米原,注意
2023-08-20 05:00:00,8月20日 5時時点,60116,24.9,35.235,135.95666666666668,南小松,注意
2023-08-20 05:00:00,8月20日 5時時点,60131,24.7,35.275,136.24333333333334,彦根,注意
2023-08-20 05:00:00,8月20日 5時時点,60196,23.5,35.06166666666667,136.19,東近江,注意
2023-08-20 05:00:00,8月20日 5時時点,60216,25.2,34.99166666666667,135.91166666666666,大津,警戒
2023-08-20 05:00:00,8月20日 5時時点,60226,22.2,34.913333333333334,136.08,信楽,注意
2023-08-20 05:00:00,8月20日 5時時点,60236,23.8,34.93833333333333,136.27833333333334,土山,注意
2023-08-20 05:00:00,8月20日 5時時点,61001,25.7,35.736666666666665,135.08666666666667,間人,警戒
2023-08-20 05:00:00,8月20日 5時時点,61076,24.4,35.55,135.235,宮津,注意
2023-08-20 05:00:00,8月20日 5時時点,61111,24.6,35.45,135.31666666666666,舞鶴,注意
2023-08-20 05:00:00,8月20日 5時時点,61187,24.8,35.31166666666667,135.11333333333334,福知山,注意
2023-08-20 05:00:00,8月20日 5時時点,61206,22.5,35.275,135.55,美山,注意
2023-08-20 05:00:00,8月20日 5時時点,61242,24.1,35.108333333333334,135.455,園部,注意
2023-08-20 05:00:00,8月20日 5時時点,61286,25.8,35.013333333333335,135.73166666666665,京都,警戒
2023-08-20 05:00:00,8月20日 5時時点,61326,26.1,34.83,135.76,京田辺,警戒
2023-08-20 05:00:00,8月20日 5時時点,62016,24.3,34.94833333333333,135.455,能勢,注意
2023-08-20 05:00:00,8月20日 5時時点,62046,26.7,34.80833333333333,135.67166666666665,枚方,警戒
2023-08-20 05:00:00,8月20日 5時時点,62078,25.6,34.681666666666665,135.51833333333335,大阪,警戒
2023-08-20 05:00:00,8月20日 5時時点,62081,23.1,34.675,135.67666666666668,生駒山,注意
2023-08-20 05:00:00,8月20日 5時時点,62091,26.3,34.555,135.485,堺,警戒
2023-08-20 05:00:00,8月20日 5時時点,62131,24.2,34.385,135.35,熊取,注意
2023-08-20 05:00:00,8月20日 5時時点,63016,24.4,35.625,134.62666666666667,香住,注意
2023-08-20 05:00:00,8月20日 5時時点,63051,24.5,35.535,134.82166666666666,豊岡,注意
2023-08-20 05:00:00,8月20日 5時時点,63071,22.1,35.431666666666665,134.58333333333334,兎和野高原,注意
2023-08-20 05:00:00,8月20日 5時時点,63121,23.5,35.32333333333333,134.84833333333333,和田山,注意
2023-08-20 05:00:00,8月20日 5時時点,63201,22.6,35.166666666666664,134.79166666666666,生野,注意
2023-08-20 05:00:00,8月20日 5時時点,63216,24.0,35.13666666666666,135.065,柏原,注意
2023-08-20 05:00:00,8月20日 5時時点,63251,23.1,35.096666666666664,134.585,一宮,注意
2023-08-20 05:00:00,8月20日 5時時点,63321,24.0,34.95,134.74833333333333,福崎,注意
2023-08-20 05:00:00,8月20日 5時時点,63331,24.0,34.998333333333335,134.99666666666667,西脇,注意
2023-08-20 05:00:00,8月20日 5時時点,63366,24.8,34.858333333333334,134.37333333333333,上郡,注意
2023-08-20 05:00:00,8月20日 5時時点,63383,24.7,34.83833333333333,134.67,姫路,注意
2023-08-20 05:00:00,8月20日 5時時点,63411,23.9,34.895,135.21166666666667,三田,注意
2023-08-20 05:00:00,8月20日 5時時点,63461,24.5,34.776666666666664,135.01333333333332,三木,注意
2023-08-20 05:00:00,8月20日 5時時点,63491,25.2,34.67166666666667,134.52666666666667,家島,警戒
2023-08-20 05:00:00,8月20日 5時時点,63496,25.4,34.68666666666667,134.87666666666667,明石,警戒
2023-08-20 05:00:00,8月20日 5時時点,63518,27.0,34.696666666666665,135.21166666666667,神戸,警戒
2023-08-20 05:00:00,8月20日 5時時点,63551,25.2,34.46666666666667,134.84833333333333,郡家,警戒
2023-08-20 05:00:00,8月20日 5時時点,63571,24.3,34.31,134.84833333333333,洲本,注意
2023-08-20 05:00:00,8月20日 5時時点,63588,24.5,34.218333333333334,134.72,南淡,注意
2023-08-20 05:00:00,8月20日 5時時点,64036,24.9,34.67333333333333,135.83666666666667,奈良,注意
2023-08-20 05:00:00,8月20日 5時時点,64041,22.1,34.605,135.95166666666665,針,注意
2023-08-20 05:00:00,8月20日 5時時点,64101,22.7,34.48833333333334,135.93166666666667,大宇陀,注意
2023-08-20 05:00:00,8月20日 5時時点,64127,23.9,34.38,135.73,五條,注意
2023-08-20 05:00:00,8月20日 5時時点,64206,22.8,34.13666666666666,136.005,上北山,注意
2023-08-20 05:00:00,8月20日 5時時点,64227,23.5,34.045,135.78666666666666,風屋,注意
2023-08-20 05:00:00,8月20日 5時時点,65026,23.6,34.31,135.52833333333334,かつらぎ,注意
2023-08-20 05:00:00,8月20日 5時時点,65036,25.1,34.28,134.99833333333333,友ケ島,警戒
2023-08-20 05:00:00,8月20日 5時時点,65042,25.3,34.22833333333333,135.16333333333333,和歌山,警戒
2023-08-20 05:00:00,8月20日 5時時点,65061,20.5,34.221666666666664,135.59,高野山,ほぼ安全
2023-08-20 05:00:00,8月20日 5時時点,65121,22.8,34.086666666666666,135.425,清水,注意
2023-08-20 05:00:00,8月20日 5時時点,65162,22.9,33.945,135.55666666666667,龍神,注意
2023-08-20 05:00:00,8月20日 5時時点,65201,24.1,33.89333333333333,135.21666666666667,川辺,注意
2023-08-20 05:00:00,8月20日 5時時点,65256,25.1,33.791666666666664,135.51333333333332,栗栖川,警戒
2023-08-20 05:00:00,8月20日 5時時点,65276,26.3,33.68666666666667,135.97,新宮,警戒
2023-08-20 05:00:00,8月20日 5時時点,65306,23.6,33.638333333333335,135.71,西川,注意
2023-08-20 05:00:00,8月20日 5時時点,65356,26.1,33.45,135.75666666666666,潮岬,警戒
2023-08-20 05:00:00,8月20日 5時時点,66046,21.5,35.29666666666667,133.725,上長田,注意
2023-08-20 05:00:00,8月20日 5時時点,66091,20.6,35.10333333333333,133.435,千屋,ほぼ安全
2023-08-20 05:00:00,8月20日 5時時点,66127,23.7,35.111666666666665,134.17,奈義,注意
2023-08-20 05:00:00,8月20日 5時時点,66136,22.8,35.098333333333336,134.325,今岡,注意
2023-08-20 05:00:00,8月20日 5時時点,66171,23.3,35.068333333333335,133.75333333333333,久世,注意
2023-08-20 05:00:00,8月20日 5時時点,66186,23.9,35.06333333333333,134.00833333333333,津山,注意
2023-08-20 05:00:00,8月20日 5時時点,66221,22.4,34.943333333333335,133.51833333333335,新見,注意
2023-08-20 05:00:00,8月20日 5時時点,66296,24.1,34.86666666666667,133.90333333333334,福渡,注意
2023-08-20 05:00:00,8月20日 5時時点,66306,23.8,34.815,134.18333333333334,和気,注意
2023-08-20 05:00:00,8月20日 5時時点,66336,24.5,34.791666666666664,133.61,高梁,注意
2023-08-20 05:00:00,8月20日 5時時点,66408,25.9,34.685,133.925,岡山,警戒
2023-08-20 05:00:00,8月20日 5時時点,66421,24.2,34.681666666666665,134.20666666666668,虫明,注意
2023-08-20 05:00:00,8月20日 5時時点,66446,25.9,34.59,133.76833333333335,倉敷,警戒
2023-08-20 05:00:00,8月20日 5時時点,66481,25.3,34.501666666666665,133.495,笠岡,警戒
2023-08-20 05:00:00,8月20日 5時時点,66501,25.7,34.486666666666665,133.95,玉野,警戒
2023-08-20 05:00:00,8月20日 5時時点,67016,21.1,35.03333333333333,132.90166666666667,高野,注意
2023-08-20 05:00:00,8月20日 5時時点,67106,23.4,34.81166666666667,132.85,三次,注意
2023-08-20 05:00:00,8月20日 5時時点,67116,22.0,34.86,133.02333333333334,庄原,注意
2023-08-20 05:00:00,8月20日 5時時点,67151,21.5,34.76833333333333,132.46333333333334,大朝,注意
2023-08-20 05:00:00,8月20日 5時時点,67191,20.0,34.763333333333335,133.27833333333334,油木,ほぼ安全
2023-08-20 05:00:00,8月20日 5時時点,67212,23.5,34.61,132.32,加計,注意
2023-08-20 05:00:00,8月20日 5時時点,67292,23.4,34.545,132.53,三入,注意
2023-08-20 05:00:00,8月20日 5時時点,67316,21.4,34.583333333333336,133.05,世羅,注意
2023-08-20 05:00:00,8月20日 5時時点,67326,23.8,34.56166666666667,133.23166666666665,府中,注意
2023-08-20 05:00:00,8月20日 5時時点,67376,21.9,34.416666666666664,132.7,東広島,注意
2023-08-20 05:00:00,8月20日 5時時点,67401,24.5,34.446666666666665,133.24666666666667,福山,注意
2023-08-20 05:00:00,8月20日 5時時点,67421,20.9,34.365,132.19,廿日市津田,ほぼ安全
2023-08-20 05:00:00,8月20日 5時時点,67437,24.0,34.39833333333333,132.46166666666667,広島,注意
2023-08-20 05:00:00,8月20日 5時時点,67461,23.9,34.33,132.98166666666665,竹原,注意
2023-08-20 05:00:00,8月20日 5時時点,67471,24.4,34.278333333333336,133.12333333333333,生口島,注意
2023-08-20 05:00:00,8月20日 5時時点,67496,24.3,34.221666666666664,132.22,大竹,注意
2023-08-20 05:00:00,8月20日 5時時点,67511,24.5,34.24,132.55,呉,注意
2023-08-20 05:00:00,8月20日 5時時点,67576,24.4,34.165,132.74833333333333,呉市蒲刈,注意
2023-08-20 05:00:00,8月20日 5時時点,68022,24.5,36.20333333333333,133.33333333333334,西郷,注意
2023-08-20 05:00:00,8月20日 5時時点,68056,25.0,36.096666666666664,133.09666666666666,海士,警戒
2023-08-20 05:00:00,8月20日 5時時点,68091,25.1,35.52,132.98333333333332,鹿島,警戒
2023-08-20 05:00:00,8月20日 5時時点,68132,25.7,35.45666666666666,133.065,松江,警戒
2023-08-20 05:00:00,8月20日 5時時点,68156,24.1,35.33166666666666,132.73,出雲,注意
2023-08-20 05:00:00,8月20日 5時時点,68246,24.4,35.19,132.49666666666667,大田,注意
2023-08-20 05:00:00,8月20日 5時時点,68261,22.3,35.196666666666665,132.815,掛合,注意
2023-08-20 05:00:00,8月20日 5時時点,68276,21.2,35.17333333333333,133.10333333333332,横田,注意
2023-08-20 05:00:00,8月20日 5時時点,68306,21.8,35.001666666666665,132.71166666666667,赤名,注意
2023-08-20 05:00:00,8月20日 5時時点,68351,22.9,34.97666666666667,132.49166666666667,川本,注意
2023-08-20 05:00:00,8月20日 5時時点,68376,25.3,34.89666666666667,132.07,浜田,警戒
2023-08-20 05:00:00,8月20日 5時時点,68401,21.9,34.85333333333333,132.53,瑞穂,注意
2023-08-20 05:00:00,8月20日 5時時点,68431,22.0,34.776666666666664,132.10833333333332,弥栄,注意
2023-08-20 05:00:00,8月20日 5時時点,68462,25.7,34.67666666666667,131.84333333333333,益田,警戒
2023-08-20 05:00:00,8月20日 5時時点,68516,23.5,34.461666666666666,131.77,津和野,注意
2023-08-20 05:00:00,8月20日 5時時点,68541,21.9,34.391666666666666,131.89333333333335,吉賀,注意
2023-08-20 05:00:00,8月20日 5時時点,69006,25.7,35.54333333333334,133.235,境,警戒
2023-08-20 05:00:00,8月20日 5時時点,69021,24.4,35.52333333333333,133.56666666666666,塩津,注意
2023-08-20 05:00:00,8月20日 5時時点,69041,25.0,35.52,133.99666666666667,青谷,警戒
2023-08-20 05:00:00,8月20日 5時時点,69061,23.6,35.55833333333333,134.36,岩井,注意
2023-08-20 05:00:00,8月20日 5時時点,69076,24.8,35.43333333333333,133.33833333333334,米子,注意
2023-08-20 05:00:00,8月20日 5時時点,69101,24.2,35.473333333333336,133.83833333333334,倉吉,注意
2023-08-20 05:00:00,8月20日 5時時点,69122,24.6,35.486666666666665,134.23833333333334,鳥取,注意
2023-08-20 05:00:00,8月20日 5時時点,69246,22.4,35.263333333333335,134.24,智頭,注意
2023-08-20 05:00:00,8月20日 5時時点,69271,20.4,35.18666666666667,133.23,茶屋,ほぼ安全
2023-08-20 05:00:00,8月20日 5時時点,81011,24.2,34.615,131.62333333333333,須佐,注意
2023-08-20 05:00:00,8月20日 5時時点,81071,25.4,34.41,131.405,萩,警戒
2023-08-20 05:00:00,8月20日 5時時点,81116,24.6,34.37,131.055,油谷,注意
2023-08-20 05:00:00,8月20日 5時時点,81151,22.2,34.39833333333333,131.725,徳佐,注意
2023-08-20 05:00:00,8月20日 5時時点,81196,23.6,34.235,131.30666666666667,秋吉台,注意
2023-08-20 05:00:00,8月20日 5時時点,81231,23.8,34.26166666666666,131.95166666666665,広瀬,注意
2023-08-20 05:00:00,8月20日 5時時点,81266,24.0,34.18666666666667,131.07666666666665,豊田,注意
2023-08-20 05:00:00,8月20日 5時時点,81286,24.4,34.16166666666667,131.46166666666667,山口,注意
2023-08-20 05:00:00,8月20日 5時時点,81321,23.7,34.155,132.17833333333334,岩国,注意
2023-08-20 05:00:00,8月20日 5時時点,81371,24.1,34.04,131.53333333333333,防府,注意
2023-08-20 05:00:00,8月20日 5時時点,81386,24.0,34.01,131.87166666666667,下松,注意
2023-08-20 05:00:00,8月20日 5時時点,81397,23.0,34.095,132.075,玖珂,注意
2023-08-20 05:00:00,8月20日 5時時点,81428,26.2,33.94833333333333,130.925,下関,警戒
2023-08-20 05:00:00,8月20日 5時時点,81481,23.6,33.958333333333336,132.11333333333334,柳井,注意
2023-08-20 05:00:00,8月20日 5時時点,81486,23.8,33.903333333333336,132.29333333333332,安下庄,注意
2023-08-20 05:00:00,8月20日 5時時点,71066,22.6,34.02333333333333,133.795,池田,注意
2023-08-20 05:00:00,8月20日 5時時点,71087,24.2,34.04,134.15666666666667,穴吹,注意
2023-08-20 05:00:00,8月20日 5時時点,71106,25.4,34.06666666666667,134.57333333333332,徳島,警戒
2023-08-20 05:00:00,8月20日 5時時点,71191,19.9,33.86666666666667,133.90333333333334,京上,ほぼ安全
2023-08-20 05:00:00,8月20日 5時時点,71231,25.4,33.836666666666666,134.74166666666667,蒲生田,警戒
2023-08-20 05:00:00,8月20日 5時時点,71251,22.7,33.77166666666667,134.19833333333332,木頭,注意
2023-08-20 05:00:00,8月20日 5時時点,71266,24.9,33.73166666666667,134.53833333333333,日和佐,注意
2023-08-20 05:00:00,8月20日 5時時点,71291,24.9,33.611666666666665,134.355,海陽,注意
2023-08-20 05:00:00,8月20日 5時時点,72061,25.3,34.471666666666664,134.27333333333334,内海,警戒
2023-08-20 05:00:00,8月20日 5時時点,72086,24.8,34.318333333333335,134.05333333333334,高松,注意
2023-08-20 05:00:00,8月20日 5時時点,72111,25.1,34.275,133.75166666666667,多度津,警戒
2023-08-20 05:00:00,8月20日 5時時点,72121,23.5,34.236666666666665,133.92333333333335,滝宮,注意
2023-08-20 05:00:00,8月20日 5時時点,72146,25.1,34.21333333333333,134.40666666666667,引田,警戒
2023-08-20 05:00:00,8月20日 5時時点,72161,23.3,34.12,133.77166666666668,財田,注意
2023-08-20 05:00:00,8月20日 5時時点,73001,22.8,34.25,133.00666666666666,大三島,注意
2023-08-20 05:00:00,8月20日 5時時点,73076,23.9,34.053333333333335,132.975,今治,注意
2023-08-20 05:00:00,8月20日 5時時点,73126,24.3,33.915,133.08,西条,注意
2023-08-20 05:00:00,8月20日 5時時点,73141,23.3,33.93666666666667,133.33833333333334,新居浜,注意
2023-08-20 05:00:00,8月20日 5時時点,73151,23.8,33.98166666666667,133.58166666666668,四国中央,注意
2023-08-20 05:00:00,8月20日 5時時点,73166,24.6,33.843333333333334,132.77666666666667,松山,注意
2023-08-20 05:00:00,8月20日 5時時点,73256,23.9,33.61666666666667,132.48,長浜,注意
2023-08-20 05:00:00,8月20日 5時時点,73276,23.1,33.663333333333334,132.895,久万,注意
2023-08-20 05:00:00,8月20日 5時時点,73306,23.6,33.50833333333333,132.535,大洲,注意
2023-08-20 05:00:00,8月20日 5時時点,73341,24.5,33.446666666666665,132.25666666666666,瀬戸,注意
2023-08-20 05:00:00,8月20日 5時時点,73406,22.6,33.36666666666667,132.50333333333333,宇和,注意
2023-08-20 05:00:00,8月20日 5時時点,73442,24.6,33.22666666666667,132.55166666666668,宇和島,注意
2023-08-20 05:00:00,8月20日 5時時点,73446,23.8,33.25333333333333,132.675,近永,注意
2023-08-20 05:00:00,8月20日 5時時点,73516,23.3,32.96333333333333,132.57,御荘,注意
2023-08-20 05:00:00,8月20日 5時時点,74056,20.6,33.765,133.33833333333334,本川,ほぼ安全
2023-08-20 05:00:00,8月20日 5時時点,74071,22.4,33.75333333333333,133.575,本山,注意
2023-08-20 05:00:00,8月20日 5時時点,74136,22.4,33.69833333333333,133.875,大栃,注意
2023-08-20 05:00:00,8月20日 5時時点,74182,24.6,33.56666666666667,133.54833333333335,高知,注意
2023-08-20 05:00:00,8月20日 5時時点,74187,24.0,33.59,133.64333333333335,後免,注意
2023-08-20 05:00:00,8月20日 5時時点,74271,25.1,33.48833333333334,133.93333333333334,安芸,警戒
2023-08-20 05:00:00,8月20日 5時時点,74296,22.6,33.39,132.92166666666665,梼原,注意
2023-08-20 05:00:00,8月20日 5時時点,74311,24.3,33.385,133.27666666666667,須崎,注意
2023-08-20 05:00:00,8月20日 5時時点,74361,24.2,33.20666666666666,133.12833333333333,窪川,注意
2023-08-20 05:00:00,8月20日 5時時点,74372,25.1,33.251666666666665,134.17666666666668,室戸岬,警戒
2023-08-20 05:00:00,8月20日 5時時点,74381,24.1,33.17,132.79166666666666,江川崎,注意
2023-08-20 05:00:00,8月20日 5時時点,74436,24.5,33.07833333333333,133.10166666666666,佐賀,注意
2023-08-20 05:00:00,8月20日 5時時点,74447,24.1,32.92,132.695,宿毛,注意
2023-08-20 05:00:00,8月20日 5時時点,74456,23.8,32.99,132.92,中村,注意
2023-08-20 05:00:00,8月20日 5時時点,74516,26.0,32.721666666666664,133.01,清水,警戒
2023-08-20 05:00:00,8月20日 5時時点,82046,24.6,33.80833333333333,130.53833333333333,宗像,注意
2023-08-20 05:00:00,8月20日 5時時点,82056,26.3,33.85166666666667,130.74333333333334,八幡,警戒
2023-08-20 05:00:00,8月20日 5時時点,82101,25.9,33.71333333333333,130.975,行橋,警戒
2023-08-20 05:00:00,8月20日 5時時点,82136,25.6,33.651666666666664,130.69333333333333,飯塚,警戒
2023-08-20 05:00:00,8月20日 5時時点,82171,26.2,33.56,130.19,前原,警戒
2023-08-20 05:00:00,8月20日 5時時点,82182,26.2,33.58166666666666,130.375,福岡,警戒
2023-08-20 05:00:00,8月20日 5時時点,82191,25.4,33.49666666666667,130.49,太宰府,警戒
2023-08-20 05:00:00,8月20日 5時時点,82206,24.4,33.55833333333333,130.855,添田,注意
2023-08-20 05:00:00,8月20日 5時時点,82261,25.0,33.406666666666666,130.695,朝倉,警戒
2023-08-20 05:00:00,8月20日 5時時点,82306,26.5,33.303333333333335,130.49333333333334,久留米,警戒
2023-08-20 05:00:00,8月20日 5時時点,82317,24.4,33.225,130.645,黒木,注意
2023-08-20 05:00:00,8月20日 5時時点,82361,25.4,33.00666666666667,130.46666666666667,大牟田,警戒
2023-08-20 05:00:00,8月20日 5時時点,83021,25.6,33.678333333333335,131.575,国見,警戒
2023-08-20 05:00:00,8月20日 5時時点,83051,26.0,33.586666666666666,131.245,中津,警戒
2023-08-20 05:00:00,8月20日 5時時点,83061,26.1,33.57,131.43333333333334,豊後高田,警戒
2023-08-20 05:00:00,8月20日 5時時点,83106,25.3,33.42,131.31666666666666,院内,警戒
2023-08-20 05:00:00,8月20日 5時時点,83121,24.7,33.416666666666664,131.59666666666666,杵築,注意
2023-08-20 05:00:00,8月20日 5時時点,83137,25.2,33.321666666666665,130.92833333333334,日田,警戒
2023-08-20 05:00:00,8月20日 5時時点,83191,23.3,33.291666666666664,131.155,玖珠,注意
2023-08-20 05:00:00,8月20日 5時時点,83201,22.8,33.25333333333333,131.34666666666666,湯布院,注意
2023-08-20 05:00:00,8月20日 5時時点,83216,25.9,33.235,131.61833333333334,大分,警戒
2023-08-20 05:00:00,8月20日 5時時点,83341,24.5,33.065,131.63166666666666,犬飼,注意
2023-08-20 05:00:00,8月20日 5時時点,83371,23.8,32.973333333333336,131.39833333333334,竹田,注意
2023-08-20 05:00:00,8月20日 5時時点,83401,24.0,32.95,131.90166666666667,佐伯,注意
2023-08-20 05:00:00,8月20日 5時時点,83431,24.4,32.845,131.675,宇目,注意
2023-08-20 05:00:00,8月20日 5時時点,83476,25.2,32.795,131.92333333333335,蒲江,警戒
2023-08-20 05:00:00,8月20日 5時時点,84012,25.8,34.69833333333333,129.445,鰐浦,警戒
2023-08-20 05:00:00,8月20日 5時時点,84072,24.5,34.196666666666665,129.29166666666666,厳原,注意
2023-08-20 05:00:00,8月20日 5時時点,84121,24.8,33.8,129.72166666666666,芦辺,注意
2023-08-20 05:00:00,8月20日 5時時点,84171,25.0,33.36,129.55,平戸,警戒
2023-08-20 05:00:00,8月20日 5時時点,84183,25.0,33.34166666666667,129.71166666666667,松浦,警戒
2023-08-20 05:00:00,8月20日 5時時点,84266,25.5,33.15833333333333,129.72666666666666,佐世保,警戒
2023-08-20 05:00:00,8月20日 5時時点,84306,25.0,33.013333333333335,129.65166666666667,西海,警戒
2023-08-20 05:00:00,8月20日 5時時点,84341,26.0,32.98166666666667,129.11833333333334,有川,警戒
2023-08-20 05:00:00,8月20日 5時時点,84496,25.6,32.733333333333334,129.86666666666667,長崎,警戒
2023-08-20 05:00:00,8月20日 5時時点,84519,22.8,32.736666666666665,130.26166666666666,雲仙岳,注意
2023-08-20 05:00:00,8月20日 5時時点,84523,27.2,32.76,130.36166666666668,島原,警戒
2023-08-20 05:00:00,8月20日 5時時点,84536,25.4,32.693333333333335,128.82666666666665,福江,警戒
2023-08-20 05:00:00,8月20日 5時時点,84561,26.2,32.611666666666665,130.19333333333333,口之津,警戒
2023-08-20 05:00:00,8月20日 5時時点,84597,26.5,32.58166666666666,129.77666666666667,脇岬,警戒
2023-08-20 05:00:00,8月20日 5時時点,85033,25.9,33.458333333333336,129.955,唐津,警戒
2023-08-20 05:00:00,8月20日 5時時点,85116,25.0,33.266666666666666,129.87833333333333,伊万里,警戒
2023-08-20 05:00:00,8月20日 5時時点,85142,26.0,33.265,130.305,佐賀,警戒
2023-08-20 05:00:00,8月20日 5時時点,85161,24.9,33.11666666666667,129.995,嬉野,注意
2023-08-20 05:00:00,8月20日 5時時点,85166,25.5,33.18333333333333,130.14833333333334,白石,警戒
2023-08-20 05:00:00,8月20日 5時時点,86006,24.0,33.115,130.69166666666666,鹿北,注意
2023-08-20 05:00:00,8月20日 5時時点,86066,22.2,33.10333333333333,131.06666666666666,南小国,注意
2023-08-20 05:00:00,8月20日 5時時点,86086,25.9,32.915,130.51166666666666,岱明,警戒
2023-08-20 05:00:00,8月20日 5時時点,86101,25.1,32.945,130.78166666666667,菊池,警戒
2023-08-20 05:00:00,8月20日 5時時点,86111,23.3,32.946666666666665,131.04,阿蘇乙姫,注意
2023-08-20 05:00:00,8月20日 5時時点,86141,25.8,32.81333333333333,130.70666666666668,熊本,警戒
2023-08-20 05:00:00,8月20日 5時時点,86157,23.5,32.83166666666666,131.01333333333332,南阿蘇,注意
2023-08-20 05:00:00,8月20日 5時時点,86161,23.0,32.821666666666665,131.125,高森,注意
2023-08-20 05:00:00,8月20日 5時時点,86216,26.2,32.611666666666665,130.47833333333332,三角,警戒
2023-08-20 05:00:00,8月20日 5時時点,86236,25.5,32.67166666666667,130.81666666666666,甲佐,警戒
2023-08-20 05:00:00,8月20日 5時時点,86271,25.8,32.515,130.44666666666666,松島,警戒
2023-08-20 05:00:00,8月20日 5時時点,86316,24.7,32.468333333333334,130.18,本渡,注意
2023-08-20 05:00:00,8月20日 5時時点,86336,26.0,32.473333333333336,130.60666666666665,八代,警戒
2023-08-20 05:00:00,8月20日 5時時点,86451,24.7,32.205,130.40666666666667,水俣,注意
2023-08-20 05:00:00,8月20日 5時時点,86467,24.9,32.21666666666667,130.755,人吉,注意
2023-08-20 05:00:00,8月20日 5時時点,86477,25.4,32.225,130.905,上,警戒
2023-08-20 05:00:00,8月20日 5時時点,86491,26.1,32.196666666666665,130.02666666666667,牛深,警戒
2023-08-20 05:00:00,8月20日 5時時点,87041,24.2,32.711666666666666,131.29,高千穂,注意
2023-08-20 05:00:00,8月20日 5時時点,87066,24.6,32.711666666666666,131.82,古江,注意
2023-08-20 05:00:00,8月20日 5時時点,87071,22.2,32.64333333333333,131.15666666666667,鞍岡,注意
2023-08-20 05:00:00,8月20日 5時時点,87141,25.6,32.58166666666666,131.65666666666667,延岡,警戒
2023-08-20 05:00:00,8月20日 5時時点,87181,25.6,32.40833333333333,131.6,日向,警戒
2023-08-20 05:00:00,8月20日 5時時点,87206,24.4,32.385,131.33166666666668,神門,注意
2023-08-20 05:00:00,8月20日 5時時点,87231,23.2,32.24,131.15166666666667,西米良,注意
2023-08-20 05:00:00,8月20日 5時時点,87293,23.9,32.123333333333335,131.475,高鍋,注意
2023-08-20 05:00:00,8月20日 5時時点,87301,24.2,32.04666666666667,130.81,加久藤,注意
2023-08-20 05:00:00,8月20日 5時時点,87331,25.0,32.06333333333333,131.41333333333333,西都,警戒
2023-08-20 05:00:00,8月20日 5時時点,87352,24.3,32.0,130.95333333333335,小林,注意
2023-08-20 05:00:00,8月20日 5時時点,87376,25.9,31.938333333333333,131.41333333333333,宮崎,警戒
2023-08-20 05:00:00,8月20日 5時時点,87406,23.8,31.843333333333334,131.30833333333334,田野,注意
2023-08-20 05:00:00,8月20日 5時時点,87426,25.0,31.73,131.08166666666668,都城,警戒
2023-08-20 05:00:00,8月20日 5時時点,87492,25.2,31.578333333333333,131.40666666666667,油津,警戒
2023-08-20 05:00:00,8月20日 5時時点,87501,23.5,31.465,131.22,串間,注意
2023-08-20 05:00:00,8月20日 5時時点,88061,24.5,32.026666666666664,130.2,阿久根,注意
2023-08-20 05:00:00,8月20日 5時時点,88081,24.2,32.04666666666667,130.62666666666667,大口,注意
2023-08-20 05:00:00,8月20日 5時時点,88107,23.5,31.916666666666668,130.455,さつま柏原,注意
2023-08-20 05:00:00,8月20日 5時時点,88131,25.4,31.835,129.86666666666667,中甑,警戒
2023-08-20 05:00:00,8月20日 5時時点,88151,23.7,31.833333333333332,130.315,川内,注意
2023-08-20 05:00:00,8月20日 5時時点,88261,24.1,31.668333333333333,130.32833333333335,東市来,注意
2023-08-20 05:00:00,8月20日 5時時点,88286,22.7,31.661666666666665,130.84333333333333,牧之原,注意
2023-08-20 05:00:00,8月20日 5時時点,88317,25.4,31.555,130.54666666666665,鹿児島,警戒
2023-08-20 05:00:00,8月20日 5時時点,88331,22.3,31.588333333333335,130.855,輝北,注意
2023-08-20 05:00:00,8月20日 5時時点,88371,24.5,31.415,130.325,加世田,注意
2023-08-20 05:00:00,8月20日 5時時点,88406,23.9,31.47833333333333,131.095,志布志,注意
2023-08-20 05:00:00,8月20日 5時時点,88432,24.7,31.386666666666667,130.54,喜入,注意
2023-08-20 05:00:00,8月20日 5時時点,88442,24.2,31.391666666666666,130.86333333333334,鹿屋,注意
2023-08-20 05:00:00,8月20日 5時時点,88447,24.8,31.34,130.93833333333333,肝付前田,注意
2023-08-20 05:00:00,8月20日 5時時点,88466,24.8,31.27166666666667,130.29166666666666,枕崎,注意
2023-08-20 05:00:00,8月20日 5時時点,88486,25.5,31.25,130.63666666666666,指宿,警戒
2023-08-20 05:00:00,8月20日 5時時点,88506,23.1,31.276666666666667,131.055,内之浦,注意
2023-08-20 05:00:00,8月20日 5時時点,88536,22.0,31.198333333333334,130.84333333333333,田代,注意
2023-08-20 05:00:00,8月20日 5時時点,88612,25.9,30.72,130.98166666666665,種子島,警戒
2023-08-20 05:00:00,8月20日 5時時点,88666,25.2,30.406666666666666,130.90166666666667,上中,警戒
2023-08-20 05:00:00,8月20日 5時時点,88686,24.7,30.385,130.65833333333333,屋久島,注意
2023-08-20 05:00:00,8月20日 5時時点,88706,25.5,30.235,130.555,尾之間,警戒
2023-08-20 05:00:00,8月20日 5時時点,88736,25.2,29.84,129.86666666666667,中之島,警戒
2023-08-20 05:00:00,8月20日 5時時点,88836,26.0,28.378333333333334,129.495,名瀬,警戒
2023-08-20 05:00:00,8月20日 5時時点,88901,26.8,28.143333333333334,129.315,古仁屋,警戒
2023-08-20 05:00:00,8月20日 5時時点,88956,26.4,27.676666666666666,128.97333333333333,伊仙,警戒
2023-08-20 05:00:00,8月20日 5時時点,88971,26.9,27.431666666666665,128.705,沖永良部,警戒
2023-08-20 05:00:00,8月20日 5時時点,91011,26.4,26.948333333333334,127.94,伊是名,警戒
2023-08-20 05:00:00,8月20日 5時時点,91021,25.9,26.835,128.27166666666668,奥,警戒
2023-08-20 05:00:00,8月20日 5時時点,91107,27.0,26.593333333333334,127.965,名護,警戒
2023-08-20 05:00:00,8月20日 5時時点,91146,27.3,26.336666666666666,126.80333333333333,久米島,警戒
2023-08-20 05:00:00,8月20日 5時時点,91166,26.5,26.363333333333333,127.97166666666666,宮城島,警戒
2023-08-20 05:00:00,8月20日 5時時点,91181,25.3,26.21,127.36333333333333,渡嘉敷,警戒
2023-08-20 05:00:00,8月20日 5時時点,91197,26.9,26.206666666666667,127.68666666666667,那覇,警戒
2023-08-20 05:00:00,8月20日 5時時点,91241,25.7,26.153333333333332,127.765,糸数,警戒
2023-08-20 05:00:00,8月20日 5時時点,92011,26.9,25.828333333333333,131.22833333333332,南大東,警戒
2023-08-20 05:00:00,8月20日 5時時点,93041,26.5,24.793333333333333,125.27833333333334,宮古島,警戒
2023-08-20 05:00:00,8月20日 5時時点,94001,25.5,24.506666666666668,124.28,伊原間,警戒
2023-08-20 05:00:00,8月20日 5時時点,94017,26.4,24.466666666666665,123.01,与那国島,警戒
2023-08-20 05:00:00,8月20日 5時時点,94062,26.1,24.426666666666666,123.765,西表島,警戒
2023-08-20 05:00:00,8月20日 5時時点,94081,26.4,24.336666666666666,124.16333333333333,石垣島,警戒
2023-08-20 05:00:00,8月20日 5時時点,94101,26.2,24.265,123.87166666666667,大原,警戒
2023-08-20 05:00:00,8月20日 5時時点,94116,26.1,24.055,123.76666666666667,波照間,警戒
