Date,Time,date_dt,amdno,wbgt,lat,lon,kjName,guideline
2023-08-08,17:00,2023-08-08 17:00:00,11001,17.9,45.52,141.935,宗谷岬,注意
2023-08-08,17:00,2023-08-08 17:00:00,11016,18.2,45.415,141.67833333333334,稚内,注意
2023-08-08,17:00,2023-08-08 17:00:00,11046,19.3,45.305,141.045,礼文,注意
2023-08-08,17:00,2023-08-08 17:00:00,11076,18.1,45.335,142.17,浜鬼志別,注意
2023-08-08,17:00,2023-08-08 17:00:00,11121,17.9,45.248333333333335,141.85166666666666,沼川,注意
2023-08-08,17:00,2023-08-08 17:00:00,11151,21.6,45.178333333333335,141.13833333333332,沓形,注意
2023-08-08,17:00,2023-08-08 17:00:00,11176,18.6,45.10166666666667,141.78,豊富,注意
2023-08-08,17:00,2023-08-08 17:00:00,11206,18.9,45.125,142.35,浜頓別,注意
2023-08-08,17:00,2023-08-08 17:00:00,11276,20.5,44.965,142.28,中頓別,注意
2023-08-08,17:00,2023-08-08 17:00:00,11291,18.9,44.94,142.585,北見枝幸,注意
2023-08-08,17:00,2023-08-08 17:00:00,11316,19.2,44.84166666666667,142.48,歌登,注意
2023-08-08,17:00,2023-08-08 17:00:00,12011,20.6,44.82833333333333,142.07666666666665,中川,注意
2023-08-08,17:00,2023-08-08 17:00:00,12041,20.0,44.72666666666667,142.265,音威子府,注意
2023-08-08,17:00,2023-08-08 17:00:00,12141,19.4,44.48,142.34166666666667,美深,注意
2023-08-08,17:00,2023-08-08 17:00:00,12181,20.2,44.37,142.45666666666668,名寄,注意
2023-08-08,17:00,2023-08-08 17:00:00,12231,20.1,44.295,142.63666666666666,下川,注意
2023-08-08,17:00,2023-08-08 17:00:00,12261,20.1,44.18666666666667,142.41666666666666,士別,注意
2023-08-08,17:00,2023-08-08 17:00:00,12266,20.8,44.11833333333333,142.595,朝日,注意
2023-08-08,17:00,2023-08-08 17:00:00,12301,20.0,44.028333333333336,142.41,和寒,注意
2023-08-08,17:00,2023-08-08 17:00:00,12386,21.3,43.87,142.26,江丹別,注意
2023-08-08,17:00,2023-08-08 17:00:00,12396,20.9,43.87,142.47,比布,注意
2023-08-08,17:00,2023-08-08 17:00:00,12411,21.2,43.846666666666664,142.75333333333333,上川,注意
2023-08-08,17:00,2023-08-08 17:00:00,12442,21.1,43.75666666666667,142.37166666666667,旭川,注意
2023-08-08,17:00,2023-08-08 17:00:00,12451,21.1,43.70166666666667,142.50833333333333,東川,注意
2023-08-08,17:00,2023-08-08 17:00:00,12512,20.7,43.64333333333333,142.58166666666668,志比内,注意
2023-08-08,17:00,2023-08-08 17:00:00,12551,20.5,43.58833333333333,142.49333333333334,美瑛,注意
2023-08-08,17:00,2023-08-08 17:00:00,12596,23.0,43.455,142.465,上富良野,注意
2023-08-08,17:00,2023-08-08 17:00:00,12626,23.9,43.333333333333336,142.4,富良野,注意
2023-08-08,17:00,2023-08-08 17:00:00,12632,23.7,43.30166666666667,142.52166666666668,麓郷,注意
2023-08-08,17:00,2023-08-08 17:00:00,12691,21.7,43.16833333333334,142.56833333333333,幾寅,注意
2023-08-08,17:00,2023-08-08 17:00:00,12746,22.5,42.97833333333333,142.395,占冠,注意
2023-08-08,17:00,2023-08-08 17:00:00,15041,19.1,44.281666666666666,142.16166666666666,朱鞠内,注意
2023-08-08,17:00,2023-08-08 17:00:00,15076,20.9,44.01,142.16,幌加内,注意
2023-08-08,17:00,2023-08-08 17:00:00,13061,20.6,44.89333333333333,141.76166666666666,天塩,注意
2023-08-08,17:00,2023-08-08 17:00:00,13086,22.8,44.718333333333334,141.80666666666667,遠別,注意
2023-08-08,17:00,2023-08-08 17:00:00,13121,24.3,44.52333333333333,141.77,初山別,注意
2023-08-08,17:00,2023-08-08 17:00:00,13146,23.4,44.428333333333335,141.42166666666665,焼尻,注意
2023-08-08,17:00,2023-08-08 17:00:00,13181,22.7,44.36333333333334,141.7,羽幌,注意
2023-08-08,17:00,2023-08-08 17:00:00,13261,22.2,44.04833333333333,141.85666666666665,達布,注意
2023-08-08,17:00,2023-08-08 17:00:00,13277,21.9,43.945,141.63166666666666,留萌,注意
2023-08-08,17:00,2023-08-08 17:00:00,13311,24.7,43.848333333333336,141.51,増毛,注意
2023-08-08,17:00,2023-08-08 17:00:00,13321,22.3,43.85333333333333,141.76,幌糠,注意
2023-08-08,17:00,2023-08-08 17:00:00,14026,25.0,43.58166666666666,141.38666666666666,浜益,警戒
2023-08-08,17:00,2023-08-08 17:00:00,14071,23.8,43.39666666666667,141.43666666666667,厚田,注意
2023-08-08,17:00,2023-08-08 17:00:00,14101,23.1,43.22,141.645,新篠津,注意
2023-08-08,17:00,2023-08-08 17:00:00,14116,25.4,43.14833333333333,141.22166666666666,山口,警戒
2023-08-08,17:00,2023-08-08 17:00:00,14121,24.3,43.193333333333335,141.37,石狩,注意
2023-08-08,17:00,2023-08-08 17:00:00,14136,24.3,43.11,141.60166666666666,江別,注意
2023-08-08,17:00,2023-08-08 17:00:00,14163,24.4,43.06,141.32833333333335,札幌,注意
2023-08-08,17:00,2023-08-08 17:00:00,14206,23.4,42.92666666666667,141.565,恵庭島松,注意
2023-08-08,17:00,2023-08-08 17:00:00,14286,22.0,42.77166666666667,141.40666666666667,支笏湖畔,注意
2023-08-08,17:00,2023-08-08 17:00:00,15116,22.1,43.815,141.92666666666668,石狩沼田,注意
2023-08-08,17:00,2023-08-08 17:00:00,15156,22.7,43.78,141.96166666666667,秩父別,注意
2023-08-08,17:00,2023-08-08 17:00:00,15161,21.8,43.718333333333334,142.07333333333332,深川,注意
2023-08-08,17:00,2023-08-08 17:00:00,15231,22.0,43.595,141.73166666666665,空知吉野,注意
2023-08-08,17:00,2023-08-08 17:00:00,15241,22.7,43.57,141.93833333333333,滝川,注意
2023-08-08,17:00,2023-08-08 17:00:00,15251,22.4,43.52,142.19,芦別,注意
2023-08-08,17:00,2023-08-08 17:00:00,15311,23.3,43.33,141.61666666666667,月形,注意
2023-08-08,17:00,2023-08-08 17:00:00,15321,23.1,43.36333333333334,141.82666666666665,美唄,注意
2023-08-08,17:00,2023-08-08 17:00:00,15356,25.0,43.211666666666666,141.785,岩見沢,警戒
2023-08-08,17:00,2023-08-08 17:00:00,15431,24.8,43.01166666666666,141.69333333333333,長沼,注意
2023-08-08,17:00,2023-08-08 17:00:00,15442,25.1,43.038333333333334,141.95666666666668,夕張,警戒
2023-08-08,17:00,2023-08-08 17:00:00,16026,25.5,43.27166666666667,140.56333333333333,美国,警戒
2023-08-08,17:00,2023-08-08 17:00:00,16061,25.5,43.145,140.42333333333335,神恵内,警戒
2023-08-08,17:00,2023-08-08 17:00:00,16076,25.6,43.181666666666665,140.75833333333333,余市,警戒
2023-08-08,17:00,2023-08-08 17:00:00,16091,25.3,43.181666666666665,141.015,小樽,警戒
2023-08-08,17:00,2023-08-08 17:00:00,16156,26.4,42.98,140.60333333333332,共和,警戒
2023-08-08,17:00,2023-08-08 17:00:00,16206,24.2,42.81,140.54166666666666,蘭越,注意
2023-08-08,17:00,2023-08-08 17:00:00,16217,23.8,42.9,140.75666666666666,倶知安,注意
2023-08-08,17:00,2023-08-08 17:00:00,16252,23.1,42.795,140.22333333333333,寿都,注意
2023-08-08,17:00,2023-08-08 17:00:00,16281,22.5,42.775,140.88,真狩,注意
2023-08-08,17:00,2023-08-08 17:00:00,16286,24.5,42.79333333333334,140.94833333333332,喜茂別,注意
2023-08-08,17:00,2023-08-08 17:00:00,16321,22.3,42.663333333333334,140.31,黒松内,注意
2023-08-08,17:00,2023-08-08 17:00:00,17036,19.8,44.58,142.96333333333334,雄武,注意
2023-08-08,17:00,2023-08-08 17:00:00,17076,19.9,44.47,143.10833333333332,興部,注意
2023-08-08,17:00,2023-08-08 17:00:00,17091,19.3,44.33166666666666,142.935,西興部,注意
2023-08-08,17:00,2023-08-08 17:00:00,17112,20.1,44.345,143.355,紋別,注意
2023-08-08,17:00,2023-08-08 17:00:00,17166,20.7,44.21333333333333,143.61833333333334,湧別,注意
2023-08-08,17:00,2023-08-08 17:00:00,17196,19.2,44.17666666666667,143.06166666666667,滝上,注意
2023-08-08,17:00,2023-08-08 17:00:00,17246,20.8,44.115,144.03666666666666,常呂,注意
2023-08-08,17:00,2023-08-08 17:00:00,17306,20.2,44.053333333333335,143.54,遠軽,注意
2023-08-08,17:00,2023-08-08 17:00:00,17316,20.9,44.01833333333333,143.76,佐呂間,注意
2023-08-08,17:00,2023-08-08 17:00:00,17341,20.3,44.016666666666666,144.27833333333334,網走,注意
2023-08-08,17:00,2023-08-08 17:00:00,17351,20.6,44.05166666666667,144.98166666666665,宇登呂,注意
2023-08-08,17:00,2023-08-08 17:00:00,17482,19.4,43.865,143.15333333333334,白滝,注意
2023-08-08,17:00,2023-08-08 17:00:00,17501,20.1,43.916666666666664,143.53166666666667,生田原,注意
2023-08-08,17:00,2023-08-08 17:00:00,17521,21.7,43.776666666666664,143.84166666666667,北見,注意
2023-08-08,17:00,2023-08-08 17:00:00,17546,20.1,43.84166666666667,144.485,小清水,注意
2023-08-08,17:00,2023-08-08 17:00:00,17561,21.1,43.885,144.7,斜里,注意
2023-08-08,17:00,2023-08-08 17:00:00,17596,20.4,43.74166666666667,143.45,留辺蘂,注意
2023-08-08,17:00,2023-08-08 17:00:00,17607,21.8,43.70666666666666,143.64333333333335,境野,注意
2023-08-08,17:00,2023-08-08 17:00:00,17631,19.9,43.77,144.17166666666665,美幌,注意
2023-08-08,17:00,2023-08-08 17:00:00,17717,21.1,43.70166666666667,144.03333333333333,津別,注意
2023-08-08,17:00,2023-08-08 17:00:00,18038,17.5,44.02333333333333,145.18666666666667,羅臼,注意
2023-08-08,17:00,2023-08-08 17:00:00,18136,16.2,43.66166666666667,145.13166666666666,標津,注意
2023-08-08,17:00,2023-08-08 17:00:00,18161,16.2,43.52,144.74666666666667,上標津,注意
2023-08-08,17:00,2023-08-08 17:00:00,18171,16.1,43.54333333333334,144.97833333333332,中標津,注意
2023-08-08,17:00,2023-08-08 17:00:00,18256,16.1,43.38166666666667,145.11833333333334,別海,注意
2023-08-08,17:00,2023-08-08 17:00:00,18273,16.8,43.33,145.585,根室,注意
2023-08-08,17:00,2023-08-08 17:00:00,18281,16.4,43.39333333333333,145.75833333333333,納沙布,注意
2023-08-08,17:00,2023-08-08 17:00:00,18311,16.5,43.221666666666664,145.22666666666666,厚床,注意
2023-08-08,17:00,2023-08-08 17:00:00,19021,16.8,43.61666666666667,144.45666666666668,川湯,注意
2023-08-08,17:00,2023-08-08 17:00:00,19051,16.5,43.51,144.46666666666667,弟子屈,注意
2023-08-08,17:00,2023-08-08 17:00:00,19076,21.6,43.43666666666667,144.08333333333334,阿寒湖畔,注意
2023-08-08,17:00,2023-08-08 17:00:00,19151,16.6,43.291666666666664,144.58666666666667,標茶,注意
2023-08-08,17:00,2023-08-08 17:00:00,19191,17.3,43.23166666666667,144.325,鶴居,注意
2023-08-08,17:00,2023-08-08 17:00:00,19261,18.6,43.19833333333333,144.14166666666668,中徹別,注意
2023-08-08,17:00,2023-08-08 17:00:00,19311,17.3,43.12,145.11,榊町,注意
2023-08-08,17:00,2023-08-08 17:00:00,19376,16.4,43.09,144.77833333333334,太田,注意
2023-08-08,17:00,2023-08-08 17:00:00,19416,18.5,42.97,144.06166666666667,白糠,注意
2023-08-08,17:00,2023-08-08 17:00:00,19432,17.3,42.985,144.37666666666667,釧路,注意
2023-08-08,17:00,2023-08-08 17:00:00,19451,15.9,42.93833333333333,144.735,知方学,注意
2023-08-08,17:00,2023-08-08 17:00:00,20146,20.4,43.471666666666664,143.75333333333333,陸別,注意
2023-08-08,17:00,2023-08-08 17:00:00,20186,19.1,43.36666666666667,143.19166666666666,ぬかびら源泉郷,注意
2023-08-08,17:00,2023-08-08 17:00:00,20266,19.7,43.24166666666667,143.295,上士幌,注意
2023-08-08,17:00,2023-08-08 17:00:00,20276,21.2,43.24333333333333,143.55333333333334,足寄,注意
2023-08-08,17:00,2023-08-08 17:00:00,20341,20.4,43.13166666666667,143.6,本別,注意
2023-08-08,17:00,2023-08-08 17:00:00,20356,20.9,43.07666666666667,142.84,新得,注意
2023-08-08,17:00,2023-08-08 17:00:00,20361,20.4,43.10333333333333,142.995,鹿追,注意
2023-08-08,17:00,2023-08-08 17:00:00,20371,20.4,43.05,143.18333333333334,駒場,注意
2023-08-08,17:00,2023-08-08 17:00:00,20421,20.2,42.9,143.04333333333332,芽室,注意
2023-08-08,17:00,2023-08-08 17:00:00,20432,20.6,42.92166666666667,143.21166666666667,帯広,注意
2023-08-08,17:00,2023-08-08 17:00:00,20441,20.6,42.92,143.45833333333334,池田,注意
2023-08-08,17:00,2023-08-08 17:00:00,20506,20.0,42.80833333333333,143.65666666666667,浦幌,注意
2023-08-08,17:00,2023-08-08 17:00:00,20556,20.5,42.78666666666667,143.32833333333335,糠内,注意
2023-08-08,17:00,2023-08-08 17:00:00,20601,18.1,42.641666666666666,143.09666666666666,上札内,注意
2023-08-08,17:00,2023-08-08 17:00:00,20606,19.1,42.651666666666664,143.195,更別,注意
2023-08-08,17:00,2023-08-08 17:00:00,20631,19.2,42.68666666666667,143.64666666666668,大津,注意
2023-08-08,17:00,2023-08-08 17:00:00,20696,19.8,42.5,143.27333333333334,大樹,注意
2023-08-08,17:00,2023-08-08 17:00:00,20751,18.5,42.29333333333334,143.31666666666666,広尾,注意
2023-08-08,17:00,2023-08-08 17:00:00,21111,26.8,42.73,141.88833333333332,厚真,警戒
2023-08-08,17:00,2023-08-08 17:00:00,21126,27.4,42.76166666666667,142.14333333333335,穂別,警戒
2023-08-08,17:00,2023-08-08 17:00:00,21161,23.4,42.67,141.07833333333335,大滝,注意
2023-08-08,17:00,2023-08-08 17:00:00,21171,22.1,42.63,141.24666666666667,森野,注意
2023-08-08,17:00,2023-08-08 17:00:00,21187,23.5,42.623333333333335,141.54666666666665,苫小牧,注意
2023-08-08,17:00,2023-08-08 17:00:00,21226,24.5,42.59,140.64333333333335,大岸,注意
2023-08-08,17:00,2023-08-08 17:00:00,21261,23.0,42.54333333333334,141.35166666666666,白老,注意
2023-08-08,17:00,2023-08-08 17:00:00,21276,27.3,42.59,141.93333333333334,鵡川,警戒
2023-08-08,17:00,2023-08-08 17:00:00,21297,26.1,42.475,140.84833333333333,伊達,警戒
2023-08-08,17:00,2023-08-08 17:00:00,21312,22.1,42.458333333333336,141.11833333333334,登別,注意
2023-08-08,17:00,2023-08-08 17:00:00,21323,22.7,42.31166666666667,140.975,室蘭,注意
2023-08-08,17:00,2023-08-08 17:00:00,22036,28.3,42.876666666666665,142.44166666666666,日高,厳重警戒
2023-08-08,17:00,2023-08-08 17:00:00,22141,26.2,42.49666666666667,142.05333333333334,日高門別,警戒
2023-08-08,17:00,2023-08-08 17:00:00,22156,28.7,42.54333333333334,142.33333333333334,新和,厳重警戒
2023-08-08,17:00,2023-08-08 17:00:00,22241,27.9,42.343333333333334,142.36166666666668,静内,警戒
2023-08-08,17:00,2023-08-08 17:00:00,22291,27.5,42.245,142.66166666666666,三石,警戒
2023-08-08,17:00,2023-08-08 17:00:00,22306,27.3,42.223333333333336,142.94833333333332,中杵臼,警戒
2023-08-08,17:00,2023-08-08 17:00:00,22327,25.3,42.16166666666667,142.77666666666667,浦河,警戒
2023-08-08,17:00,2023-08-08 17:00:00,22391,18.1,41.925,143.24333333333334,えりも岬,注意
2023-08-08,17:00,2023-08-08 17:00:00,23031,22.8,42.52333333333333,140.38166666666666,長万部,注意
2023-08-08,17:00,2023-08-08 17:00:00,23086,21.0,42.251666666666665,140.27166666666668,八雲,注意
2023-08-08,17:00,2023-08-08 17:00:00,23166,22.4,42.06666666666667,140.58833333333334,森,注意
2023-08-08,17:00,2023-08-08 17:00:00,23206,23.4,41.905,140.97,川汲,注意
2023-08-08,17:00,2023-08-08 17:00:00,23226,24.5,41.88666666666667,140.65333333333334,北斗,注意
2023-08-08,17:00,2023-08-08 17:00:00,23232,24.9,41.81666666666667,140.75333333333333,函館,注意
2023-08-08,17:00,2023-08-08 17:00:00,23326,24.8,41.68,140.43666666666667,木古内,注意
2023-08-08,17:00,2023-08-08 17:00:00,23376,27.6,41.42333333333333,140.08666666666667,松前,警戒
2023-08-08,17:00,2023-08-08 17:00:00,24141,25.5,42.12833333333333,139.985,熊石,警戒
2023-08-08,17:00,2023-08-08 17:00:00,24041,23.0,42.45,139.85166666666666,せたな,注意
2023-08-08,17:00,2023-08-08 17:00:00,24051,22.4,42.428333333333335,140.00833333333333,今金,注意
2023-08-08,17:00,2023-08-08 17:00:00,24101,25.3,42.248333333333335,139.55666666666667,奥尻,警戒
2023-08-08,17:00,2023-08-08 17:00:00,24201,25.3,41.93,140.31166666666667,鶉,警戒
2023-08-08,17:00,2023-08-08 17:00:00,24217,26.0,41.86666666666667,140.12333333333333,江差,警戒
2023-08-08,17:00,2023-08-08 17:00:00,31001,24.4,41.526666666666664,140.91166666666666,大間,注意
2023-08-08,17:00,2023-08-08 17:00:00,31111,23.4,41.28333333333333,141.21,むつ,注意
2023-08-08,17:00,2023-08-08 17:00:00,31121,21.6,41.235,141.39666666666668,小田野沢,注意
2023-08-08,17:00,2023-08-08 17:00:00,31136,26.5,41.18,140.48166666666665,今別,警戒
2023-08-08,17:00,2023-08-08 17:00:00,31156,26.2,41.145,140.82166666666666,脇野沢,警戒
2023-08-08,17:00,2023-08-08 17:00:00,31186,27.6,41.056666666666665,140.34666666666666,市浦,警戒
2023-08-08,17:00,2023-08-08 17:00:00,31201,25.3,41.045,140.63333333333333,蟹田,警戒
2023-08-08,17:00,2023-08-08 17:00:00,31296,29.6,40.80833333333333,140.45833333333334,五所川原,厳重警戒
2023-08-08,17:00,2023-08-08 17:00:00,31312,29.5,40.821666666666665,140.76833333333335,青森,厳重警戒
2023-08-08,17:00,2023-08-08 17:00:00,31332,26.3,40.885,141.16,野辺地,警戒
2023-08-08,17:00,2023-08-08 17:00:00,31336,24.1,40.885,141.27166666666668,六ケ所,注意
2023-08-08,17:00,2023-08-08 17:00:00,31366,29.5,40.776666666666664,140.205,鰺ケ沢,厳重警戒
2023-08-08,17:00,2023-08-08 17:00:00,31436,28.0,40.645,139.93166666666667,深浦,厳重警戒
2023-08-08,17:00,2023-08-08 17:00:00,31461,29.8,40.611666666666665,140.455,弘前,厳重警戒
2023-08-08,17:00,2023-08-08 17:00:00,31466,28.0,40.666666666666664,140.585,黒石,厳重警戒
2023-08-08,17:00,2023-08-08 17:00:00,31482,25.2,40.64833333333333,140.84833333333333,酸ケ湯,警戒
2023-08-08,17:00,2023-08-08 17:00:00,31506,26.7,40.675,141.375,三沢,警戒
2023-08-08,17:00,2023-08-08 17:00:00,31586,28.0,40.60666666666667,141.23333333333332,十和田,厳重警戒
2023-08-08,17:00,2023-08-08 17:00:00,31602,28.4,40.526666666666664,141.52166666666668,八戸,厳重警戒
2023-08-08,17:00,2023-08-08 17:00:00,31646,29.3,40.48166666666667,140.62,碇ケ関,厳重警戒
2023-08-08,17:00,2023-08-08 17:00:00,31662,29.4,40.42666666666667,140.89833333333334,休屋,厳重警戒
2023-08-08,17:00,2023-08-08 17:00:00,31721,28.3,40.38333333333333,141.25666666666666,三戸,厳重警戒
2023-08-08,17:00,2023-08-08 17:00:00,32056,29.0,40.413333333333334,139.94833333333332,八森,厳重警戒
2023-08-08,17:00,2023-08-08 17:00:00,32111,29.4,40.19833333333333,140.03166666666667,能代,厳重警戒
2023-08-08,17:00,2023-08-08 17:00:00,32126,30.4,40.22666666666667,140.37166666666667,鷹巣,厳重警戒
2023-08-08,17:00,2023-08-08 17:00:00,32136,30.8,40.251666666666665,140.505,大館,厳重警戒
2023-08-08,17:00,2023-08-08 17:00:00,32146,31.2,40.215,140.78666666666666,鹿角,危険
2023-08-08,17:00,2023-08-08 17:00:00,32206,27.2,40.12,140.84,湯瀬,警戒
2023-08-08,17:00,2023-08-08 17:00:00,32266,24.8,40.013333333333335,140.80166666666668,八幡平,注意
2023-08-08,17:00,2023-08-08 17:00:00,32286,27.5,39.91166666666667,139.9,男鹿,警戒
2023-08-08,17:00,2023-08-08 17:00:00,32287,28.2,40.0,139.95,大潟,厳重警戒
2023-08-08,17:00,2023-08-08 17:00:00,32296,27.4,39.93833333333333,140.115,五城目,警戒
2023-08-08,17:00,2023-08-08 17:00:00,32311,27.5,39.99333333333333,140.40333333333334,阿仁合,警戒
2023-08-08,17:00,2023-08-08 17:00:00,32402,28.6,39.71666666666667,140.09833333333333,秋田,厳重警戒
2023-08-08,17:00,2023-08-08 17:00:00,32407,29.2,39.70666666666666,140.28666666666666,岩見三内,厳重警戒
2023-08-08,17:00,2023-08-08 17:00:00,32466,30.2,39.60333333333333,140.55666666666667,角館,厳重警戒
2023-08-08,17:00,2023-08-08 17:00:00,32476,29.0,39.69833333333333,140.73166666666665,田沢湖,厳重警戒
2023-08-08,17:00,2023-08-08 17:00:00,32496,29.3,39.526666666666664,140.23333333333332,大正寺,厳重警戒
2023-08-08,17:00,2023-08-08 17:00:00,32551,27.6,39.49,140.495,大曲,警戒
2023-08-08,17:00,2023-08-08 17:00:00,32571,29.2,39.36,140.055,本荘,厳重警戒
2023-08-08,17:00,2023-08-08 17:00:00,32581,30.1,39.305,140.28833333333333,東由利,厳重警戒
2023-08-08,17:00,2023-08-08 17:00:00,32596,30.9,39.32,140.555,横手,厳重警戒
2023-08-08,17:00,2023-08-08 17:00:00,32616,30.0,39.255,139.91333333333333,にかほ,厳重警戒
2023-08-08,17:00,2023-08-08 17:00:00,32626,27.1,39.235,140.13666666666666,矢島,警戒
2023-08-08,17:00,2023-08-08 17:00:00,32691,29.1,39.18666666666667,140.46333333333334,湯沢,厳重警戒
2023-08-08,17:00,2023-08-08 17:00:00,32771,26.9,38.96,140.52833333333334,湯の岱,警戒
2023-08-08,17:00,2023-08-08 17:00:00,33006,28.0,40.403333333333336,141.7,種市,厳重警戒
2023-08-08,17:00,2023-08-08 17:00:00,33026,29.7,40.325,141.46666666666667,軽米,厳重警戒
2023-08-08,17:00,2023-08-08 17:00:00,33071,30.4,40.29833333333333,141.29833333333335,二戸,厳重警戒
2023-08-08,17:00,2023-08-08 17:00:00,33136,31.1,40.14833333333333,141.57166666666666,山形,危険
2023-08-08,17:00,2023-08-08 17:00:00,33146,30.3,40.16833333333334,141.74833333333333,久慈,厳重警戒
2023-08-08,17:00,2023-08-08 17:00:00,33166,28.9,40.10333333333333,141.05,荒屋,厳重警戒
2023-08-08,17:00,2023-08-08 17:00:00,33176,28.0,40.06,141.225,奥中山,厳重警戒
2023-08-08,17:00,2023-08-08 17:00:00,33186,28.5,40.04,141.45666666666668,葛巻,厳重警戒
2023-08-08,17:00,2023-08-08 17:00:00,33206,29.5,40.00333333333333,141.88333333333333,普代,厳重警戒
2023-08-08,17:00,2023-08-08 17:00:00,33226,28.5,39.95166666666667,141.065,岩手松尾,厳重警戒
2023-08-08,17:00,2023-08-08 17:00:00,33296,29.7,39.86833333333333,141.16666666666666,好摩,厳重警戒
2023-08-08,17:00,2023-08-08 17:00:00,33326,29.2,39.846666666666664,141.795,岩泉,厳重警戒
2023-08-08,17:00,2023-08-08 17:00:00,33336,29.1,39.846666666666664,141.96333333333334,小本,厳重警戒
2023-08-08,17:00,2023-08-08 17:00:00,33371,25.6,39.78333333333333,141.32833333333335,薮川,警戒
2023-08-08,17:00,2023-08-08 17:00:00,33421,29.1,39.696666666666665,140.975,雫石,厳重警戒
2023-08-08,17:00,2023-08-08 17:00:00,33431,28.7,39.69833333333333,141.165,盛岡,厳重警戒
2023-08-08,17:00,2023-08-08 17:00:00,33441,23.0,39.65,141.35333333333332,区界,注意
2023-08-08,17:00,2023-08-08 17:00:00,33472,26.8,39.64666666666667,141.965,宮古,警戒
2023-08-08,17:00,2023-08-08 17:00:00,33486,26.3,39.54833333333333,140.84333333333333,沢内,警戒
2023-08-08,17:00,2023-08-08 17:00:00,33501,28.6,39.54666666666667,141.12666666666667,紫波,厳重警戒
2023-08-08,17:00,2023-08-08 17:00:00,33526,29.4,39.598333333333336,141.68166666666667,川井,厳重警戒
2023-08-08,17:00,2023-08-08 17:00:00,33581,29.9,39.47,141.27833333333334,大迫,厳重警戒
2023-08-08,17:00,2023-08-08 17:00:00,33616,28.0,39.45,141.95666666666668,山田,厳重警戒
2023-08-08,17:00,2023-08-08 17:00:00,33631,28.3,39.31,140.77666666666667,湯田,厳重警戒
2023-08-08,17:00,2023-08-08 17:00:00,33671,26.5,39.33833333333333,141.54333333333332,遠野,警戒
2023-08-08,17:00,2023-08-08 17:00:00,33716,29.7,39.288333333333334,141.11,北上,厳重警戒
2023-08-08,17:00,2023-08-08 17:00:00,33751,28.1,39.27,141.87833333333333,釜石,厳重警戒
2023-08-08,17:00,2023-08-08 17:00:00,33776,28.7,39.14,141.06333333333333,若柳,厳重警戒
2023-08-08,17:00,2023-08-08 17:00:00,33781,31.1,39.18333333333333,141.16166666666666,江刺,危険
2023-08-08,17:00,2023-08-08 17:00:00,33801,26.9,39.141666666666666,141.57333333333332,住田,警戒
2023-08-08,17:00,2023-08-08 17:00:00,33877,26.5,39.06333333333333,141.71333333333334,大船渡,警戒
2023-08-08,17:00,2023-08-08 17:00:00,33911,28.9,38.93333333333333,141.125,一関,厳重警戒
2023-08-08,17:00,2023-08-08 17:00:00,33921,27.9,38.92166666666667,141.33,千厩,警戒
2023-08-08,17:00,2023-08-08 17:00:00,34012,22.7,38.913333333333334,140.82833333333335,駒ノ湯,注意
2023-08-08,17:00,2023-08-08 17:00:00,34026,25.4,38.906666666666666,141.55666666666667,気仙沼,警戒
2023-08-08,17:00,2023-08-08 17:00:00,34096,27.6,38.74333333333333,140.76,川渡,警戒
2023-08-08,17:00,2023-08-08 17:00:00,34111,29.1,38.735,141.005,築館,厳重警戒
2023-08-08,17:00,2023-08-08 17:00:00,34171,29.8,38.626666666666665,141.18833333333333,米山,厳重警戒
2023-08-08,17:00,2023-08-08 17:00:00,34186,25.9,38.681666666666665,141.44833333333332,志津川,警戒
2023-08-08,17:00,2023-08-08 17:00:00,34216,28.9,38.598333333333336,140.91166666666666,古川,厳重警戒
2023-08-08,17:00,2023-08-08 17:00:00,34266,28.5,38.473333333333336,140.88833333333332,大衡,厳重警戒
2023-08-08,17:00,2023-08-08 17:00:00,34276,29.7,38.46,141.09166666666667,鹿島台,厳重警戒
2023-08-08,17:00,2023-08-08 17:00:00,34292,27.0,38.42666666666667,141.29833333333335,石巻,警戒
2023-08-08,17:00,2023-08-08 17:00:00,34296,26.4,38.446666666666665,141.45,女川,警戒
2023-08-08,17:00,2023-08-08 17:00:00,34311,26.8,38.303333333333335,140.63666666666666,新川,警戒
2023-08-08,17:00,2023-08-08 17:00:00,34331,28.0,38.33833333333333,141.01333333333332,塩釜,厳重警戒
2023-08-08,17:00,2023-08-08 17:00:00,34392,27.2,38.26166666666666,140.89666666666668,仙台,警戒
2023-08-08,17:00,2023-08-08 17:00:00,34461,29.3,38.015,140.61166666666668,白石,厳重警戒
2023-08-08,17:00,2023-08-08 17:00:00,34462,29.5,38.126666666666665,140.68,蔵王,厳重警戒
2023-08-08,17:00,2023-08-08 17:00:00,34471,27.1,38.025,140.85833333333332,亘理,警戒
2023-08-08,17:00,2023-08-08 17:00:00,34506,27.7,37.931666666666665,140.77833333333334,丸森,警戒
2023-08-08,17:00,2023-08-08 17:00:00,35002,28.6,39.18333333333333,139.54333333333332,飛島,厳重警戒
2023-08-08,17:00,2023-08-08 17:00:00,35052,27.6,38.90833333333333,139.84333333333333,酒田,警戒
2023-08-08,17:00,2023-08-08 17:00:00,35071,27.4,38.91833333333334,140.2,差首鍋,警戒
2023-08-08,17:00,2023-08-08 17:00:00,35116,29.0,38.87833333333333,140.33166666666668,金山,厳重警戒
2023-08-08,17:00,2023-08-08 17:00:00,35141,30.5,38.735,139.82833333333335,鶴岡,厳重警戒
2023-08-08,17:00,2023-08-08 17:00:00,35146,28.3,38.8,139.97333333333333,狩川,厳重警戒
2023-08-08,17:00,2023-08-08 17:00:00,35162,28.0,38.75666666666667,140.31166666666667,新庄,厳重警戒
2023-08-08,17:00,2023-08-08 17:00:00,35176,28.0,38.75833333333333,140.51666666666668,向町,厳重警戒
2023-08-08,17:00,2023-08-08 17:00:00,35216,26.3,38.60666666666667,140.16333333333333,肘折,警戒
2023-08-08,17:00,2023-08-08 17:00:00,35231,28.7,38.608333333333334,140.41166666666666,尾花沢,厳重警戒
2023-08-08,17:00,2023-08-08 17:00:00,35246,31.2,38.56666666666667,139.55166666666668,鼠ケ関,危険
2023-08-08,17:00,2023-08-08 17:00:00,35332,28.9,38.46,140.34833333333333,村山,厳重警戒
2023-08-08,17:00,2023-08-08 17:00:00,35361,24.7,38.39,139.99333333333334,大井沢,注意
2023-08-08,17:00,2023-08-08 17:00:00,35376,28.6,38.37,140.19166666666666,左沢,厳重警戒
2023-08-08,17:00,2023-08-08 17:00:00,35426,28.2,38.255,140.345,山形,厳重警戒
2023-08-08,17:00,2023-08-08 17:00:00,35456,28.3,38.105,140.015,長井,厳重警戒
2023-08-08,17:00,2023-08-08 17:00:00,35486,29.3,38.07833333333333,139.735,小国,厳重警戒
2023-08-08,17:00,2023-08-08 17:00:00,35511,29.5,38.00333333333333,140.20666666666668,高畠,厳重警戒
2023-08-08,17:00,2023-08-08 17:00:00,35541,28.7,37.99,139.95333333333335,高峰,厳重警戒
2023-08-08,17:00,2023-08-08 17:00:00,35552,29.6,37.91166666666667,140.14333333333335,米沢,厳重警戒
2023-08-08,17:00,2023-08-08 17:00:00,36056,26.3,37.891666666666666,140.43666666666667,茂庭,警戒
2023-08-08,17:00,2023-08-08 17:00:00,36066,29.2,37.85166666666667,140.58833333333334,梁川,厳重警戒
2023-08-08,17:00,2023-08-08 17:00:00,36106,25.6,37.721666666666664,140.05833333333334,桧原,警戒
2023-08-08,17:00,2023-08-08 17:00:00,36127,28.0,37.75833333333333,140.47,福島,厳重警戒
2023-08-08,17:00,2023-08-08 17:00:00,36151,27.7,37.78333333333333,140.925,相馬,警戒
2023-08-08,17:00,2023-08-08 17:00:00,36176,30.5,37.65833333333333,139.86333333333334,喜多方,厳重警戒
2023-08-08,17:00,2023-08-08 17:00:00,36196,21.4,37.66833333333334,140.26,鷲倉,注意
2023-08-08,17:00,2023-08-08 17:00:00,36221,27.5,37.665,140.72666666666666,飯舘,警戒
2023-08-08,17:00,2023-08-08 17:00:00,36251,28.6,37.58833333333333,139.65666666666667,西会津,厳重警戒
2023-08-08,17:00,2023-08-08 17:00:00,36276,27.1,37.55166666666667,140.10833333333332,猪苗代,警戒
2023-08-08,17:00,2023-08-08 17:00:00,36291,27.0,37.583333333333336,140.43,二本松,警戒
2023-08-08,17:00,2023-08-08 17:00:00,36342,26.2,37.473333333333336,139.52833333333334,金山,警戒
2023-08-08,17:00,2023-08-08 17:00:00,36361,28.8,37.48833333333334,139.91,若松,厳重警戒
2023-08-08,17:00,2023-08-08 17:00:00,36391,27.8,37.435,140.57666666666665,船引,警戒
2023-08-08,17:00,2023-08-08 17:00:00,36411,27.9,37.49166666666667,140.965,浪江,警戒
2023-08-08,17:00,2023-08-08 17:00:00,36426,30.1,37.343333333333334,139.31333333333333,只見,厳重警戒
2023-08-08,17:00,2023-08-08 17:00:00,36476,27.7,37.36833333333333,140.33,郡山,警戒
2023-08-08,17:00,2023-08-08 17:00:00,36501,26.4,37.336666666666666,140.80833333333334,川内,警戒
2023-08-08,17:00,2023-08-08 17:00:00,36536,27.3,37.265,139.53666666666666,南郷,警戒
2023-08-08,17:00,2023-08-08 17:00:00,36562,26.4,37.276666666666664,140.06333333333333,湯本,警戒
2023-08-08,17:00,2023-08-08 17:00:00,36591,26.3,37.28666666666667,140.625,小野新町,警戒
2023-08-08,17:00,2023-08-08 17:00:00,36611,28.9,37.233333333333334,141.0,広野,厳重警戒
2023-08-08,17:00,2023-08-08 17:00:00,36641,27.3,37.20666666666666,139.795,田島,警戒
2023-08-08,17:00,2023-08-08 17:00:00,36667,26.0,37.13166666666667,140.215,白河,警戒
2023-08-08,17:00,2023-08-08 17:00:00,36676,26.0,37.14666666666667,140.46,石川,警戒
2023-08-08,17:00,2023-08-08 17:00:00,36716,22.6,37.01,139.375,桧枝岐,注意
2023-08-08,17:00,2023-08-08 17:00:00,36821,30.0,36.93833333333333,140.40833333333333,東白川,厳重警戒
2023-08-08,17:00,2023-08-08 17:00:00,36836,29.1,36.93333333333333,140.73333333333332,山田,厳重警戒
2023-08-08,17:00,2023-08-08 17:00:00,36846,28.7,36.946666666666665,140.90333333333334,小名浜,厳重警戒
2023-08-08,17:00,2023-08-08 17:00:00,40046,29.7,36.833333333333336,140.77166666666668,北茨城,厳重警戒
2023-08-08,17:00,2023-08-08 17:00:00,40061,28.9,36.778333333333336,140.345,大子,厳重警戒
2023-08-08,17:00,2023-08-08 17:00:00,40091,26.0,36.60666666666667,140.325,常陸大宮,警戒
2023-08-08,17:00,2023-08-08 17:00:00,40136,27.4,36.58,140.645,日立,警戒
2023-08-08,17:00,2023-08-08 17:00:00,40191,27.4,36.395,140.24,笠間,警戒
2023-08-08,17:00,2023-08-08 17:00:00,40201,27.5,36.38,140.46666666666667,水戸,警戒
2023-08-08,17:00,2023-08-08 17:00:00,40221,29.5,36.20166666666667,139.71666666666667,古河,厳重警戒
2023-08-08,17:00,2023-08-08 17:00:00,40231,28.8,36.281666666666666,139.98833333333334,下館,厳重警戒
2023-08-08,17:00,2023-08-08 17:00:00,40281,27.5,36.16833333333334,139.945,下妻,警戒
2023-08-08,17:00,2023-08-08 17:00:00,40311,27.7,36.16833333333334,140.52666666666667,鉾田,警戒
2023-08-08,17:00,2023-08-08 17:00:00,40336,28.4,36.056666666666665,140.125,つくば,厳重警戒
2023-08-08,17:00,2023-08-08 17:00:00,40341,29.0,36.10333333333333,140.22,土浦,厳重警戒
2023-08-08,17:00,2023-08-08 17:00:00,40406,28.6,35.96333333333333,140.62166666666667,鹿嶋,厳重警戒
2023-08-08,17:00,2023-08-08 17:00:00,40426,27.1,35.89,140.21166666666667,龍ケ崎,警戒
2023-08-08,17:00,2023-08-08 17:00:00,41011,24.0,37.123333333333335,140.035,那須高原,注意
2023-08-08,17:00,2023-08-08 17:00:00,41076,25.3,36.92166666666667,139.695,五十里,警戒
2023-08-08,17:00,2023-08-08 17:00:00,41091,26.7,36.98166666666667,140.01833333333335,黒磯,警戒
2023-08-08,17:00,2023-08-08 17:00:00,41116,25.7,36.891666666666666,139.56833333333333,土呂部,警戒
2023-08-08,17:00,2023-08-08 17:00:00,41141,29.0,36.84,140.035,大田原,厳重警戒
2023-08-08,17:00,2023-08-08 17:00:00,41166,21.9,36.73833333333333,139.5,奥日光,注意
2023-08-08,17:00,2023-08-08 17:00:00,41172,24.4,36.75,139.615,日光東町,注意
2023-08-08,17:00,2023-08-08 17:00:00,41181,24.7,36.75666666666667,139.88333333333333,塩谷,注意
2023-08-08,17:00,2023-08-08 17:00:00,41247,27.8,36.641666666666666,140.11666666666667,那須烏山,警戒
2023-08-08,17:00,2023-08-08 17:00:00,41271,23.7,36.59166666666667,139.735,鹿沼,注意
2023-08-08,17:00,2023-08-08 17:00:00,41277,26.8,36.54833333333333,139.86833333333334,宇都宮,警戒
2023-08-08,17:00,2023-08-08 17:00:00,41331,28.4,36.47666666666667,139.98666666666668,真岡,厳重警戒
2023-08-08,17:00,2023-08-08 17:00:00,41361,29.1,36.36333333333334,139.57,佐野,厳重警戒
2023-08-08,17:00,2023-08-08 17:00:00,41376,28.5,36.33833333333333,139.83,小山,厳重警戒
2023-08-08,17:00,2023-08-08 17:00:00,42046,25.0,36.86333333333333,139.05833333333334,藤原,警戒
2023-08-08,17:00,2023-08-08 17:00:00,42091,26.4,36.77333333333333,138.965,みなかみ,警戒
2023-08-08,17:00,2023-08-08 17:00:00,42121,18.7,36.61666666666667,138.59166666666667,草津,注意
2023-08-08,17:00,2023-08-08 17:00:00,42146,27.2,36.66833333333334,139.02166666666668,沼田,警戒
2023-08-08,17:00,2023-08-08 17:00:00,42186,26.3,36.586666666666666,138.85,中之条,警戒
2023-08-08,17:00,2023-08-08 17:00:00,42221,18.9,36.46333333333333,138.46333333333334,田代,注意
2023-08-08,17:00,2023-08-08 17:00:00,42251,28.0,36.405,139.06,前橋,厳重警戒
2023-08-08,17:00,2023-08-08 17:00:00,42266,28.3,36.41,139.325,桐生,厳重警戒
2023-08-08,17:00,2023-08-08 17:00:00,42286,27.1,36.376666666666665,138.895,上里見,警戒
2023-08-08,17:00,2023-08-08 17:00:00,42302,28.3,36.33166666666666,139.165,伊勢崎,厳重警戒
2023-08-08,17:00,2023-08-08 17:00:00,42326,24.4,36.245,138.70666666666668,西野牧,注意
2023-08-08,17:00,2023-08-08 17:00:00,42366,28.8,36.24,139.51333333333332,館林,厳重警戒
2023-08-08,17:00,2023-08-08 17:00:00,42396,24.4,36.108333333333334,138.89666666666668,神流,注意
2023-08-08,17:00,2023-08-08 17:00:00,43051,29.6,36.105,139.18333333333334,寄居,厳重警戒
2023-08-08,17:00,2023-08-08 17:00:00,43056,28.9,36.15,139.38,熊谷,厳重警戒
2023-08-08,17:00,2023-08-08 17:00:00,43126,28.3,36.086666666666666,139.635,久喜,厳重警戒
2023-08-08,17:00,2023-08-08 17:00:00,43156,29.1,35.99,139.07333333333332,秩父,厳重警戒
2023-08-08,17:00,2023-08-08 17:00:00,43171,26.2,35.985,139.335,鳩山,警戒
2023-08-08,17:00,2023-08-08 17:00:00,43241,28.5,35.875,139.58666666666667,さいたま,厳重警戒
2023-08-08,17:00,2023-08-08 17:00:00,43256,28.5,35.88333333333333,139.75666666666666,越谷,厳重警戒
2023-08-08,17:00,2023-08-08 17:00:00,43266,29.9,35.77333333333333,139.41333333333333,所沢,厳重警戒
2023-08-08,17:00,2023-08-08 17:00:00,44046,26.7,35.791666666666664,139.05,小河内,警戒
2023-08-08,17:00,2023-08-08 17:00:00,44056,29.8,35.788333333333334,139.31166666666667,青梅,厳重警戒
2023-08-08,17:00,2023-08-08 17:00:00,44071,30.3,35.73833333333333,139.59166666666667,練馬,厳重警戒
2023-08-08,17:00,2023-08-08 17:00:00,44112,30.1,35.666666666666664,139.31666666666666,八王子,厳重警戒
2023-08-08,17:00,2023-08-08 17:00:00,44116,29.9,35.68333333333333,139.48333333333332,府中,厳重警戒
2023-08-08,17:00,2023-08-08 17:00:00,44132,28.8,35.69166666666667,139.75,東京,厳重警戒
2023-08-08,17:00,2023-08-08 17:00:00,44136,29.6,35.638333333333335,139.86333333333334,江戸川臨海,厳重警戒
2023-08-08,17:00,2023-08-08 17:00:00,44172,28.9,34.748333333333335,139.36166666666668,大島,厳重警戒
2023-08-08,17:00,2023-08-08 17:00:00,44226,29.2,34.123333333333335,139.52,三宅島,厳重警戒
2023-08-08,17:00,2023-08-08 17:00:00,44263,27.9,33.12166666666667,139.77833333333334,八丈島,警戒
2023-08-08,17:00,2023-08-08 17:00:00,44301,29.0,27.091666666666665,142.19,父島,厳重警戒
2023-08-08,17:00,2023-08-08 17:00:00,45061,27.4,35.86333333333333,140.11,我孫子,警戒
2023-08-08,17:00,2023-08-08 17:00:00,45081,29.0,35.858333333333334,140.50166666666667,香取,厳重警戒
2023-08-08,17:00,2023-08-08 17:00:00,45106,27.2,35.711666666666666,140.04333333333332,船橋,警戒
2023-08-08,17:00,2023-08-08 17:00:00,45116,31.2,35.72833333333333,140.21166666666667,佐倉,危険
2023-08-08,17:00,2023-08-08 17:00:00,45147,28.1,35.73833333333333,140.85666666666665,銚子,厳重警戒
2023-08-08,17:00,2023-08-08 17:00:00,45181,29.3,35.655,140.505,横芝光,厳重警戒
2023-08-08,17:00,2023-08-08 17:00:00,45212,29.8,35.60166666666667,140.10333333333332,千葉,厳重警戒
2023-08-08,17:00,2023-08-08 17:00:00,45261,29.5,35.43666666666667,140.29333333333332,茂原,厳重警戒
2023-08-08,17:00,2023-08-08 17:00:00,45282,29.3,35.361666666666665,139.94,木更津,厳重警戒
2023-08-08,17:00,2023-08-08 17:00:00,45291,29.6,35.39666666666667,140.14833333333334,牛久,厳重警戒
2023-08-08,17:00,2023-08-08 17:00:00,45326,28.2,35.235,140.09833333333333,坂畑,厳重警戒
2023-08-08,17:00,2023-08-08 17:00:00,45361,29.6,35.111666666666665,140.1,鴨川,厳重警戒
2023-08-08,17:00,2023-08-08 17:00:00,45371,29.9,35.15,140.31166666666667,勝浦,厳重警戒
2023-08-08,17:00,2023-08-08 17:00:00,45401,29.8,34.986666666666665,139.865,館山,厳重警戒
2023-08-08,17:00,2023-08-08 17:00:00,46091,30.6,35.43333333333333,139.38666666666666,海老名,厳重警戒
2023-08-08,17:00,2023-08-08 17:00:00,46106,29.5,35.43833333333333,139.65166666666667,横浜,厳重警戒
2023-08-08,17:00,2023-08-08 17:00:00,46141,30.5,35.32,139.45,辻堂,厳重警戒
2023-08-08,17:00,2023-08-08 17:00:00,46166,30.0,35.276666666666664,139.155,小田原,厳重警戒
2023-08-08,17:00,2023-08-08 17:00:00,46211,29.5,35.178333333333335,139.63,三浦,厳重警戒
2023-08-08,17:00,2023-08-08 17:00:00,48031,27.1,36.91166666666667,138.44166666666666,野沢温泉,警戒
2023-08-08,17:00,2023-08-08 17:00:00,48061,23.8,36.80833333333333,138.19666666666666,信濃町,注意
2023-08-08,17:00,2023-08-08 17:00:00,48066,28.8,36.875,138.375,飯山,厳重警戒
2023-08-08,17:00,2023-08-08 17:00:00,48141,23.5,36.69833333333333,137.86166666666668,白馬,注意
2023-08-08,17:00,2023-08-08 17:00:00,48156,26.1,36.66166666666667,138.19166666666666,長野,警戒
2023-08-08,17:00,2023-08-08 17:00:00,48191,23.1,36.52333333333333,137.83166666666668,大町,注意
2023-08-08,17:00,2023-08-08 17:00:00,48196,24.4,36.54833333333333,137.99666666666667,信州新町,注意
2023-08-08,17:00,2023-08-08 17:00:00,48216,19.3,36.531666666666666,138.325,菅平,注意
2023-08-08,17:00,2023-08-08 17:00:00,48256,25.8,36.4,138.265,上田,警戒
2023-08-08,17:00,2023-08-08 17:00:00,48296,25.6,36.343333333333334,137.88166666666666,穂高,警戒
2023-08-08,17:00,2023-08-08 17:00:00,48321,23.8,36.38333333333333,138.38333333333333,東御,注意
2023-08-08,17:00,2023-08-08 17:00:00,48331,22.7,36.34166666666667,138.54666666666665,軽井沢,注意
2023-08-08,17:00,2023-08-08 17:00:00,48361,25.2,36.24666666666667,137.97,松本,警戒
2023-08-08,17:00,2023-08-08 17:00:00,48381,24.6,36.27166666666667,138.31333333333333,立科,注意
2023-08-08,17:00,2023-08-08 17:00:00,48386,25.7,36.24666666666667,138.47666666666666,佐久,警戒
2023-08-08,17:00,2023-08-08 17:00:00,48466,24.4,36.08833333333333,137.68333333333334,奈川,注意
2023-08-08,17:00,2023-08-08 17:00:00,48491,25.2,36.045,138.10833333333332,諏訪,警戒
2023-08-08,17:00,2023-08-08 17:00:00,48531,27.0,35.93833333333333,137.60166666666666,開田高原,警戒
2023-08-08,17:00,2023-08-08 17:00:00,48536,24.2,35.93666666666667,137.78666666666666,木祖薮原,注意
2023-08-08,17:00,2023-08-08 17:00:00,48546,25.3,35.983333333333334,137.98333333333332,辰野,警戒
2023-08-08,17:00,2023-08-08 17:00:00,48561,21.1,35.97,138.22,原村,注意
2023-08-08,17:00,2023-08-08 17:00:00,48571,20.1,35.94833333333333,138.47166666666666,野辺山,注意
2023-08-08,17:00,2023-08-08 17:00:00,48606,26.4,35.84,137.68833333333333,木曽福島,警戒
2023-08-08,17:00,2023-08-08 17:00:00,48621,26.4,35.825,137.955,伊那,警戒
2023-08-08,17:00,2023-08-08 17:00:00,48717,28.6,35.61,137.62,南木曽,厳重警戒
2023-08-08,17:00,2023-08-08 17:00:00,48731,27.9,35.653333333333336,137.89833333333334,飯島,警戒
2023-08-08,17:00,2023-08-08 17:00:00,48767,27.5,35.52333333333333,137.82166666666666,飯田,警戒
2023-08-08,17:00,2023-08-08 17:00:00,48826,24.9,35.373333333333335,137.69166666666666,浪合,注意
2023-08-08,17:00,2023-08-08 17:00:00,48841,30.0,35.321666666666665,137.93166666666667,南信濃,厳重警戒
2023-08-08,17:00,2023-08-08 17:00:00,49036,23.8,35.861666666666665,138.38666666666666,大泉,注意
2023-08-08,17:00,2023-08-08 17:00:00,49086,26.2,35.693333333333335,138.44833333333332,韮崎,警戒
2023-08-08,17:00,2023-08-08 17:00:00,49142,27.1,35.666666666666664,138.55333333333334,甲府,警戒
2023-08-08,17:00,2023-08-08 17:00:00,49151,27.6,35.663333333333334,138.725,勝沼,警戒
2023-08-08,17:00,2023-08-08 17:00:00,49161,28.1,35.608333333333334,138.93833333333333,大月,厳重警戒
2023-08-08,17:00,2023-08-08 17:00:00,49196,21.4,35.528333333333336,138.615,古関,注意
2023-08-08,17:00,2023-08-08 17:00:00,49236,25.9,35.46666666666667,138.44166666666666,切石,警戒
2023-08-08,17:00,2023-08-08 17:00:00,49251,24.1,35.5,138.76,河口湖,注意
2023-08-08,17:00,2023-08-08 17:00:00,49256,23.7,35.43666666666667,138.83666666666667,山中,注意
2023-08-08,17:00,2023-08-08 17:00:00,49316,28.0,35.288333333333334,138.445,南部,厳重警戒
2023-08-08,17:00,2023-08-08 17:00:00,50106,25.8,35.21666666666667,138.22166666666666,井川,警戒
2023-08-08,17:00,2023-08-08 17:00:00,50136,26.8,35.305,138.92666666666668,御殿場,警戒
2023-08-08,17:00,2023-08-08 17:00:00,50196,28.7,35.185,138.66333333333333,富士,厳重警戒
2023-08-08,17:00,2023-08-08 17:00:00,50206,29.1,35.11333333333334,138.925,三島,厳重警戒
2023-08-08,17:00,2023-08-08 17:00:00,50226,28.5,35.056666666666665,137.76166666666666,佐久間,厳重警戒
2023-08-08,17:00,2023-08-08 17:00:00,50241,28.0,35.10166666666667,138.12833333333333,川根本町,厳重警戒
2023-08-08,17:00,2023-08-08 17:00:00,50261,29.5,35.053333333333335,138.52166666666668,清水,厳重警戒
2023-08-08,17:00,2023-08-08 17:00:00,50281,28.9,35.045,139.09166666666667,網代,厳重警戒
2023-08-08,17:00,2023-08-08 17:00:00,50331,28.7,34.975,138.40333333333334,静岡,厳重警戒
2023-08-08,17:00,2023-08-08 17:00:00,50386,29.0,34.89,137.81333333333333,天竜,厳重警戒
2023-08-08,17:00,2023-08-08 17:00:00,50456,29.1,34.75333333333333,137.71166666666667,浜松,厳重警戒
2023-08-08,17:00,2023-08-08 17:00:00,50476,28.4,34.785,138.13833333333332,菊川牧之原,厳重警戒
2023-08-08,17:00,2023-08-08 17:00:00,50491,30.0,34.755,138.78333333333333,松崎,厳重警戒
2023-08-08,17:00,2023-08-08 17:00:00,50506,28.7,34.781666666666666,139.04833333333335,稲取,厳重警戒
2023-08-08,17:00,2023-08-08 17:00:00,50536,27.9,34.69166666666667,137.88,磐田,警戒
2023-08-08,17:00,2023-08-08 17:00:00,50551,29.7,34.60333333333333,138.21333333333334,御前崎,厳重警戒
2023-08-08,17:00,2023-08-08 17:00:00,50561,28.7,34.60333333333333,138.84166666666667,石廊崎,厳重警戒
2023-08-08,17:00,2023-08-08 17:00:00,51031,27.8,35.21666666666667,136.69833333333332,愛西,警戒
2023-08-08,17:00,2023-08-08 17:00:00,51071,24.8,35.211666666666666,137.50666666666666,稲武,注意
2023-08-08,17:00,2023-08-08 17:00:00,51106,28.4,35.166666666666664,136.965,名古屋,厳重警戒
2023-08-08,17:00,2023-08-08 17:00:00,51116,29.8,35.13166666666667,137.17666666666668,豊田,厳重警戒
2023-08-08,17:00,2023-08-08 17:00:00,51216,27.4,34.995,136.94333333333333,大府,警戒
2023-08-08,17:00,2023-08-08 17:00:00,51226,27.3,34.91833333333334,137.19333333333333,岡崎,警戒
2023-08-08,17:00,2023-08-08 17:00:00,51247,27.1,34.906666666666666,137.51833333333335,新城,警戒
2023-08-08,17:00,2023-08-08 17:00:00,51281,27.0,34.845,137.21666666666667,蒲郡,警戒
2023-08-08,17:00,2023-08-08 17:00:00,51311,27.0,34.74,136.93833333333333,南知多,警戒
2023-08-08,17:00,2023-08-08 17:00:00,51331,29.2,34.75,137.34166666666667,豊橋,厳重警戒
2023-08-08,17:00,2023-08-08 17:00:00,51346,27.4,34.62833333333333,137.09333333333333,伊良湖,警戒
2023-08-08,17:00,2023-08-08 17:00:00,52041,25.8,36.305,137.1,河合,警戒
2023-08-08,17:00,2023-08-08 17:00:00,52051,25.3,36.321666666666665,137.30833333333334,神岡,警戒
2023-08-08,17:00,2023-08-08 17:00:00,52081,29.3,36.27333333333333,136.89666666666668,白川,厳重警戒
2023-08-08,17:00,2023-08-08 17:00:00,52111,20.9,36.248333333333335,137.50333333333333,栃尾,注意
2023-08-08,17:00,2023-08-08 17:00:00,52146,27.9,36.155,137.25333333333333,高山,警戒
2023-08-08,17:00,2023-08-08 17:00:00,52181,24.0,36.06,137.035,六厩,注意
2023-08-08,17:00,2023-08-08 17:00:00,52196,26.2,36.015,137.38833333333332,宮之前,警戒
2023-08-08,17:00,2023-08-08 17:00:00,52221,27.6,35.92333333333333,136.83166666666668,長滝,警戒
2023-08-08,17:00,2023-08-08 17:00:00,52286,27.7,35.888333333333335,137.20666666666668,萩原,警戒
2023-08-08,17:00,2023-08-08 17:00:00,52331,29.0,35.75666666666667,136.97833333333332,八幡,厳重警戒
2023-08-08,17:00,2023-08-08 17:00:00,52346,29.3,35.763333333333335,137.28833333333333,宮地,厳重警戒
2023-08-08,17:00,2023-08-08 17:00:00,52381,27.6,35.638333333333335,136.60166666666666,樽見,警戒
2023-08-08,17:00,2023-08-08 17:00:00,52406,30.2,35.66166666666667,137.16,金山,厳重警戒
2023-08-08,17:00,2023-08-08 17:00:00,52461,30.5,35.555,136.91,美濃,厳重警戒
2023-08-08,17:00,2023-08-08 17:00:00,52482,28.1,35.598333333333336,137.31833333333333,黒川,厳重警戒
2023-08-08,17:00,2023-08-08 17:00:00,52511,28.3,35.485,136.56666666666666,揖斐川,厳重警戒
2023-08-08,17:00,2023-08-08 17:00:00,52536,29.4,35.445,137.005,美濃加茂,厳重警戒
2023-08-08,17:00,2023-08-08 17:00:00,52556,27.7,35.446666666666665,137.40333333333334,恵那,警戒
2023-08-08,17:00,2023-08-08 17:00:00,52557,28.8,35.47666666666667,137.48666666666668,中津川,厳重警戒
2023-08-08,17:00,2023-08-08 17:00:00,52571,27.5,35.36333333333334,136.46666666666667,関ケ原,警戒
2023-08-08,17:00,2023-08-08 17:00:00,52581,28.7,35.346666666666664,136.62,大垣,厳重警戒
2023-08-08,17:00,2023-08-08 17:00:00,52586,28.0,35.4,136.76166666666666,岐阜,厳重警戒
2023-08-08,17:00,2023-08-08 17:00:00,52606,29.9,35.346666666666664,137.10833333333332,多治見,厳重警戒
2023-08-08,17:00,2023-08-08 17:00:00,53041,28.0,35.05,136.69333333333333,桑名,厳重警戒
2023-08-08,17:00,2023-08-08 17:00:00,53061,26.9,34.94,136.58,四日市,警戒
2023-08-08,17:00,2023-08-08 17:00:00,53091,26.2,34.87,136.45333333333335,亀山,警戒
2023-08-08,17:00,2023-08-08 17:00:00,53112,26.3,34.76166666666667,136.14166666666668,上野,警戒
2023-08-08,17:00,2023-08-08 17:00:00,53133,28.5,34.733333333333334,136.51833333333335,津,厳重警戒
2023-08-08,17:00,2023-08-08 17:00:00,53196,29.1,34.528333333333336,136.665,小俣,厳重警戒
2023-08-08,17:00,2023-08-08 17:00:00,53231,26.9,34.44833333333333,136.39,粥見,警戒
2023-08-08,17:00,2023-08-08 17:00:00,53257,27.5,34.48166666666667,136.825,鳥羽,警戒
2023-08-08,17:00,2023-08-08 17:00:00,53296,27.9,34.345,136.68166666666667,南伊勢,警戒
2023-08-08,17:00,2023-08-08 17:00:00,53326,28.2,34.208333333333336,136.32666666666665,紀伊長島,厳重警戒
2023-08-08,17:00,2023-08-08 17:00:00,53378,27.6,34.068333333333335,136.19333333333333,尾鷲,警戒
2023-08-08,17:00,2023-08-08 17:00:00,53401,27.7,33.931666666666665,136.13833333333332,熊野新鹿,警戒
2023-08-08,17:00,2023-08-08 17:00:00,54012,28.8,38.465,139.25333333333333,粟島,厳重警戒
2023-08-08,17:00,2023-08-08 17:00:00,54041,30.0,38.33,138.51166666666666,弾崎,厳重警戒
2023-08-08,17:00,2023-08-08 17:00:00,54086,31.0,38.22666666666667,139.47833333333332,村上,危険
2023-08-08,17:00,2023-08-08 17:00:00,54157,28.9,38.028333333333336,138.24,相川,厳重警戒
2023-08-08,17:00,2023-08-08 17:00:00,54166,30.3,38.07333333333333,138.44,両津,厳重警戒
2023-08-08,17:00,2023-08-08 17:00:00,54181,31.6,38.07666666666667,139.38833333333332,中条,危険
2023-08-08,17:00,2023-08-08 17:00:00,54191,30.3,38.09166666666667,139.56333333333333,下関,厳重警戒
2023-08-08,17:00,2023-08-08 17:00:00,54232,30.6,37.89333333333333,139.01833333333335,新潟,厳重警戒
2023-08-08,17:00,2023-08-08 17:00:00,54271,30.0,37.84166666666667,138.31333333333333,羽茂,厳重警戒
2023-08-08,17:00,2023-08-08 17:00:00,54296,30.4,37.791666666666664,139.08666666666667,新津,厳重警戒
2023-08-08,17:00,2023-08-08 17:00:00,54341,30.7,37.76833333333333,138.91333333333333,巻,厳重警戒
2023-08-08,17:00,2023-08-08 17:00:00,54387,29.6,37.64,138.76666666666668,寺泊,厳重警戒
2023-08-08,17:00,2023-08-08 17:00:00,54396,31.9,37.64,138.955,三条,危険
2023-08-08,17:00,2023-08-08 17:00:00,54421,29.1,37.67166666666667,139.44666666666666,津川,厳重警戒
2023-08-08,17:00,2023-08-08 17:00:00,54501,33.8,37.45,138.82333333333332,長岡,危険
2023-08-08,17:00,2023-08-08 17:00:00,54541,30.9,37.35166666666667,138.55333333333334,柏崎,厳重警戒
2023-08-08,17:00,2023-08-08 17:00:00,54566,31.4,37.346666666666664,139.04333333333332,守門,危険
2023-08-08,17:00,2023-08-08 17:00:00,54586,30.9,37.225,138.325,大潟,厳重警戒
2023-08-08,17:00,2023-08-08 17:00:00,54616,33.1,37.22666666666667,138.96333333333334,小出,危険
2023-08-08,17:00,2023-08-08 17:00:00,54651,30.1,37.10666666666667,138.24666666666667,高田,厳重警戒
2023-08-08,17:00,2023-08-08 17:00:00,54661,29.5,37.10666666666667,138.45666666666668,安塚,厳重警戒
2023-08-08,17:00,2023-08-08 17:00:00,54676,30.1,37.14333333333333,138.72666666666666,十日町,厳重警戒
2023-08-08,17:00,2023-08-08 17:00:00,54711,30.1,37.04333333333334,137.875,糸魚川,厳重警戒
2023-08-08,17:00,2023-08-08 17:00:00,54721,26.7,37.083333333333336,138.02333333333334,能生,警戒
2023-08-08,17:00,2023-08-08 17:00:00,54816,28.2,36.93333333333333,138.22166666666666,関山,厳重警戒
2023-08-08,17:00,2023-08-08 17:00:00,54836,28.9,36.99666666666667,138.68333333333334,津南,厳重警戒
2023-08-08,17:00,2023-08-08 17:00:00,54841,30.6,36.94166666666667,138.81,湯沢,厳重警戒
2023-08-08,17:00,2023-08-08 17:00:00,55022,28.5,36.93666666666667,137.56333333333333,朝日,厳重警戒
2023-08-08,17:00,2023-08-08 17:00:00,55041,29.5,36.86333333333333,136.96,氷見,厳重警戒
2023-08-08,17:00,2023-08-08 17:00:00,55056,29.6,36.821666666666665,137.42833333333334,魚津,厳重警戒
2023-08-08,17:00,2023-08-08 17:00:00,55091,30.6,36.791666666666664,137.055,伏木,厳重警戒
2023-08-08,17:00,2023-08-08 17:00:00,55102,28.2,36.708333333333336,137.20166666666665,富山,厳重警戒
2023-08-08,17:00,2023-08-08 17:00:00,55141,29.7,36.61,136.955,砺波,厳重警戒
2023-08-08,17:00,2023-08-08 17:00:00,55166,26.4,36.67,137.42333333333335,上市,警戒
2023-08-08,17:00,2023-08-08 17:00:00,55191,30.2,36.545,136.87166666666667,南砺高宮,厳重警戒
2023-08-08,17:00,2023-08-08 17:00:00,55206,28.7,36.57,137.15833333333333,八尾,厳重警戒
2023-08-08,17:00,2023-08-08 17:00:00,56036,31.2,37.446666666666665,137.28666666666666,珠洲,危険
2023-08-08,17:00,2023-08-08 17:00:00,56052,30.6,37.39,136.895,輪島,厳重警戒
2023-08-08,17:00,2023-08-08 17:00:00,56116,30.9,37.14333333333333,136.725,志賀,厳重警戒
2023-08-08,17:00,2023-08-08 17:00:00,56146,31.0,37.03,136.99166666666667,七尾,危険
2023-08-08,17:00,2023-08-08 17:00:00,56176,32.1,36.89333333333333,136.77666666666667,羽咋,危険
2023-08-08,17:00,2023-08-08 17:00:00,56186,27.4,36.711666666666666,136.69166666666666,かほく,警戒
2023-08-08,17:00,2023-08-08 17:00:00,56227,28.1,36.58833333333333,136.63333333333333,金沢,厳重警戒
2023-08-08,17:00,2023-08-08 17:00:00,56276,29.9,36.38166666666667,136.435,小松,厳重警戒
2023-08-08,17:00,2023-08-08 17:00:00,56286,28.1,36.39666666666667,136.62,白山河内,厳重警戒
2023-08-08,17:00,2023-08-08 17:00:00,56301,29.4,36.26166666666666,136.39666666666668,加賀中津原,厳重警戒
2023-08-08,17:00,2023-08-08 17:00:00,57001,29.6,36.24333333333333,136.17333333333335,三国,厳重警戒
2023-08-08,17:00,2023-08-08 17:00:00,57051,30.8,36.01166666666666,135.99,越廼,厳重警戒
2023-08-08,17:00,2023-08-08 17:00:00,57066,28.2,36.055,136.22166666666666,福井,厳重警戒
2023-08-08,17:00,2023-08-08 17:00:00,57082,31.0,36.038333333333334,136.52166666666668,勝山,危険
2023-08-08,17:00,2023-08-08 17:00:00,57121,30.3,35.971666666666664,136.49666666666667,大野,厳重警戒
2023-08-08,17:00,2023-08-08 17:00:00,57206,28.5,35.766666666666666,136.2,今庄,厳重警戒
2023-08-08,17:00,2023-08-08 17:00:00,57248,28.6,35.653333333333336,136.06166666666667,敦賀,厳重警戒
2023-08-08,17:00,2023-08-08 17:00:00,57286,28.2,35.6,135.91666666666666,美浜,厳重警戒
2023-08-08,17:00,2023-08-08 17:00:00,57317,27.7,35.483333333333334,135.78166666666667,小浜,警戒
2023-08-08,17:00,2023-08-08 17:00:00,60051,26.6,35.41166666666667,136.02833333333334,今津,警戒
2023-08-08,17:00,2023-08-08 17:00:00,60061,26.8,35.42333333333333,136.24166666666667,長浜,警戒
2023-08-08,17:00,2023-08-08 17:00:00,60102,26.2,35.38333333333333,136.34333333333333,米原,警戒
2023-08-08,17:00,2023-08-08 17:00:00,60116,27.7,35.235,135.95666666666668,南小松,警戒
2023-08-08,17:00,2023-08-08 17:00:00,60131,27.0,35.275,136.24333333333334,彦根,警戒
2023-08-08,17:00,2023-08-08 17:00:00,60196,27.6,35.06166666666667,136.19,東近江,警戒
2023-08-08,17:00,2023-08-08 17:00:00,60216,26.9,34.99166666666667,135.91166666666666,大津,警戒
2023-08-08,17:00,2023-08-08 17:00:00,60226,25.5,34.913333333333334,136.08,信楽,警戒
2023-08-08,17:00,2023-08-08 17:00:00,60236,25.3,34.93833333333333,136.27833333333334,土山,警戒
2023-08-08,17:00,2023-08-08 17:00:00,61001,29.0,35.736666666666665,135.08666666666667,間人,厳重警戒
2023-08-08,17:00,2023-08-08 17:00:00,61076,28.1,35.55,135.235,宮津,厳重警戒
2023-08-08,17:00,2023-08-08 17:00:00,61111,27.5,35.45,135.31666666666666,舞鶴,警戒
2023-08-08,17:00,2023-08-08 17:00:00,61187,28.5,35.31166666666667,135.11333333333334,福知山,厳重警戒
2023-08-08,17:00,2023-08-08 17:00:00,61206,27.5,35.275,135.55,美山,警戒
2023-08-08,17:00,2023-08-08 17:00:00,61242,28.1,35.108333333333334,135.455,園部,厳重警戒
2023-08-08,17:00,2023-08-08 17:00:00,61286,27.4,35.013333333333335,135.73166666666665,京都,警戒
2023-08-08,17:00,2023-08-08 17:00:00,61326,29.5,34.83,135.76,京田辺,厳重警戒
2023-08-08,17:00,2023-08-08 17:00:00,62016,29.3,34.94833333333333,135.455,能勢,厳重警戒
2023-08-08,17:00,2023-08-08 17:00:00,62046,28.3,34.80833333333333,135.67166666666665,枚方,厳重警戒
2023-08-08,17:00,2023-08-08 17:00:00,62078,28.4,34.681666666666665,135.51833333333335,大阪,厳重警戒
2023-08-08,17:00,2023-08-08 17:00:00,62081,26.4,34.675,135.67666666666668,生駒山,警戒
2023-08-08,17:00,2023-08-08 17:00:00,62091,29.1,34.555,135.485,堺,厳重警戒
2023-08-08,17:00,2023-08-08 17:00:00,62131,29.9,34.385,135.35,熊取,厳重警戒
2023-08-08,17:00,2023-08-08 17:00:00,63016,28.5,35.625,134.62666666666667,香住,厳重警戒
2023-08-08,17:00,2023-08-08 17:00:00,63051,28.5,35.535,134.82166666666666,豊岡,厳重警戒
2023-08-08,17:00,2023-08-08 17:00:00,63071,26.3,35.431666666666665,134.58333333333334,兎和野高原,警戒
2023-08-08,17:00,2023-08-08 17:00:00,63121,27.6,35.32333333333333,134.84833333333333,和田山,警戒
2023-08-08,17:00,2023-08-08 17:00:00,63201,27.0,35.166666666666664,134.79166666666666,生野,警戒
2023-08-08,17:00,2023-08-08 17:00:00,63216,29.0,35.13666666666666,135.065,柏原,厳重警戒
2023-08-08,17:00,2023-08-08 17:00:00,63251,27.7,35.096666666666664,134.585,一宮,警戒
2023-08-08,17:00,2023-08-08 17:00:00,63321,29.6,34.95,134.74833333333333,福崎,厳重警戒
2023-08-08,17:00,2023-08-08 17:00:00,63331,29.5,34.998333333333335,134.99666666666667,西脇,厳重警戒
2023-08-08,17:00,2023-08-08 17:00:00,63366,30.1,34.858333333333334,134.37333333333333,上郡,厳重警戒
2023-08-08,17:00,2023-08-08 17:00:00,63383,28.4,34.83833333333333,134.67,姫路,厳重警戒
2023-08-08,17:00,2023-08-08 17:00:00,63411,28.7,34.895,135.21166666666667,三田,厳重警戒
2023-08-08,17:00,2023-08-08 17:00:00,63461,28.2,34.776666666666664,135.01333333333332,三木,厳重警戒
2023-08-08,17:00,2023-08-08 17:00:00,63491,29.1,34.67166666666667,134.52666666666667,家島,厳重警戒
2023-08-08,17:00,2023-08-08 17:00:00,63496,27.7,34.68666666666667,134.87666666666667,明石,警戒
2023-08-08,17:00,2023-08-08 17:00:00,63518,29.2,34.696666666666665,135.21166666666667,神戸,厳重警戒
2023-08-08,17:00,2023-08-08 17:00:00,63551,29.8,34.46666666666667,134.84833333333333,郡家,厳重警戒
2023-08-08,17:00,2023-08-08 17:00:00,63571,29.8,34.31,134.84833333333333,洲本,厳重警戒
2023-08-08,17:00,2023-08-08 17:00:00,63588,29.8,34.218333333333334,134.72,南淡,厳重警戒
2023-08-08,17:00,2023-08-08 17:00:00,64036,29.7,34.67333333333333,135.83666666666667,奈良,厳重警戒
2023-08-08,17:00,2023-08-08 17:00:00,64041,26.4,34.605,135.95166666666665,針,警戒
2023-08-08,17:00,2023-08-08 17:00:00,64101,25.9,34.48833333333334,135.93166666666667,大宇陀,警戒
2023-08-08,17:00,2023-08-08 17:00:00,64127,28.8,34.38,135.73,五條,厳重警戒
2023-08-08,17:00,2023-08-08 17:00:00,64206,25.0,34.13666666666666,136.005,上北山,警戒
2023-08-08,17:00,2023-08-08 17:00:00,64227,26.4,34.045,135.78666666666666,風屋,警戒
2023-08-08,17:00,2023-08-08 17:00:00,65026,28.7,34.31,135.52833333333334,かつらぎ,厳重警戒
2023-08-08,17:00,2023-08-08 17:00:00,65036,30.9,34.28,134.99833333333333,友ケ島,厳重警戒
2023-08-08,17:00,2023-08-08 17:00:00,65042,29.2,34.22833333333333,135.16333333333333,和歌山,厳重警戒
2023-08-08,17:00,2023-08-08 17:00:00,65061,25.3,34.221666666666664,135.59,高野山,警戒
2023-08-08,17:00,2023-08-08 17:00:00,65121,29.2,34.086666666666666,135.425,清水,厳重警戒
2023-08-08,17:00,2023-08-08 17:00:00,65162,26.4,33.945,135.55666666666667,龍神,警戒
2023-08-08,17:00,2023-08-08 17:00:00,65201,29.0,33.89333333333333,135.21666666666667,川辺,厳重警戒
2023-08-08,17:00,2023-08-08 17:00:00,65256,30.2,33.791666666666664,135.51333333333332,栗栖川,厳重警戒
2023-08-08,17:00,2023-08-08 17:00:00,65276,27.7,33.68666666666667,135.97,新宮,警戒
2023-08-08,17:00,2023-08-08 17:00:00,65306,26.6,33.638333333333335,135.71,西川,警戒
2023-08-08,17:00,2023-08-08 17:00:00,65356,29.4,33.45,135.75666666666666,潮岬,厳重警戒
2023-08-08,17:00,2023-08-08 17:00:00,66046,28.5,35.29666666666667,133.725,上長田,厳重警戒
2023-08-08,17:00,2023-08-08 17:00:00,66091,25.8,35.10333333333333,133.435,千屋,警戒
2023-08-08,17:00,2023-08-08 17:00:00,66127,27.9,35.111666666666665,134.17,奈義,警戒
2023-08-08,17:00,2023-08-08 17:00:00,66136,27.6,35.098333333333336,134.325,今岡,警戒
2023-08-08,17:00,2023-08-08 17:00:00,66171,29.7,35.068333333333335,133.75333333333333,久世,厳重警戒
2023-08-08,17:00,2023-08-08 17:00:00,66186,30.0,35.06333333333333,134.00833333333333,津山,厳重警戒
2023-08-08,17:00,2023-08-08 17:00:00,66221,26.0,34.943333333333335,133.51833333333335,新見,警戒
2023-08-08,17:00,2023-08-08 17:00:00,66296,29.8,34.86666666666667,133.90333333333334,福渡,厳重警戒
2023-08-08,17:00,2023-08-08 17:00:00,66306,28.0,34.815,134.18333333333334,和気,厳重警戒
2023-08-08,17:00,2023-08-08 17:00:00,66336,29.7,34.791666666666664,133.61,高梁,厳重警戒
2023-08-08,17:00,2023-08-08 17:00:00,66408,29.9,34.685,133.925,岡山,厳重警戒
2023-08-08,17:00,2023-08-08 17:00:00,66421,30.0,34.681666666666665,134.20666666666668,虫明,厳重警戒
2023-08-08,17:00,2023-08-08 17:00:00,66446,29.5,34.59,133.76833333333335,倉敷,厳重警戒
2023-08-08,17:00,2023-08-08 17:00:00,66481,28.4,34.501666666666665,133.495,笠岡,厳重警戒
2023-08-08,17:00,2023-08-08 17:00:00,66501,29.5,34.486666666666665,133.95,玉野,厳重警戒
2023-08-08,17:00,2023-08-08 17:00:00,67016,25.8,35.03333333333333,132.90166666666667,高野,警戒
2023-08-08,17:00,2023-08-08 17:00:00,67106,27.6,34.81166666666667,132.85,三次,警戒
2023-08-08,17:00,2023-08-08 17:00:00,67116,27.7,34.86,133.02333333333334,庄原,警戒
2023-08-08,17:00,2023-08-08 17:00:00,67151,27.5,34.76833333333333,132.46333333333334,大朝,警戒
2023-08-08,17:00,2023-08-08 17:00:00,67191,25.6,34.763333333333335,133.27833333333334,油木,警戒
2023-08-08,17:00,2023-08-08 17:00:00,67212,29.9,34.61,132.32,加計,厳重警戒
2023-08-08,17:00,2023-08-08 17:00:00,67292,30.3,34.545,132.53,三入,厳重警戒
2023-08-08,17:00,2023-08-08 17:00:00,67316,27.3,34.583333333333336,133.05,世羅,警戒
2023-08-08,17:00,2023-08-08 17:00:00,67326,28.2,34.56166666666667,133.23166666666665,府中,厳重警戒
2023-08-08,17:00,2023-08-08 17:00:00,67376,29.2,34.416666666666664,132.7,東広島,厳重警戒
2023-08-08,17:00,2023-08-08 17:00:00,67401,30.8,34.446666666666665,133.24666666666667,福山,厳重警戒
2023-08-08,17:00,2023-08-08 17:00:00,67421,29.2,34.365,132.19,廿日市津田,厳重警戒
2023-08-08,17:00,2023-08-08 17:00:00,67437,29.1,34.39833333333333,132.46166666666667,広島,厳重警戒
2023-08-08,17:00,2023-08-08 17:00:00,67461,30.5,34.33,132.98166666666665,竹原,厳重警戒
2023-08-08,17:00,2023-08-08 17:00:00,67471,30.8,34.278333333333336,133.12333333333333,生口島,厳重警戒
2023-08-08,17:00,2023-08-08 17:00:00,67496,30.3,34.221666666666664,132.22,大竹,厳重警戒
2023-08-08,17:00,2023-08-08 17:00:00,67511,30.0,34.24,132.55,呉,厳重警戒
2023-08-08,17:00,2023-08-08 17:00:00,67576,29.9,34.165,132.74833333333333,呉市蒲刈,厳重警戒
2023-08-08,17:00,2023-08-08 17:00:00,68022,30.1,36.20333333333333,133.33333333333334,西郷,厳重警戒
2023-08-08,17:00,2023-08-08 17:00:00,68056,30.4,36.096666666666664,133.09666666666666,海士,厳重警戒
2023-08-08,17:00,2023-08-08 17:00:00,68091,30.9,35.52,132.98333333333332,鹿島,厳重警戒
2023-08-08,17:00,2023-08-08 17:00:00,68132,29.4,35.45666666666666,133.065,松江,厳重警戒
2023-08-08,17:00,2023-08-08 17:00:00,68156,30.0,35.33166666666666,132.73,出雲,厳重警戒
2023-08-08,17:00,2023-08-08 17:00:00,68246,30.9,35.19,132.49666666666667,大田,厳重警戒
2023-08-08,17:00,2023-08-08 17:00:00,68261,27.4,35.196666666666665,132.815,掛合,警戒
2023-08-08,17:00,2023-08-08 17:00:00,68276,26.3,35.17333333333333,133.10333333333332,横田,警戒
2023-08-08,17:00,2023-08-08 17:00:00,68306,27.7,35.001666666666665,132.71166666666667,赤名,警戒
2023-08-08,17:00,2023-08-08 17:00:00,68351,27.2,34.97666666666667,132.49166666666667,川本,警戒
2023-08-08,17:00,2023-08-08 17:00:00,68376,31.0,34.89666666666667,132.07,浜田,危険
2023-08-08,17:00,2023-08-08 17:00:00,68401,28.6,34.85333333333333,132.53,瑞穂,厳重警戒
2023-08-08,17:00,2023-08-08 17:00:00,68431,27.1,34.776666666666664,132.10833333333332,弥栄,警戒
2023-08-08,17:00,2023-08-08 17:00:00,68462,29.9,34.67666666666667,131.84333333333333,益田,厳重警戒
2023-08-08,17:00,2023-08-08 17:00:00,68516,30.3,34.461666666666666,131.77,津和野,厳重警戒
2023-08-08,17:00,2023-08-08 17:00:00,68541,28.9,34.391666666666666,131.89333333333335,吉賀,厳重警戒
2023-08-08,17:00,2023-08-08 17:00:00,69006,31.3,35.54333333333334,133.235,境,危険
2023-08-08,17:00,2023-08-08 17:00:00,69021,31.2,35.52333333333333,133.56666666666666,塩津,危険
2023-08-08,17:00,2023-08-08 17:00:00,69041,29.8,35.52,133.99666666666667,青谷,厳重警戒
2023-08-08,17:00,2023-08-08 17:00:00,69061,28.8,35.55833333333333,134.36,岩井,厳重警戒
2023-08-08,17:00,2023-08-08 17:00:00,69076,30.5,35.43333333333333,133.33833333333334,米子,厳重警戒
2023-08-08,17:00,2023-08-08 17:00:00,69101,29.0,35.473333333333336,133.83833333333334,倉吉,厳重警戒
2023-08-08,17:00,2023-08-08 17:00:00,69122,29.5,35.486666666666665,134.23833333333334,鳥取,厳重警戒
2023-08-08,17:00,2023-08-08 17:00:00,69246,28.2,35.263333333333335,134.24,智頭,厳重警戒
2023-08-08,17:00,2023-08-08 17:00:00,69271,25.4,35.18666666666667,133.23,茶屋,警戒
2023-08-08,17:00,2023-08-08 17:00:00,81011,30.4,34.615,131.62333333333333,須佐,厳重警戒
2023-08-08,17:00,2023-08-08 17:00:00,81071,31.3,34.41,131.405,萩,危険
2023-08-08,17:00,2023-08-08 17:00:00,81116,29.8,34.37,131.055,油谷,厳重警戒
2023-08-08,17:00,2023-08-08 17:00:00,81151,29.3,34.39833333333333,131.725,徳佐,厳重警戒
2023-08-08,17:00,2023-08-08 17:00:00,81196,29.3,34.235,131.30666666666667,秋吉台,厳重警戒
2023-08-08,17:00,2023-08-08 17:00:00,81231,30.9,34.26166666666666,131.95166666666665,広瀬,厳重警戒
2023-08-08,17:00,2023-08-08 17:00:00,81266,30.1,34.18666666666667,131.07666666666665,豊田,厳重警戒
2023-08-08,17:00,2023-08-08 17:00:00,81286,29.6,34.16166666666667,131.46166666666667,山口,厳重警戒
2023-08-08,17:00,2023-08-08 17:00:00,81321,30.5,34.155,132.17833333333334,岩国,厳重警戒
2023-08-08,17:00,2023-08-08 17:00:00,81371,30.5,34.04,131.53333333333333,防府,厳重警戒
2023-08-08,17:00,2023-08-08 17:00:00,81386,30.4,34.01,131.87166666666667,下松,厳重警戒
2023-08-08,17:00,2023-08-08 17:00:00,81397,31.2,34.095,132.075,玖珂,危険
2023-08-08,17:00,2023-08-08 17:00:00,81428,30.4,33.94833333333333,130.925,下関,厳重警戒
2023-08-08,17:00,2023-08-08 17:00:00,81481,29.8,33.958333333333336,132.11333333333334,柳井,厳重警戒
2023-08-08,17:00,2023-08-08 17:00:00,81486,29.7,33.903333333333336,132.29333333333332,安下庄,厳重警戒
2023-08-08,17:00,2023-08-08 17:00:00,71066,27.7,34.02333333333333,133.795,池田,警戒
2023-08-08,17:00,2023-08-08 17:00:00,71087,29.9,34.04,134.15666666666667,穴吹,厳重警戒
2023-08-08,17:00,2023-08-08 17:00:00,71106,30.2,34.06666666666667,134.57333333333332,徳島,厳重警戒
2023-08-08,17:00,2023-08-08 17:00:00,71191,24.3,33.86666666666667,133.90333333333334,京上,注意
2023-08-08,17:00,2023-08-08 17:00:00,71231,28.2,33.836666666666666,134.74166666666667,蒲生田,厳重警戒
2023-08-08,17:00,2023-08-08 17:00:00,71251,25.5,33.77166666666667,134.19833333333332,木頭,警戒
2023-08-08,17:00,2023-08-08 17:00:00,71266,28.1,33.73166666666667,134.53833333333333,日和佐,厳重警戒
2023-08-08,17:00,2023-08-08 17:00:00,71291,28.6,33.611666666666665,134.355,海陽,厳重警戒
2023-08-08,17:00,2023-08-08 17:00:00,72061,30.3,34.471666666666664,134.27333333333334,内海,厳重警戒
2023-08-08,17:00,2023-08-08 17:00:00,72086,29.1,34.318333333333335,134.05333333333334,高松,厳重警戒
2023-08-08,17:00,2023-08-08 17:00:00,72111,30.1,34.275,133.75166666666667,多度津,厳重警戒
2023-08-08,17:00,2023-08-08 17:00:00,72121,29.6,34.236666666666665,133.92333333333335,滝宮,厳重警戒
2023-08-08,17:00,2023-08-08 17:00:00,72146,30.0,34.21333333333333,134.40666666666667,引田,厳重警戒
2023-08-08,17:00,2023-08-08 17:00:00,72161,30.3,34.12,133.77166666666668,財田,厳重警戒
2023-08-08,17:00,2023-08-08 17:00:00,73001,30.3,34.25,133.00666666666666,大三島,厳重警戒
2023-08-08,17:00,2023-08-08 17:00:00,73076,29.5,34.053333333333335,132.975,今治,厳重警戒
2023-08-08,17:00,2023-08-08 17:00:00,73126,28.7,33.915,133.08,西条,厳重警戒
2023-08-08,17:00,2023-08-08 17:00:00,73141,29.2,33.93666666666667,133.33833333333334,新居浜,厳重警戒
2023-08-08,17:00,2023-08-08 17:00:00,73151,30.4,33.98166666666667,133.58166666666668,四国中央,厳重警戒
2023-08-08,17:00,2023-08-08 17:00:00,73166,29.5,33.843333333333334,132.77666666666667,松山,厳重警戒
2023-08-08,17:00,2023-08-08 17:00:00,73256,27.1,33.61666666666667,132.48,長浜,警戒
2023-08-08,17:00,2023-08-08 17:00:00,73276,24.8,33.663333333333334,132.895,久万,注意
2023-08-08,17:00,2023-08-08 17:00:00,73306,27.5,33.50833333333333,132.535,大洲,警戒
2023-08-08,17:00,2023-08-08 17:00:00,73341,27.3,33.446666666666665,132.25666666666666,瀬戸,警戒
2023-08-08,17:00,2023-08-08 17:00:00,73406,28.1,33.36666666666667,132.50333333333333,宇和,厳重警戒
2023-08-08,17:00,2023-08-08 17:00:00,73442,27.8,33.22666666666667,132.55166666666668,宇和島,警戒
2023-08-08,17:00,2023-08-08 17:00:00,73446,26.6,33.25333333333333,132.675,近永,警戒
2023-08-08,17:00,2023-08-08 17:00:00,73516,27.7,32.96333333333333,132.57,御荘,警戒
2023-08-08,17:00,2023-08-08 17:00:00,74056,24.4,33.765,133.33833333333334,本川,注意
2023-08-08,17:00,2023-08-08 17:00:00,74071,26.7,33.75333333333333,133.575,本山,警戒
2023-08-08,17:00,2023-08-08 17:00:00,74136,27.4,33.69833333333333,133.875,大栃,警戒
2023-08-08,17:00,2023-08-08 17:00:00,74182,29.0,33.56666666666667,133.54833333333335,高知,厳重警戒
2023-08-08,17:00,2023-08-08 17:00:00,74187,30.0,33.59,133.64333333333335,後免,厳重警戒
2023-08-08,17:00,2023-08-08 17:00:00,74271,30.7,33.48833333333334,133.93333333333334,安芸,厳重警戒
2023-08-08,17:00,2023-08-08 17:00:00,74296,24.7,33.39,132.92166666666665,梼原,注意
2023-08-08,17:00,2023-08-08 17:00:00,74311,28.1,33.385,133.27666666666667,須崎,厳重警戒
2023-08-08,17:00,2023-08-08 17:00:00,74361,27.4,33.20666666666666,133.12833333333333,窪川,警戒
2023-08-08,17:00,2023-08-08 17:00:00,74372,27.4,33.251666666666665,134.17666666666668,室戸岬,警戒
2023-08-08,17:00,2023-08-08 17:00:00,74381,27.0,33.17,132.79166666666666,江川崎,警戒
2023-08-08,17:00,2023-08-08 17:00:00,74436,28.2,33.07833333333333,133.10166666666666,佐賀,厳重警戒
2023-08-08,17:00,2023-08-08 17:00:00,74447,27.5,32.92,132.695,宿毛,警戒
2023-08-08,17:00,2023-08-08 17:00:00,74456,28.1,32.99,132.92,中村,厳重警戒
2023-08-08,17:00,2023-08-08 17:00:00,74516,28.4,32.721666666666664,133.01,清水,厳重警戒
2023-08-08,17:00,2023-08-08 17:00:00,82046,29.5,33.80833333333333,130.53833333333333,宗像,厳重警戒
2023-08-08,17:00,2023-08-08 17:00:00,82056,30.1,33.85166666666667,130.74333333333334,八幡,厳重警戒
2023-08-08,17:00,2023-08-08 17:00:00,82101,29.5,33.71333333333333,130.975,行橋,厳重警戒
2023-08-08,17:00,2023-08-08 17:00:00,82136,27.9,33.651666666666664,130.69333333333333,飯塚,警戒
2023-08-08,17:00,2023-08-08 17:00:00,82171,28.4,33.56,130.19,前原,厳重警戒
2023-08-08,17:00,2023-08-08 17:00:00,82182,27.6,33.58166666666666,130.375,福岡,警戒
2023-08-08,17:00,2023-08-08 17:00:00,82191,27.6,33.49666666666667,130.49,太宰府,警戒
2023-08-08,17:00,2023-08-08 17:00:00,82206,27.3,33.55833333333333,130.855,添田,警戒
2023-08-08,17:00,2023-08-08 17:00:00,82261,27.3,33.406666666666666,130.695,朝倉,警戒
2023-08-08,17:00,2023-08-08 17:00:00,82306,28.2,33.303333333333335,130.49333333333334,久留米,厳重警戒
2023-08-08,17:00,2023-08-08 17:00:00,82317,26.5,33.225,130.645,黒木,警戒
2023-08-08,17:00,2023-08-08 17:00:00,82361,27.2,33.00666666666667,130.46666666666667,大牟田,警戒
2023-08-08,17:00,2023-08-08 17:00:00,83021,28.8,33.678333333333335,131.575,国見,厳重警戒
2023-08-08,17:00,2023-08-08 17:00:00,83051,29.6,33.586666666666666,131.245,中津,厳重警戒
2023-08-08,17:00,2023-08-08 17:00:00,83061,30.0,33.57,131.43333333333334,豊後高田,厳重警戒
2023-08-08,17:00,2023-08-08 17:00:00,83106,27.2,33.42,131.31666666666666,院内,警戒
2023-08-08,17:00,2023-08-08 17:00:00,83121,29.5,33.416666666666664,131.59666666666666,杵築,厳重警戒
2023-08-08,17:00,2023-08-08 17:00:00,83137,27.5,33.321666666666665,130.92833333333334,日田,警戒
2023-08-08,17:00,2023-08-08 17:00:00,83191,25.4,33.291666666666664,131.155,玖珠,警戒
2023-08-08,17:00,2023-08-08 17:00:00,83201,24.6,33.25333333333333,131.34666666666666,湯布院,注意
2023-08-08,17:00,2023-08-08 17:00:00,83216,28.7,33.235,131.61833333333334,大分,厳重警戒
2023-08-08,17:00,2023-08-08 17:00:00,83341,27.3,33.065,131.63166666666666,犬飼,警戒
2023-08-08,17:00,2023-08-08 17:00:00,83371,26.0,32.973333333333336,131.39833333333334,竹田,警戒
2023-08-08,17:00,2023-08-08 17:00:00,83401,27.3,32.95,131.90166666666667,佐伯,警戒
2023-08-08,17:00,2023-08-08 17:00:00,83431,26.2,32.845,131.675,宇目,警戒
2023-08-08,17:00,2023-08-08 17:00:00,83476,27.6,32.795,131.92333333333335,蒲江,警戒
2023-08-08,17:00,2023-08-08 17:00:00,84012,28.2,34.69833333333333,129.445,鰐浦,厳重警戒
2023-08-08,17:00,2023-08-08 17:00:00,84072,27.7,34.196666666666665,129.29166666666666,厳原,警戒
2023-08-08,17:00,2023-08-08 17:00:00,84121,29.0,33.8,129.72166666666666,芦辺,厳重警戒
2023-08-08,17:00,2023-08-08 17:00:00,84171,27.4,33.36,129.55,平戸,警戒
2023-08-08,17:00,2023-08-08 17:00:00,84183,27.4,33.34166666666667,129.71166666666667,松浦,警戒
2023-08-08,17:00,2023-08-08 17:00:00,84266,28.0,33.15833333333333,129.72666666666666,佐世保,厳重警戒
2023-08-08,17:00,2023-08-08 17:00:00,84306,27.8,33.013333333333335,129.65166666666667,西海,警戒
2023-08-08,17:00,2023-08-08 17:00:00,84341,27.9,32.98166666666667,129.11833333333334,有川,警戒
2023-08-08,17:00,2023-08-08 17:00:00,84496,26.1,32.733333333333334,129.86666666666667,長崎,警戒
2023-08-08,17:00,2023-08-08 17:00:00,84519,23.4,32.736666666666665,130.26166666666666,雲仙岳,注意
2023-08-08,17:00,2023-08-08 17:00:00,84523,27.8,32.76,130.36166666666668,島原,警戒
2023-08-08,17:00,2023-08-08 17:00:00,84536,27.9,32.693333333333335,128.82666666666665,福江,警戒
2023-08-08,17:00,2023-08-08 17:00:00,84561,27.7,32.611666666666665,130.19333333333333,口之津,警戒
2023-08-08,17:00,2023-08-08 17:00:00,84597,27.4,32.58166666666666,129.77666666666667,脇岬,警戒
2023-08-08,17:00,2023-08-08 17:00:00,85033,29.2,33.458333333333336,129.955,唐津,厳重警戒
2023-08-08,17:00,2023-08-08 17:00:00,85116,27.8,33.266666666666666,129.87833333333333,伊万里,警戒
2023-08-08,17:00,2023-08-08 17:00:00,85142,27.8,33.265,130.305,佐賀,警戒
2023-08-08,17:00,2023-08-08 17:00:00,85161,27.1,33.11666666666667,129.995,嬉野,警戒
2023-08-08,17:00,2023-08-08 17:00:00,85166,27.5,33.18333333333333,130.14833333333334,白石,警戒
2023-08-08,17:00,2023-08-08 17:00:00,86006,26.6,33.115,130.69166666666666,鹿北,警戒
2023-08-08,17:00,2023-08-08 17:00:00,86066,25.4,33.10333333333333,131.06666666666666,南小国,警戒
2023-08-08,17:00,2023-08-08 17:00:00,86086,27.2,32.915,130.51166666666666,岱明,警戒
2023-08-08,17:00,2023-08-08 17:00:00,86101,26.8,32.945,130.78166666666667,菊池,警戒
2023-08-08,17:00,2023-08-08 17:00:00,86111,24.3,32.946666666666665,131.04,阿蘇乙姫,注意
2023-08-08,17:00,2023-08-08 17:00:00,86141,27.0,32.81333333333333,130.70666666666668,熊本,警戒
2023-08-08,17:00,2023-08-08 17:00:00,86157,25.1,32.83166666666666,131.01333333333332,南阿蘇,警戒
2023-08-08,17:00,2023-08-08 17:00:00,86161,24.4,32.821666666666665,131.125,高森,注意
2023-08-08,17:00,2023-08-08 17:00:00,86216,26.9,32.611666666666665,130.47833333333332,三角,警戒
2023-08-08,17:00,2023-08-08 17:00:00,86236,28.7,32.67166666666667,130.81666666666666,甲佐,厳重警戒
2023-08-08,17:00,2023-08-08 17:00:00,86271,27.4,32.515,130.44666666666666,松島,警戒
2023-08-08,17:00,2023-08-08 17:00:00,86316,26.8,32.468333333333334,130.18,本渡,警戒
2023-08-08,17:00,2023-08-08 17:00:00,86336,27.7,32.473333333333336,130.60666666666665,八代,警戒
2023-08-08,17:00,2023-08-08 17:00:00,86451,27.0,32.205,130.40666666666667,水俣,警戒
2023-08-08,17:00,2023-08-08 17:00:00,86467,26.6,32.21666666666667,130.755,人吉,警戒
2023-08-08,17:00,2023-08-08 17:00:00,86477,25.5,32.225,130.905,上,警戒
2023-08-08,17:00,2023-08-08 17:00:00,86491,27.1,32.196666666666665,130.02666666666667,牛深,警戒
2023-08-08,17:00,2023-08-08 17:00:00,87041,25.3,32.711666666666666,131.29,高千穂,警戒
2023-08-08,17:00,2023-08-08 17:00:00,87066,27.4,32.711666666666666,131.82,古江,警戒
2023-08-08,17:00,2023-08-08 17:00:00,87071,23.9,32.64333333333333,131.15666666666667,鞍岡,注意
2023-08-08,17:00,2023-08-08 17:00:00,87141,28.3,32.58166666666666,131.65666666666667,延岡,厳重警戒
2023-08-08,17:00,2023-08-08 17:00:00,87181,27.9,32.40833333333333,131.6,日向,警戒
2023-08-08,17:00,2023-08-08 17:00:00,87206,26.1,32.385,131.33166666666668,神門,警戒
2023-08-08,17:00,2023-08-08 17:00:00,87231,25.4,32.24,131.15166666666667,西米良,警戒
2023-08-08,17:00,2023-08-08 17:00:00,87293,28.1,32.123333333333335,131.475,高鍋,厳重警戒
2023-08-08,17:00,2023-08-08 17:00:00,87301,25.6,32.04666666666667,130.81,加久藤,警戒
2023-08-08,17:00,2023-08-08 17:00:00,87331,27.4,32.06333333333333,131.41333333333333,西都,警戒
2023-08-08,17:00,2023-08-08 17:00:00,87352,25.1,32.0,130.95333333333335,小林,警戒
2023-08-08,17:00,2023-08-08 17:00:00,87376,26.7,31.938333333333333,131.41333333333333,宮崎,警戒
2023-08-08,17:00,2023-08-08 17:00:00,87406,26.7,31.843333333333334,131.30833333333334,田野,警戒
2023-08-08,17:00,2023-08-08 17:00:00,87426,26.3,31.73,131.08166666666668,都城,警戒
2023-08-08,17:00,2023-08-08 17:00:00,87492,27.6,31.578333333333333,131.40666666666667,油津,警戒
2023-08-08,17:00,2023-08-08 17:00:00,87501,26.7,31.465,131.22,串間,警戒
2023-08-08,17:00,2023-08-08 17:00:00,88061,27.0,32.026666666666664,130.2,阿久根,警戒
2023-08-08,17:00,2023-08-08 17:00:00,88081,26.2,32.04666666666667,130.62666666666667,大口,警戒
2023-08-08,17:00,2023-08-08 17:00:00,88107,27.2,31.916666666666668,130.455,さつま柏原,警戒
2023-08-08,17:00,2023-08-08 17:00:00,88131,27.2,31.835,129.86666666666667,中甑,警戒
2023-08-08,17:00,2023-08-08 17:00:00,88151,26.5,31.833333333333332,130.315,川内,警戒
2023-08-08,17:00,2023-08-08 17:00:00,88261,26.5,31.668333333333333,130.32833333333335,東市来,警戒
2023-08-08,17:00,2023-08-08 17:00:00,88286,24.4,31.661666666666665,130.84333333333333,牧之原,注意
2023-08-08,17:00,2023-08-08 17:00:00,88317,25.9,31.555,130.54666666666665,鹿児島,警戒
2023-08-08,17:00,2023-08-08 17:00:00,88331,24.9,31.588333333333335,130.855,輝北,注意
2023-08-08,17:00,2023-08-08 17:00:00,88371,26.6,31.415,130.325,加世田,警戒
2023-08-08,17:00,2023-08-08 17:00:00,88406,26.6,31.47833333333333,131.095,志布志,警戒
2023-08-08,17:00,2023-08-08 17:00:00,88432,27.4,31.386666666666667,130.54,喜入,警戒
2023-08-08,17:00,2023-08-08 17:00:00,88442,26.5,31.391666666666666,130.86333333333334,鹿屋,警戒
2023-08-08,17:00,2023-08-08 17:00:00,88447,26.9,31.34,130.93833333333333,肝付前田,警戒
2023-08-08,17:00,2023-08-08 17:00:00,88466,27.1,31.27166666666667,130.29166666666666,枕崎,警戒
2023-08-08,17:00,2023-08-08 17:00:00,88486,27.1,31.25,130.63666666666666,指宿,警戒
2023-08-08,17:00,2023-08-08 17:00:00,88506,27.2,31.276666666666667,131.055,内之浦,警戒
2023-08-08,17:00,2023-08-08 17:00:00,88536,25.9,31.198333333333334,130.84333333333333,田代,警戒
2023-08-08,17:00,2023-08-08 17:00:00,88612,27.0,30.72,130.98166666666665,種子島,警戒
2023-08-08,17:00,2023-08-08 17:00:00,88666,25.9,30.406666666666666,130.90166666666667,上中,警戒
2023-08-08,17:00,2023-08-08 17:00:00,88686,26.7,30.385,130.65833333333333,屋久島,警戒
2023-08-08,17:00,2023-08-08 17:00:00,88706,26.6,30.235,130.555,尾之間,警戒
2023-08-08,17:00,2023-08-08 17:00:00,88736,26.3,29.84,129.86666666666667,中之島,警戒
2023-08-08,17:00,2023-08-08 17:00:00,88836,26.3,28.378333333333334,129.495,名瀬,警戒
2023-08-08,17:00,2023-08-08 17:00:00,88901,27.1,28.143333333333334,129.315,古仁屋,警戒
2023-08-08,17:00,2023-08-08 17:00:00,88956,27.5,27.676666666666666,128.97333333333333,伊仙,警戒
2023-08-08,17:00,2023-08-08 17:00:00,88971,28.8,27.431666666666665,128.705,沖永良部,厳重警戒
2023-08-08,17:00,2023-08-08 17:00:00,91011,27.3,26.948333333333334,127.94,伊是名,警戒
2023-08-08,17:00,2023-08-08 17:00:00,91021,26.0,26.835,128.27166666666668,奥,警戒
2023-08-08,17:00,2023-08-08 17:00:00,91107,28.8,26.593333333333334,127.965,名護,厳重警戒
2023-08-08,17:00,2023-08-08 17:00:00,91146,30.0,26.336666666666666,126.80333333333333,久米島,厳重警戒
2023-08-08,17:00,2023-08-08 17:00:00,91166,28.2,26.363333333333333,127.97166666666666,宮城島,厳重警戒
2023-08-08,17:00,2023-08-08 17:00:00,91181,26.4,26.21,127.36333333333333,渡嘉敷,警戒
2023-08-08,17:00,2023-08-08 17:00:00,91197,28.9,26.206666666666667,127.68666666666667,那覇,厳重警戒
2023-08-08,17:00,2023-08-08 17:00:00,91241,27.0,26.153333333333332,127.765,糸数,警戒
2023-08-08,17:00,2023-08-08 17:00:00,92011,27.3,25.828333333333333,131.22833333333332,南大東,警戒
2023-08-08,17:00,2023-08-08 17:00:00,93041,29.9,24.793333333333333,125.27833333333334,宮古島,厳重警戒
2023-08-08,17:00,2023-08-08 17:00:00,94001,30.8,24.506666666666668,124.28,伊原間,厳重警戒
2023-08-08,17:00,2023-08-08 17:00:00,94017,31.8,24.466666666666665,123.01,与那国島,危険
2023-08-08,17:00,2023-08-08 17:00:00,94062,30.4,24.426666666666666,123.765,西表島,厳重警戒
2023-08-08,17:00,2023-08-08 17:00:00,94081,30.8,24.336666666666666,124.16333333333333,石垣島,厳重警戒
2023-08-08,17:00,2023-08-08 17:00:00,94101,28.9,24.265,123.87166666666667,大原,厳重警戒
2023-08-08,17:00,2023-08-08 17:00:00,94116,30.9,24.055,123.76666666666667,波照間,厳重警戒
